Timestamp,Roll_Angle,Pitch_Angle,Yaw_Angle,Altitude,Roll_Setpoint,Pitch_Setpoint,Yaw_Setpoint,Altitude_Setpoint
2025-09-03T18:04:33.103623,0.000,0.000,0.000,-22.9,0.000,0.000,0.000,-22.9
2025-09-03T18:04:34.180470,-13.960,52.360,31.630,-26.2,-13.960,52.360,31.630,-26.2
2025-09-03T18:04:35.258029,-14.770,52.190,31.200,-29.2,-14.770,52.190,31.200,-29.2
2025-09-03T18:04:36.346223,-14.980,52.120,31.080,-31.9,-14.980,52.120,31.080,-31.9
2025-09-03T18:04:37.423116,-15.310,51.850,31.160,-34.3,-15.310,51.850,31.160,-34.3
2025-09-03T18:04:37.424415,-15.320,51.850,31.170,-36.5,-15.320,51.850,31.170,-36.5
2025-09-03T18:04:37.426421,-15.330,51.850,31.160,-38.4,-15.330,51.850,31.160,-38.4
2025-09-03T18:04:37.427421,-15.340,51.830,31.160,-40.2,-15.340,51.830,31.160,-40.2
2025-09-03T18:04:38.514575,-15.920,50.430,31.540,-41.8,-15.920,50.430,31.540,-41.8
2025-09-03T18:04:38.515702,-15.930,50.400,31.560,-43.2,-15.930,50.400,31.560,-43.2
2025-09-03T18:04:38.517706,-15.960,50.360,31.570,-44.5,-15.960,50.360,31.570,-44.5
2025-09-03T18:04:38.519710,-15.980,50.330,31.570,-45.7,-15.980,50.330,31.570,-45.7
2025-09-03T18:04:38.520710,-16.000,50.310,31.570,-46.7,-16.000,50.310,31.570,-46.7
2025-09-03T18:04:39.611789,-16.030,50.280,31.560,-48.5,-16.030,50.280,31.560,-48.5
2025-09-03T18:04:39.613789,-16.070,50.240,31.550,-49.3,-16.070,50.240,31.550,-49.3
2025-09-03T18:04:39.614788,-16.090,50.230,31.560,-49.9,-16.090,50.230,31.560,-49.9
2025-09-03T18:04:39.616790,-16.090,50.210,31.580,-50.6,-16.090,50.210,31.580,-50.6
2025-09-03T18:04:39.617789,-16.100,50.200,31.590,-51.1,-16.100,50.200,31.590,-51.1
2025-09-03T18:04:40.710034,-16.110,50.190,31.590,-51.6,-16.110,50.190,31.590,-51.6
2025-09-03T18:04:40.712038,-16.110,50.180,31.590,-52.1,-16.110,50.180,31.590,-52.1
2025-09-03T18:04:40.713040,-16.120,50.150,31.600,-52.5,-16.120,50.150,31.600,-52.5
2025-09-03T18:04:40.714040,-16.130,50.150,31.600,-52.8,-16.130,50.150,31.600,-52.8
2025-09-03T18:04:40.715048,-16.140,50.130,31.610,-53.1,-16.140,50.130,31.610,-53.1
2025-09-03T18:04:41.807017,-16.150,50.120,31.610,-53.4,-16.150,50.120,31.610,-53.4
2025-09-03T18:04:41.809018,-16.160,50.110,31.610,-53.7,-16.160,50.110,31.610,-53.7
2025-09-03T18:04:41.810018,-16.160,50.100,31.600,-53.9,-16.160,50.100,31.600,-53.9
2025-09-03T18:04:41.812017,-16.170,50.080,31.610,-54.1,-16.170,50.080,31.610,-54.1
2025-09-03T18:04:41.813018,-16.170,50.070,31.620,-54.3,-16.170,50.070,31.620,-54.3
2025-09-03T18:04:42.902093,-16.180,50.070,31.620,-54.5,-16.180,50.070,31.620,-54.5
2025-09-03T18:04:42.904093,-16.190,50.060,31.620,-54.6,-16.190,50.060,31.620,-54.6
2025-09-03T18:04:42.905093,-16.190,50.050,31.620,-54.7,-16.190,50.050,31.620,-54.7
2025-09-03T18:04:42.907093,-16.190,50.050,31.620,-54.9,-16.190,50.050,31.620,-54.9
2025-09-03T18:04:42.908093,-16.190,50.040,31.610,-55.0,-16.190,50.040,31.610,-55.0
2025-09-03T18:04:43.986892,-16.190,50.040,31.620,-55.1,-16.190,50.040,31.620,-55.1
2025-09-03T18:04:43.988892,-16.200,50.030,31.610,-55.2,-16.200,50.030,31.610,-55.2
2025-09-03T18:04:43.990894,-16.200,50.020,31.620,-55.3,-16.200,50.020,31.620,-55.3
2025-09-03T18:04:43.991895,-16.200,50.020,31.620,-55.3,-16.200,50.020,31.620,-55.3
2025-09-03T18:04:43.993890,-16.200,50.020,31.620,-55.4,-16.200,50.020,31.620,-55.4
2025-09-03T18:04:45.090236,-16.200,50.010,31.620,-55.5,-16.200,50.010,31.620,-55.5
2025-09-03T18:04:45.092237,-16.190,50.010,31.630,-55.5,-16.190,50.010,31.630,-55.5
2025-09-03T18:04:45.093236,-16.190,50.010,31.630,-55.6,-16.190,50.010,31.630,-55.6
2025-09-03T18:04:45.095237,-16.190,50.000,31.630,-55.6,-16.190,50.000,31.630,-55.6
2025-09-03T18:04:45.096237,-16.190,50.000,31.630,-55.7,-16.190,50.000,31.630,-55.7
2025-09-03T18:04:46.178581,-16.180,49.990,31.630,-55.7,-16.180,49.990,31.630,-55.7
2025-09-03T18:04:46.180579,-16.180,50.000,31.620,-55.7,-16.180,50.000,31.620,-55.7
2025-09-03T18:04:46.182580,-16.190,49.990,31.630,-55.8,-16.190,49.990,31.630,-55.8
2025-09-03T18:04:46.184581,-16.190,49.990,31.630,-55.8,-16.190,49.990,31.630,-55.8
2025-09-03T18:04:46.185579,-16.190,49.990,31.620,-55.8,-16.190,49.990,31.620,-55.8
2025-09-03T18:04:47.277694,-16.190,49.980,31.620,-55.9,-16.190,49.980,31.620,-55.9
2025-09-03T18:04:47.279700,-16.190,49.980,31.630,-55.9,-16.190,49.980,31.630,-55.9
2025-09-03T18:04:47.281700,-16.190,49.980,31.620,-55.9,-16.190,49.980,31.620,-55.9
2025-09-03T18:04:47.283701,-16.200,49.980,31.630,-55.9,-16.200,49.980,31.630,-55.9
2025-09-03T18:04:47.284700,-16.200,49.980,31.630,-55.9,-16.200,49.980,31.630,-55.9
2025-09-03T18:04:48.369084,-16.200,49.970,31.630,-55.9,-16.200,49.970,31.630,-55.9
2025-09-03T18:04:48.370084,-16.200,49.970,31.630,-55.9,-16.200,49.970,31.630,-55.9
2025-09-03T18:04:48.372085,-16.200,49.970,31.630,-56.0,-16.200,49.970,31.630,-56.0
2025-09-03T18:04:48.374084,-16.200,49.980,31.620,-56.0,-16.200,49.980,31.620,-56.0
2025-09-03T18:04:48.376085,-16.200,49.980,31.620,-56.0,-16.200,49.980,31.620,-56.0
2025-09-03T18:04:49.478771,-16.190,49.990,31.620,-56.0,-16.190,49.990,31.620,-56.0
2025-09-03T18:04:49.481638,-16.190,49.980,31.620,-56.0,-16.190,49.980,31.620,-56.0
2025-09-03T18:04:49.482637,-16.190,49.990,31.620,-56.0,-16.190,49.990,31.620,-56.0
2025-09-03T18:04:49.484637,-16.190,49.990,31.620,-56.0,-16.190,49.990,31.620,-56.0
2025-09-03T18:04:49.485644,-16.190,49.990,31.610,-56.0,-16.190,49.990,31.610,-56.0
2025-09-03T18:04:50.581051,-16.190,49.990,31.610,-56.0,-16.190,49.990,31.610,-56.0
2025-09-03T18:04:50.584050,-16.180,50.000,31.610,-56.0,-16.180,50.000,31.610,-56.0
2025-09-03T18:04:50.585049,-16.180,50.000,31.610,-56.0,-16.180,50.000,31.610,-56.0
2025-09-03T18:04:50.587049,-16.180,50.000,31.610,-56.0,-16.180,50.000,31.610,-56.0
2025-09-03T18:04:50.588048,-16.180,49.990,31.610,-56.0,-16.180,49.990,31.610,-56.0
2025-09-03T18:04:51.685052,-16.180,49.990,31.620,-56.0,-16.180,49.990,31.620,-56.0
2025-09-03T18:04:51.687050,-16.170,49.990,31.610,-56.0,-16.170,49.990,31.610,-56.0
2025-09-03T18:04:51.689051,-16.170,49.990,31.610,-56.0,-16.170,49.990,31.610,-56.0
2025-09-03T18:04:51.690054,-16.170,50.000,31.600,-56.0,-16.170,50.000,31.600,-56.0
2025-09-03T18:04:51.692053,-16.170,50.000,31.600,-56.1,-16.170,50.000,31.600,-56.1
2025-09-03T18:04:52.776088,-16.170,50.000,31.600,-56.0,-16.170,50.000,31.600,-56.0
2025-09-03T18:04:52.779092,-16.170,50.000,31.600,-56.0,-16.170,50.000,31.600,-56.0
2025-09-03T18:04:52.781090,-16.170,50.000,31.600,-56.0,-16.170,50.000,31.600,-56.0
2025-09-03T18:04:52.782090,-16.170,50.000,31.600,-56.0,-16.170,50.000,31.600,-56.0
2025-09-03T18:04:52.783089,-16.170,50.000,31.600,-56.1,-16.170,50.000,31.600,-56.1
2025-09-03T18:04:53.880478,-16.170,50.000,31.600,-56.1,-16.170,50.000,31.600,-56.1
2025-09-03T18:04:53.882827,-16.170,50.000,31.600,-56.1,-16.170,50.000,31.600,-56.1
2025-09-03T18:04:53.884825,-16.170,50.000,31.610,-56.1,-16.170,50.000,31.610,-56.1
2025-09-03T18:04:53.886826,-16.170,49.990,31.610,-56.1,-16.170,49.990,31.610,-56.1
2025-09-03T18:04:53.887826,-16.160,49.990,31.600,-56.1,-16.160,49.990,31.600,-56.1
2025-09-03T18:04:54.974894,-16.160,49.990,31.600,-56.1,-16.160,49.990,31.600,-56.1
2025-09-03T18:04:54.977894,-16.170,49.990,31.590,-56.1,-16.170,49.990,31.590,-56.1
2025-09-03T18:04:54.979895,-16.170,49.990,31.600,-56.1,-16.170,49.990,31.600,-56.1
2025-09-03T18:04:54.981902,-16.170,49.990,31.590,-56.1,-16.170,49.990,31.590,-56.1
2025-09-03T18:04:54.982893,-16.170,49.990,31.590,-56.1,-16.170,49.990,31.590,-56.1
2025-09-03T18:04:56.075843,-16.170,49.990,31.590,-56.1,-16.170,49.990,31.590,-56.1
2025-09-03T18:04:56.077850,-16.160,49.990,31.590,-56.1,-16.160,49.990,31.590,-56.1
2025-09-03T18:04:56.079848,-16.160,49.990,31.590,-56.1,-16.160,49.990,31.590,-56.1
2025-09-03T18:04:56.081848,-16.160,50.000,31.590,-56.1,-16.160,50.000,31.590,-56.1
2025-09-03T18:04:56.082872,-16.160,50.000,31.590,-56.1,-16.160,50.000,31.590,-56.1
2025-09-03T18:04:57.177380,-16.150,50.000,31.590,-56.1,-16.150,50.000,31.590,-56.1
2025-09-03T18:04:57.180403,-16.150,50.000,31.590,-56.1,-16.150,50.000,31.590,-56.1
2025-09-03T18:04:57.182379,-16.150,50.000,31.590,-56.1,-16.150,50.000,31.590,-56.1
2025-09-03T18:04:57.184377,-16.140,50.000,31.590,-56.1,-16.140,50.000,31.590,-56.1
2025-09-03T18:04:57.185377,-16.130,50.010,31.570,-56.1,-16.130,50.010,31.570,-56.1
2025-09-03T18:04:58.280619,-16.180,49.990,31.630,-56.1,-16.180,49.990,31.630,-56.1
2025-09-03T18:04:58.283616,-16.160,49.980,31.630,-56.1,-16.160,49.980,31.630,-56.1
2025-09-03T18:04:58.284616,-16.140,50.000,31.580,-56.1,-16.140,50.000,31.580,-56.1
2025-09-03T18:04:58.286617,-16.170,50.000,31.600,-56.1,-16.170,50.000,31.600,-56.1
2025-09-03T18:04:58.288617,-16.170,49.970,31.650,-56.1,-16.170,49.970,31.650,-56.1
2025-09-03T18:04:59.386160,-16.170,49.970,31.650,-56.1,-16.170,49.970,31.650,-56.1
2025-09-03T18:04:59.387165,-16.170,50.000,31.620,-56.1,-16.170,50.000,31.620,-56.1
2025-09-03T18:04:59.388164,-16.170,49.990,31.610,-56.1,-16.170,49.990,31.610,-56.1
2025-09-03T18:04:59.390164,-16.180,49.980,31.620,-56.1,-16.180,49.980,31.620,-56.1
2025-09-03T18:04:59.391164,-16.180,49.980,31.630,-56.1,-16.180,49.980,31.630,-56.1
2025-09-03T18:05:00.485223,-16.160,49.980,31.630,-56.1,-16.160,49.980,31.630,-56.1
2025-09-03T18:05:00.485773,-16.160,49.980,31.630,-56.1,-16.160,49.980,31.630,-56.1
2025-09-03T18:05:00.487779,-16.160,49.960,31.640,-56.1,-16.160,49.960,31.640,-56.1
2025-09-03T18:05:00.488779,-16.150,49.990,31.630,-56.1,-16.150,49.990,31.630,-56.1
2025-09-03T18:05:00.490778,-16.160,49.980,31.630,-56.1,-16.160,49.980,31.630,-56.1
2025-09-03T18:05:01.566105,-16.150,49.970,31.640,-56.1,-16.150,49.970,31.640,-56.1
2025-09-03T18:05:01.568114,-16.160,49.980,31.630,-56.1,-16.160,49.980,31.630,-56.1
2025-09-03T18:05:01.569106,-16.160,49.970,31.630,-56.1,-16.160,49.970,31.630,-56.1
2025-09-03T18:05:01.571107,-16.160,49.980,31.630,-56.1,-16.160,49.980,31.630,-56.1
2025-09-03T18:05:01.573106,-16.170,49.970,31.630,-56.1,-16.170,49.970,31.630,-56.1
2025-09-03T18:05:02.671643,-16.160,49.980,31.630,-56.1,-16.160,49.980,31.630,-56.1
2025-09-03T18:05:02.674646,-16.160,49.980,31.630,-56.1,-16.160,49.980,31.630,-56.1
2025-09-03T18:05:02.675653,-16.160,49.970,31.640,-56.1,-16.160,49.970,31.640,-56.1
2025-09-03T18:05:02.677645,-16.160,49.990,31.620,-56.1,-16.160,49.990,31.620,-56.1
2025-09-03T18:05:02.678642,-16.160,49.970,31.640,-56.1,-16.160,49.970,31.640,-56.1
2025-09-03T18:05:03.773489,-16.150,49.980,31.630,-56.1,-16.150,49.980,31.630,-56.1
2025-09-03T18:05:03.775489,-16.170,49.970,31.640,-56.1,-16.170,49.970,31.640,-56.1
2025-09-03T18:05:03.776489,-16.210,49.940,31.730,-56.1,-16.210,49.940,31.730,-56.1
2025-09-03T18:05:03.778488,-16.120,49.880,31.650,-56.1,-16.120,49.880,31.650,-56.1
2025-09-03T18:05:03.779497,-15.850,49.640,31.530,-56.1,-15.850,49.640,31.530,-56.1
2025-09-03T18:05:04.869693,-15.410,49.030,31.580,-56.2,-15.410,49.030,31.580,-56.2
2025-09-03T18:05:04.870690,-15.000,47.940,31.870,-56.2,-15.000,47.940,31.870,-56.2
2025-09-03T18:05:04.872690,-14.580,46.810,32.230,-56.2,-14.580,46.810,32.230,-56.2
2025-09-03T18:05:04.874689,-14.100,45.540,32.560,-56.3,-14.100,45.540,32.560,-56.3
2025-09-03T18:05:04.876690,-13.410,43.970,33.030,-56.3,-13.410,43.970,33.030,-56.3
2025-09-03T18:05:05.969572,-12.620,42.210,33.670,-56.3,-12.620,42.210,33.670,-56.3
2025-09-03T18:05:05.971579,-11.900,40.620,34.240,-56.3,-11.900,40.620,34.240,-56.3
2025-09-03T18:05:05.972569,-10.150,37.060,35.200,-56.3,-10.150,37.060,35.200,-56.3
2025-09-03T18:05:05.975568,-8.660,34.260,35.560,-56.3,-8.660,34.260,35.560,-56.3
2025-09-03T18:05:05.978569,-7.330,31.750,35.530,-56.3,-7.330,31.750,35.530,-56.3
2025-09-03T18:05:07.065647,-6.110,28.870,35.250,-56.3,-6.110,28.870,35.250,-56.3
2025-09-03T18:05:07.066648,-5.420,26.350,34.830,-56.3,-5.420,26.350,34.830,-56.3
2025-09-03T18:05:07.068648,-5.230,24.200,34.390,-56.3,-5.230,24.200,34.390,-56.3
2025-09-03T18:05:07.069652,-5.410,22.020,33.870,-56.2,-5.410,22.020,33.870,-56.2
2025-09-03T18:05:07.072647,-5.670,20.600,33.520,-56.2,-5.670,20.600,33.520,-56.2
2025-09-03T18:05:08.166397,-5.940,19.050,33.220,-56.2,-5.940,19.050,33.220,-56.2
2025-09-03T18:05:08.167396,-6.080,17.570,33.070,-56.2,-6.080,17.570,33.070,-56.2
2025-09-03T18:05:08.169397,-5.900,15.840,33.120,-56.2,-5.900,15.840,33.120,-56.2
2025-09-03T18:05:08.170398,-5.450,14.290,33.160,-56.3,-5.450,14.290,33.160,-56.3
2025-09-03T18:05:08.172407,-4.860,12.940,33.110,-56.3,-4.860,12.940,33.110,-56.3
2025-09-03T18:05:09.269326,-4.180,11.420,33.080,-56.2,-4.180,11.420,33.080,-56.2
2025-09-03T18:05:09.271323,-3.620,9.930,33.050,-56.2,-3.620,9.930,33.050,-56.2
2025-09-03T18:05:09.272334,-3.300,8.710,33.020,-56.2,-3.300,8.710,33.020,-56.2
2025-09-03T18:05:09.274323,-3.200,7.820,32.960,-56.2,-3.200,7.820,32.960,-56.2
2025-09-03T18:05:09.276324,-3.180,6.920,32.890,-56.2,-3.180,6.920,32.890,-56.2
2025-09-03T18:05:10.367377,-3.140,6.230,32.850,-56.2,-3.140,6.230,32.850,-56.2
2025-09-03T18:05:10.368377,-3.060,5.410,32.860,-56.2,-3.060,5.410,32.860,-56.2
2025-09-03T18:05:10.370377,-2.940,4.650,32.860,-56.2,-2.940,4.650,32.860,-56.2
2025-09-03T18:05:10.372386,-2.730,3.980,32.890,-56.2,-2.730,3.980,32.890,-56.2
2025-09-03T18:05:10.373391,-2.440,3.170,32.890,-56.2,-2.440,3.170,32.890,-56.2
2025-09-03T18:05:11.470938,-2.160,2.380,32.880,-56.2,-2.160,2.380,32.880,-56.2
2025-09-03T18:05:11.472938,-1.950,1.650,32.820,-56.2,-1.950,1.650,32.820,-56.2
2025-09-03T18:05:11.474936,-1.810,1.020,32.770,-56.2,-1.810,1.020,32.770,-56.2
2025-09-03T18:05:11.476937,-1.740,0.480,32.710,-56.2,-1.740,0.480,32.710,-56.2
2025-09-03T18:05:11.477937,-1.750,0.220,32.680,-56.2,-1.750,0.220,32.680,-56.2
2025-09-03T18:05:12.569255,-1.760,0.000,32.670,-56.2,-1.760,0.000,32.670,-56.2
2025-09-03T18:05:12.571257,-1.720,-0.220,32.650,-56.2,-1.720,-0.220,32.650,-56.2
2025-09-03T18:05:12.572253,-1.640,-0.420,32.640,-56.2,-1.640,-0.420,32.640,-56.2
2025-09-03T18:05:12.575252,-1.520,-0.740,32.600,-56.2,-1.520,-0.740,32.600,-56.2
2025-09-03T18:05:12.576253,-1.390,-1.100,32.580,-56.2,-1.390,-1.100,32.580,-56.2
2025-09-03T18:05:13.662659,-1.250,-1.530,32.520,-56.2,-1.250,-1.530,32.520,-56.2
2025-09-03T18:05:13.663660,-1.190,-1.850,32.480,-56.2,-1.190,-1.850,32.480,-56.2
2025-09-03T18:05:13.665658,-1.160,-2.210,32.420,-56.2,-1.160,-2.210,32.420,-56.2
2025-09-03T18:05:13.666660,-1.160,-2.430,32.390,-56.2,-1.160,-2.430,32.390,-56.2
2025-09-03T18:05:13.667659,-1.190,-2.580,32.360,-56.3,-1.190,-2.580,32.360,-56.3
2025-09-03T18:05:14.763772,-1.210,-2.700,32.340,-56.3,-1.210,-2.700,32.340,-56.3
2025-09-03T18:05:14.765777,-1.220,-2.780,32.310,-56.3,-1.220,-2.780,32.310,-56.3
2025-09-03T18:05:14.766780,-1.210,-2.870,32.290,-56.3,-1.210,-2.870,32.290,-56.3
2025-09-03T18:05:14.767778,-1.140,-3.040,32.250,-56.3,-1.140,-3.040,32.250,-56.3
2025-09-03T18:05:14.769778,-1.070,-3.270,32.210,-56.3,-1.070,-3.270,32.210,-56.3
2025-09-03T18:05:15.862064,-0.950,-3.530,32.170,-56.3,-0.950,-3.530,32.170,-56.3
2025-09-03T18:05:15.864065,-0.880,-3.870,32.120,-56.3,-0.880,-3.870,32.120,-56.3
2025-09-03T18:05:15.865063,-0.830,-4.120,32.070,-56.3,-0.830,-4.120,32.070,-56.3
2025-09-03T18:05:15.867065,-0.800,-4.320,32.030,-56.3,-0.800,-4.320,32.030,-56.3
2025-09-03T18:05:15.868064,-0.800,-4.480,32.000,-56.3,-0.800,-4.480,32.000,-56.3
2025-09-03T18:05:16.950380,-0.810,-4.560,31.960,-56.3,-0.810,-4.560,31.960,-56.3
2025-09-03T18:05:16.951384,-0.840,-4.560,31.920,-56.3,-0.840,-4.560,31.920,-56.3
2025-09-03T18:05:16.953385,-0.850,-4.500,31.900,-56.3,-0.850,-4.500,31.900,-56.3
2025-09-03T18:05:16.954386,-0.880,-4.430,31.860,-56.3,-0.880,-4.430,31.860,-56.3
2025-09-03T18:05:16.955384,-0.870,-4.340,31.850,-56.3,-0.870,-4.340,31.850,-56.3
2025-09-03T18:05:18.041200,-0.860,-4.260,31.820,-56.3,-0.860,-4.260,31.820,-56.3
2025-09-03T18:05:18.043206,-0.840,-4.240,31.820,-56.3,-0.840,-4.240,31.820,-56.3
2025-09-03T18:05:18.044200,-0.780,-4.260,31.790,-56.3,-0.780,-4.260,31.790,-56.3
2025-09-03T18:05:18.047198,-0.440,-5.070,31.690,-56.4,0.000,0.000,180.000,1154.0
2025-09-03T18:05:18.048199,-0.430,-5.250,31.640,-56.4,0.000,0.000,180.000,1154.0
2025-09-03T18:05:18.049197,-0.420,-5.380,31.640,-56.4,0.000,0.000,180.000,1154.0
2025-09-03T18:05:20.553379,3.110,-3.840,30.260,-56.6,3.110,-3.840,30.260,-56.6
2025-09-03T18:05:20.554379,3.100,-3.730,30.250,-56.6,3.100,-3.730,30.250,-56.6
2025-09-03T18:05:21.422231,3.130,-3.580,30.250,-56.6,3.130,-3.580,30.250,-56.6
2025-09-03T18:05:21.423238,3.130,-3.460,30.260,-56.6,3.130,-3.460,30.260,-56.6
2025-09-03T18:05:21.425238,3.140,-3.380,30.250,-56.6,3.140,-3.380,30.250,-56.6
2025-09-03T18:05:21.427236,3.190,-3.440,30.240,-56.6,3.190,-3.440,30.240,-56.6
2025-09-03T18:05:21.428236,3.210,-3.550,30.210,-56.6,3.210,-3.550,30.210,-56.6
2025-09-03T18:05:22.302361,3.230,-3.640,30.210,-56.6,3.230,-3.640,30.210,-56.6
2025-09-03T18:05:22.304365,3.230,-3.740,30.180,-56.6,3.230,-3.740,30.180,-56.6
2025-09-03T18:05:22.305368,3.250,-3.820,30.150,-56.6,3.250,-3.820,30.150,-56.6
2025-09-03T18:05:22.306367,3.330,-3.910,30.120,-56.6,3.330,-3.910,30.120,-56.6
2025-09-03T18:05:22.308367,3.340,-3.920,30.090,-56.6,3.340,-3.920,30.090,-56.6
2025-09-03T18:05:23.180015,3.320,-3.880,30.090,-56.6,3.320,-3.880,30.090,-56.6
2025-09-03T18:05:23.182009,3.280,-3.840,30.040,-56.6,3.280,-3.840,30.040,-56.6
2025-09-03T18:05:23.184009,3.270,-3.810,30.020,-56.6,3.270,-3.810,30.020,-56.6
2025-09-03T18:05:23.186009,3.250,-3.820,30.000,-56.6,3.250,-3.820,30.000,-56.6
2025-09-03T18:05:23.187009,3.220,-3.830,29.990,-56.6,3.220,-3.830,29.990,-56.6
2025-09-03T18:05:24.056343,3.220,-3.920,29.970,-56.6,3.220,-3.920,29.970,-56.6
2025-09-03T18:05:24.058321,3.290,-4.040,29.950,-56.6,3.290,-4.040,29.950,-56.6
2025-09-03T18:05:24.060294,3.360,-4.180,29.910,-56.6,3.360,-4.180,29.910,-56.6
2025-09-03T18:05:24.061293,3.380,-4.270,29.900,-56.6,3.380,-4.270,29.900,-56.6
2025-09-03T18:05:24.062300,3.410,-4.350,29.870,-56.6,3.410,-4.350,29.870,-56.6
2025-09-03T18:05:24.930677,7.000,-4.360,28.740,-56.7,7.000,-4.360,28.740,-56.7
2025-09-03T18:05:24.962679,5.830,-2.090,28.820,-56.8,5.830,-2.090,28.820,-56.8
2025-09-03T18:05:24.964681,5.790,-2.060,28.830,-56.8,5.790,-2.060,28.830,-56.8
2025-09-03T18:05:24.966680,5.760,-2.050,28.820,-56.8,5.760,-2.050,28.820,-56.8
2025-09-03T18:05:24.968678,5.760,-2.020,28.830,-56.8,5.760,-2.020,28.830,-56.8
2025-09-03T18:05:25.614910,5.750,-2.010,28.840,-56.8,5.750,-2.010,28.840,-56.8
2025-09-03T18:05:25.615908,5.760,-1.970,28.860,-56.8,5.760,-1.970,28.860,-56.8
2025-09-03T18:05:25.617908,5.760,-1.960,28.860,-56.8,5.760,-1.960,28.860,-56.8
2025-09-03T18:05:25.618908,5.770,-1.910,28.870,-56.8,5.770,-1.910,28.870,-56.8
2025-09-03T18:05:25.620909,5.750,-1.880,28.880,-56.8,5.750,-1.880,28.880,-56.8
2025-09-03T18:05:26.281148,5.720,-1.830,28.900,-56.8,5.720,-1.830,28.900,-56.8
2025-09-03T18:05:26.284147,5.680,-1.830,28.920,-56.8,5.680,-1.830,28.920,-56.8
2025-09-03T18:05:26.286147,5.630,-1.850,28.930,-56.8,5.630,-1.850,28.930,-56.8
2025-09-03T18:05:26.288151,5.600,-1.920,28.920,-56.8,5.600,-1.920,28.920,-56.8
2025-09-03T18:05:26.290150,5.550,-2.080,28.930,-56.8,5.550,-2.080,28.930,-56.8
2025-09-03T18:05:26.945910,5.470,-2.150,28.940,-56.8,5.470,-2.150,28.940,-56.8
2025-09-03T18:05:26.947913,5.400,-2.280,28.950,-56.8,5.400,-2.280,28.950,-56.8
2025-09-03T18:05:26.949907,5.350,-2.330,28.960,-56.8,5.350,-2.330,28.960,-56.8
2025-09-03T18:05:26.950909,5.300,-2.380,28.970,-56.8,5.300,-2.380,28.970,-56.8
2025-09-03T18:05:26.951909,5.300,-2.370,28.990,-56.8,5.300,-2.370,28.990,-56.8
2025-09-03T18:05:27.610335,5.280,-2.350,29.000,-56.8,5.280,-2.350,29.000,-56.8
2025-09-03T18:05:27.611339,5.250,-2.270,29.000,-56.8,5.250,-2.270,29.000,-56.8
2025-09-03T18:05:27.613341,5.200,-2.190,29.010,-56.8,5.200,-2.190,29.010,-56.8
2025-09-03T18:05:27.615339,5.140,-2.090,29.020,-56.8,5.140,-2.090,29.020,-56.8
2025-09-03T18:05:27.617338,0.250,-1.800,31.100,-56.9,0.250,-1.800,31.100,-56.9
2025-09-03T18:05:27.618338,0.270,-1.870,31.090,-56.9,0.270,-1.870,31.090,-56.9
2025-09-03T18:05:27.619338,0.250,-1.970,31.090,-56.9,0.250,-1.970,31.090,-56.9
2025-09-03T18:05:28.705564,0.210,-1.970,31.090,-56.9,0.210,-1.970,31.090,-56.9
2025-09-03T18:05:28.706529,0.150,-1.940,31.110,-56.8,0.150,-1.940,31.110,-56.8
2025-09-03T18:05:28.708530,0.070,-1.830,31.100,-56.8,0.070,-1.830,31.100,-56.8
2025-09-03T18:05:28.709529,0.010,-1.680,31.150,-56.8,0.010,-1.680,31.150,-56.8
2025-09-03T18:05:28.710529,-0.020,-1.550,31.160,-56.8,-0.020,-1.550,31.160,-56.8
2025-09-03T18:05:29.795862,-0.040,-1.430,31.190,-56.8,-0.040,-1.430,31.190,-56.8
2025-09-03T18:05:29.797871,-0.080,-1.410,31.190,-56.8,-0.080,-1.410,31.190,-56.8
2025-09-03T18:05:29.799862,-0.080,-1.440,31.210,-56.8,-0.080,-1.440,31.210,-56.8
2025-09-03T18:05:29.800862,-0.060,-1.530,31.220,-56.8,-0.060,-1.530,31.220,-56.8
2025-09-03T18:05:29.802860,-0.050,-1.620,31.220,-56.8,-0.050,-1.620,31.220,-56.8
2025-09-03T18:05:30.893507,-0.050,-1.690,31.240,-56.8,-0.050,-1.690,31.240,-56.8
2025-09-03T18:05:30.895511,-0.050,-1.730,31.230,-56.8,-0.050,-1.730,31.230,-56.8
2025-09-03T18:05:30.896506,-0.090,-1.690,31.230,-56.8,-0.090,-1.690,31.230,-56.8
2025-09-03T18:05:30.898506,-0.120,-1.590,31.220,-56.8,-0.120,-1.590,31.220,-56.8
2025-09-03T18:05:30.899506,-0.160,-1.490,31.250,-56.9,-0.160,-1.490,31.250,-56.9
2025-09-03T18:05:31.990619,-0.220,-1.350,31.270,-56.9,-0.220,-1.350,31.270,-56.9
2025-09-03T18:05:31.991663,-0.210,-1.290,31.300,-56.9,-0.210,-1.290,31.300,-56.9
2025-09-03T18:05:31.993619,-0.250,-1.280,31.320,-56.9,-0.250,-1.280,31.320,-56.9
2025-09-03T18:05:31.995618,-1.970,-1.760,31.790,-56.9,0.000,0.000,180.000,1154.0
2025-09-03T18:05:31.996620,-2.030,-1.660,31.790,-56.9,0.000,0.000,180.000,1154.0
2025-09-03T18:05:31.998620,-2.140,-1.480,31.790,-56.9,0.000,0.000,180.000,1154.0
2025-09-03T18:05:31.999622,-2.250,-1.250,31.800,-56.9,0.000,0.000,180.000,1154.0
2025-09-03T18:05:34.612137,-4.200,-1.160,32.430,-57.0,-4.200,-1.160,32.430,-57.0
2025-09-03T18:05:34.613138,-4.110,-1.310,32.430,-57.0,-4.110,-1.310,32.430,-57.0
2025-09-03T18:05:34.615138,-4.110,-1.470,32.410,-57.0,-4.110,-1.470,32.410,-57.0
2025-09-03T18:05:34.617138,-4.150,-1.550,32.400,-57.0,-4.150,-1.550,32.400,-57.0
2025-09-03T18:05:35.492270,-4.210,-1.620,32.410,-57.0,-4.210,-1.620,32.410,-57.0
2025-09-03T18:05:35.493270,-4.290,-1.620,32.420,-57.0,-4.290,-1.620,32.420,-57.0
2025-09-03T18:05:35.495271,-4.350,-1.590,32.390,-57.0,-4.350,-1.590,32.390,-57.0
2025-09-03T18:05:35.496270,-4.420,-1.450,32.410,-57.0,-4.420,-1.450,32.410,-57.0
2025-09-03T18:05:35.498270,-4.500,-1.300,32.410,-57.0,-4.500,-1.300,32.410,-57.0
2025-09-03T18:05:36.378433,-4.590,-1.090,32.430,-57.0,-4.590,-1.090,32.430,-57.0
2025-09-03T18:05:36.380434,-4.640,-0.940,32.450,-57.0,-4.640,-0.940,32.450,-57.0
2025-09-03T18:05:36.382433,-4.690,-0.840,32.440,-57.0,-4.690,-0.840,32.440,-57.0
2025-09-03T18:05:36.385433,-4.690,-0.790,32.470,-57.0,-4.690,-0.790,32.470,-57.0
2025-09-03T18:05:36.386432,-4.660,-0.900,32.500,-57.0,-4.660,-0.900,32.500,-57.0
2025-09-03T18:05:37.259689,-4.670,-1.050,32.490,-57.0,-4.670,-1.050,32.490,-57.0
2025-09-03T18:05:37.261689,-4.660,-1.200,32.500,-57.0,-4.660,-1.200,32.500,-57.0
2025-09-03T18:05:37.262689,-4.670,-1.390,32.500,-57.0,-4.670,-1.390,32.500,-57.0
2025-09-03T18:05:37.263690,-4.690,-1.500,32.490,-57.0,-4.690,-1.500,32.490,-57.0
2025-09-03T18:05:37.265689,-4.720,-1.570,32.500,-57.0,-4.720,-1.570,32.500,-57.0
2025-09-03T18:05:38.122408,-4.770,-1.550,32.490,-57.0,-4.770,-1.550,32.490,-57.0
2025-09-03T18:05:38.123408,-4.820,-1.470,32.500,-57.0,-4.820,-1.470,32.500,-57.0
2025-09-03T18:05:38.124407,-4.890,-1.310,32.500,-57.0,-4.890,-1.310,32.500,-57.0
2025-09-03T18:05:38.145407,-6.370,-0.390,33.490,-57.1,-6.370,-0.390,33.490,-57.1
2025-09-03T18:05:38.146408,-6.300,-0.570,33.470,-57.1,-6.300,-0.570,33.470,-57.1
2025-09-03T18:05:38.147408,-6.240,-0.710,33.440,-57.1,-6.240,-0.710,33.440,-57.1
2025-09-03T18:05:38.148407,-6.200,-0.870,33.430,-57.1,-6.200,-0.870,33.430,-57.1
2025-09-03T18:05:38.150409,-6.220,-1.010,33.390,-57.1,-6.220,-1.010,33.390,-57.1
2025-09-03T18:05:38.803801,-6.270,-1.050,33.370,-57.1,-6.270,-1.050,33.370,-57.1
2025-09-03T18:05:38.805802,-6.320,-1.070,33.360,-57.1,-6.320,-1.070,33.360,-57.1
2025-09-03T18:05:38.806800,-6.370,-0.990,33.360,-57.1,-6.370,-0.990,33.360,-57.1
2025-09-03T18:05:38.808802,-6.320,-0.920,33.350,-57.1,-6.320,-0.920,33.350,-57.1
2025-09-03T18:05:38.809801,-6.240,-0.840,33.360,-57.2,-6.240,-0.840,33.360,-57.2
2025-09-03T18:05:39.460845,-6.120,-0.750,33.360,-57.2,-6.120,-0.750,33.360,-57.2
2025-09-03T18:05:39.461843,-5.980,-0.720,33.360,-57.2,-5.980,-0.720,33.360,-57.2
2025-09-03T18:05:39.462845,-5.900,-0.770,33.340,-57.2,-5.900,-0.770,33.340,-57.2
2025-09-03T18:05:39.464856,-5.840,-0.840,33.330,-57.2,-5.840,-0.840,33.330,-57.2
2025-09-03T18:05:39.465843,-5.830,-0.930,33.330,-57.2,-5.830,-0.930,33.330,-57.2
2025-09-03T18:05:40.125674,-5.880,-1.060,33.310,-57.2,-5.880,-1.060,33.310,-57.2
2025-09-03T18:05:40.127674,-6.000,-1.110,33.290,-57.2,-6.000,-1.110,33.290,-57.2
2025-09-03T18:05:40.128675,-6.040,-1.150,33.270,-57.2,-6.040,-1.150,33.270,-57.2
2025-09-03T18:05:40.129675,-6.030,-1.170,33.260,-57.1,-6.030,-1.170,33.260,-57.1
2025-09-03T18:05:40.131675,-5.950,-1.160,33.260,-57.1,-5.950,-1.160,33.260,-57.1
2025-09-03T18:05:40.775115,-5.800,-1.100,33.260,-57.2,-5.800,-1.100,33.260,-57.2
2025-09-03T18:05:40.777118,-5.680,-1.010,33.240,-57.2,-5.680,-1.010,33.240,-57.2
2025-09-03T18:05:40.780117,-5.590,-0.860,33.230,-57.2,-5.590,-0.860,33.230,-57.2
2025-09-03T18:05:40.802118,-1.840,-0.630,32.090,-57.1,-1.840,-0.630,32.090,-57.1
2025-09-03T18:05:40.803117,-1.900,-0.570,32.100,-57.1,-1.900,-0.570,32.100,-57.1
2025-09-03T18:05:41.567014,-1.960,-0.510,32.100,-57.1,-1.960,-0.510,32.100,-57.1
2025-09-03T18:05:41.568013,-1.960,-0.430,32.130,-57.1,-1.960,-0.430,32.130,-57.1
2025-09-03T18:05:41.570014,-1.910,-0.400,32.140,-57.1,-1.910,-0.400,32.140,-57.1
2025-09-03T18:05:41.571015,-1.840,-0.430,32.160,-57.1,-1.840,-0.430,32.160,-57.1
2025-09-03T18:05:41.573028,-1.770,-0.520,32.140,-57.1,-1.770,-0.520,32.140,-57.1
2025-09-03T18:05:42.341483,-1.710,-0.610,32.150,-57.1,-1.710,-0.610,32.150,-57.1
2025-09-03T18:05:42.343481,-1.630,-0.730,32.140,-57.1,-1.630,-0.730,32.140,-57.1
2025-09-03T18:05:42.344483,-1.630,-0.780,32.100,-57.1,-1.630,-0.780,32.100,-57.1
2025-09-03T18:05:42.346483,-1.630,-0.740,32.090,-57.1,-1.630,-0.740,32.090,-57.1
2025-09-03T18:05:42.347482,-1.680,-0.630,32.080,-57.1,-1.680,-0.630,32.080,-57.1
2025-09-03T18:05:43.119172,-1.750,-0.440,32.080,-57.1,-1.750,-0.440,32.080,-57.1
2025-09-03T18:05:43.120173,-1.760,-0.260,32.090,-57.1,-1.760,-0.260,32.090,-57.1
2025-09-03T18:05:43.122173,-1.740,-0.170,32.090,-57.1,-1.740,-0.170,32.090,-57.1
2025-09-03T18:05:43.124182,-1.680,-0.130,32.090,-57.1,-1.680,-0.130,32.090,-57.1
2025-09-03T18:05:43.125179,-1.590,-0.170,32.100,-57.1,-1.590,-0.170,32.100,-57.1
2025-09-03T18:05:43.876711,-1.470,-0.330,32.090,-57.1,-1.470,-0.330,32.090,-57.1
2025-09-03T18:05:43.879729,-1.420,-0.480,32.070,-57.1,-1.420,-0.480,32.070,-57.1
2025-09-03T18:05:43.880728,-1.350,-0.620,32.040,-57.1,-1.350,-0.620,32.040,-57.1
2025-09-03T18:05:43.882740,-1.330,-0.710,32.030,-57.1,-1.330,-0.710,32.030,-57.1
2025-09-03T18:05:43.883728,-1.370,-0.690,32.010,-57.2,-1.370,-0.690,32.010,-57.2
2025-09-03T18:05:44.652461,0.230,-0.740,31.480,-57.2,0.230,-0.740,31.480,-57.2
2025-09-03T18:05:44.675460,0.710,-0.040,30.970,-57.2,0.710,-0.040,30.970,-57.2
2025-09-03T18:05:45.222977,0.640,0.050,30.960,-57.2,0.640,0.050,30.960,-57.2
2025-09-03T18:05:45.224976,0.650,0.100,30.970,-57.2,0.650,0.100,30.970,-57.2
2025-09-03T18:05:45.225977,0.660,0.090,30.980,-57.2,0.660,0.090,30.980,-57.2
2025-09-03T18:05:45.227976,0.660,0.040,30.970,-57.2,0.660,0.040,30.970,-57.2
2025-09-03T18:05:45.228977,0.720,-0.030,30.940,-57.2,0.720,-0.030,30.940,-57.2
2025-09-03T18:05:45.767470,0.750,-0.130,30.930,-57.2,0.750,-0.130,30.930,-57.2
2025-09-03T18:05:45.768470,0.710,-0.150,30.910,-57.2,0.710,-0.150,30.910,-57.2
2025-09-03T18:05:45.770484,0.700,-0.100,30.890,-57.2,0.700,-0.100,30.890,-57.2
2025-09-03T18:05:45.773471,0.670,-0.030,30.890,-57.2,0.670,-0.030,30.890,-57.2
2025-09-03T18:05:45.774473,0.610,0.140,30.890,-57.2,0.610,0.140,30.890,-57.2
2025-09-03T18:05:46.330622,0.580,0.300,30.890,-57.2,0.580,0.300,30.890,-57.2
2025-09-03T18:05:46.331627,0.580,0.360,30.900,-57.2,0.580,0.360,30.900,-57.2
2025-09-03T18:05:46.332628,0.580,0.400,30.920,-57.2,0.580,0.400,30.920,-57.2
2025-09-03T18:05:46.334628,0.610,0.350,30.940,-57.2,0.610,0.350,30.940,-57.2
2025-09-03T18:05:46.335628,0.670,0.190,30.940,-57.2,0.670,0.190,30.940,-57.2
2025-09-03T18:05:46.871695,0.670,0.080,30.940,-57.2,0.670,0.080,30.940,-57.2
2025-09-03T18:05:46.873696,0.620,0.070,30.940,-57.3,0.620,0.070,30.940,-57.3
2025-09-03T18:05:46.875697,0.580,0.080,30.930,-57.3,0.580,0.080,30.930,-57.3
2025-09-03T18:05:46.877703,0.470,0.180,30.940,-57.3,0.470,0.180,30.940,-57.3
2025-09-03T18:05:46.878695,0.370,0.340,30.960,-57.3,0.370,0.340,30.960,-57.3
2025-09-03T18:05:47.430486,0.310,0.410,240.890,1722.2,0.310,0.410,240.890,1722.2
2025-09-03T18:05:47.452486,0.560,2.710,31.030,-57.2,0.560,2.710,31.030,-57.2
2025-09-03T18:05:47.454487,0.580,2.720,31.040,-57.2,0.580,2.720,31.040,-57.2
2025-09-03T18:05:47.455488,0.610,2.710,31.050,-57.2,0.610,2.710,31.050,-57.2
2025-09-03T18:05:47.457488,0.660,2.660,31.060,-57.2,0.660,2.660,31.060,-57.2
2025-09-03T18:05:47.458488,0.680,2.650,31.040,-57.2,0.680,2.650,31.040,-57.2
2025-09-03T18:05:47.786482,0.700,2.650,31.030,-57.2,0.700,2.650,31.030,-57.2
2025-09-03T18:05:47.788481,0.650,2.750,31.050,-57.2,0.650,2.750,31.050,-57.2
2025-09-03T18:05:47.790485,0.590,2.870,31.080,-57.2,0.590,2.870,31.080,-57.2
2025-09-03T18:05:47.791482,0.570,2.940,31.100,-57.2,0.570,2.940,31.100,-57.2
2025-09-03T18:05:47.792491,0.540,2.960,31.120,-57.2,0.540,2.960,31.120,-57.2
2025-09-03T18:05:48.126008,0.480,2.980,31.150,-57.3,0.480,2.980,31.150,-57.3
2025-09-03T18:05:48.128008,0.450,2.930,31.170,-57.3,0.450,2.930,31.170,-57.3
2025-09-03T18:05:48.129008,0.490,2.830,31.190,-57.3,0.490,2.830,31.190,-57.3
2025-09-03T18:05:48.130007,0.530,2.700,31.210,-57.2,0.530,2.700,31.210,-57.2
2025-09-03T18:05:48.131007,0.490,2.620,31.220,-57.2,0.490,2.620,31.220,-57.2
2025-09-03T18:05:48.448262,0.470,2.580,31.190,-57.2,0.470,2.580,31.190,-57.2
2025-09-03T18:05:48.449262,0.400,2.640,31.220,-57.2,0.400,2.640,31.220,-57.2
2025-09-03T18:05:48.451265,0.300,2.760,31.230,-57.2,0.300,2.760,31.230,-57.2
2025-09-03T18:05:48.452263,0.210,2.940,31.230,-57.2,0.210,2.940,31.230,-57.2
2025-09-03T18:05:48.453262,0.180,3.090,31.260,-57.2,0.180,3.090,31.260,-57.2
2025-09-03T18:05:48.776386,0.130,3.190,31.270,-57.2,0.130,3.190,31.270,-57.2
2025-09-03T18:05:48.779386,0.170,3.200,31.300,-57.2,0.170,3.200,31.300,-57.2
2025-09-03T18:05:48.781387,0.200,3.170,31.310,-57.2,0.200,3.170,31.310,-57.2
2025-09-03T18:05:48.782386,0.200,3.140,31.310,-57.2,0.200,3.140,31.310,-57.2
2025-09-03T18:05:48.783386,0.290,3.070,353.880,1722.2,0.290,3.070,353.880,1722.2
2025-09-03T18:05:48.803385,0.640,6.880,31.110,-57.2,0.000,5.000,180.000,1154.0
2025-09-03T18:05:48.805387,0.680,6.840,31.110,-57.2,0.000,5.000,180.000,1154.0
2025-09-03T18:05:48.916275,0.700,6.830,31.110,-57.2,0.000,5.000,180.000,1154.0
2025-09-03T18:05:48.918279,0.710,6.840,31.100,-57.2,0.000,5.000,180.000,1154.0
2025-09-03T18:05:48.919280,0.710,6.870,31.100,-57.2,0.000,5.000,180.000,1154.0
2025-09-03T18:05:48.920281,0.710,6.910,31.100,-57.2,0.000,5.000,180.000,1154.0
2025-09-03T18:05:48.921279,0.700,6.960,31.100,-57.2,0.000,5.000,180.000,1154.0
2025-09-03T18:05:49.039422,0.710,7.020,31.100,-57.2,0.000,5.000,180.000,1154.0
2025-09-03T18:05:49.040423,0.680,7.050,31.100,-57.2,0.000,5.000,180.000,1154.0
2025-09-03T18:05:49.042422,0.600,7.100,31.090,-57.2,0.000,5.000,180.000,1154.0
2025-09-03T18:05:49.043423,0.500,7.140,31.070,-57.2,0.000,5.000,180.000,1154.0
2025-09-03T18:05:49.044424,0.400,7.150,31.070,-57.2,0.000,5.000,180.000,1154.0
2025-09-03T18:05:49.148422,0.320,7.150,31.070,-57.2,0.000,5.000,180.000,1154.0
2025-09-03T18:05:49.150422,0.260,7.150,31.070,-57.2,0.000,5.000,180.000,1154.0
2025-09-03T18:05:49.151422,0.220,7.150,31.080,-57.2,0.000,5.000,180.000,1154.0
2025-09-03T18:05:49.152423,0.210,7.150,31.110,-57.2,0.000,5.000,180.000,1154.0
2025-09-03T18:05:49.153422,0.230,7.120,31.140,-57.2,0.000,5.000,180.000,1154.0
2025-09-03T18:05:49.259174,0.300,7.080,31.170,-57.2,0.000,5.000,180.000,1154.0
2025-09-03T18:05:49.260166,0.350,7.030,31.180,-57.2,0.000,5.000,180.000,1154.0
2025-09-03T18:05:49.262166,0.380,7.010,31.180,-57.2,0.000,5.000,180.000,1154.0
2025-09-03T18:05:49.263165,0.420,6.970,31.170,-57.2,0.000,5.000,180.000,1154.0
2025-09-03T18:05:49.264164,0.430,6.940,31.170,-57.2,0.000,5.000,180.000,1154.0
2025-09-03T18:05:49.368741,0.450,6.920,31.160,-57.2,0.000,5.000,180.000,1154.0
2025-09-03T18:05:49.370738,0.460,6.910,31.150,-57.2,0.000,5.000,180.000,1154.0
2025-09-03T18:05:49.373737,0.630,6.740,31.310,-57.2,0.630,6.740,31.310,-57.2
2025-09-03T18:05:49.376737,0.540,6.750,31.310,-57.2,0.540,6.750,31.310,-57.2
2025-09-03T18:05:49.377737,0.460,6.760,31.300,-57.2,0.460,6.760,31.300,-57.2
2025-09-03T18:05:50.464869,0.410,6.760,31.290,-57.2,0.410,6.760,31.290,-57.2
2025-09-03T18:05:50.465870,0.470,6.730,31.300,-57.2,0.470,6.730,31.300,-57.2
2025-09-03T18:05:50.467871,0.560,6.700,31.330,-57.2,0.560,6.700,31.330,-57.2
2025-09-03T18:05:50.469871,0.670,6.660,31.360,-57.2,0.670,6.660,31.360,-57.2
2025-09-03T18:05:50.471869,0.790,6.650,31.380,-57.2,0.790,6.650,31.380,-57.2
2025-09-03T18:05:51.568921,0.780,6.670,31.360,-57.3,0.780,6.670,31.360,-57.3
2025-09-03T18:05:51.569926,0.750,6.690,31.350,-57.3,0.750,6.690,31.350,-57.3
2025-09-03T18:05:51.571926,0.680,6.720,31.320,-57.3,0.680,6.720,31.320,-57.3
2025-09-03T18:05:51.574930,0.600,6.770,31.310,-57.3,0.600,6.770,31.310,-57.3
2025-09-03T18:05:51.575929,0.540,6.830,31.320,-57.3,0.540,6.830,31.320,-57.3
2025-09-03T18:05:52.668346,0.520,6.890,31.340,-57.3,0.520,6.890,31.340,-57.3
2025-09-03T18:05:52.670344,0.530,6.940,31.340,-57.3,0.530,6.940,31.340,-57.3
2025-09-03T18:05:52.672345,0.590,6.960,31.340,-57.3,0.590,6.960,31.340,-57.3
2025-09-03T18:05:52.673357,0.650,6.960,31.330,-57.3,0.650,6.960,31.330,-57.3
2025-09-03T18:05:52.676347,0.710,6.940,31.330,-57.2,0.710,6.940,31.330,-57.2
2025-09-03T18:05:53.764329,0.740,6.910,31.330,-57.2,0.740,6.910,31.330,-57.2
2025-09-03T18:05:53.766329,0.750,6.870,31.340,-57.2,0.750,6.870,31.340,-57.2
2025-09-03T18:05:53.767331,0.780,6.840,31.330,-57.2,0.780,6.840,31.330,-57.2
2025-09-03T18:05:53.770330,0.310,7.060,31.310,-57.2,0.000,5.000,180.000,1154.0
2025-09-03T18:05:53.771328,0.390,7.050,31.340,-57.2,0.000,5.000,180.000,1154.0
2025-09-03T18:05:53.773347,0.450,7.030,31.350,-57.2,0.000,5.000,180.000,1154.0
2025-09-03T18:05:53.775328,0.480,6.990,31.360,-57.2,0.000,5.000,180.000,1154.0
2025-09-03T18:05:56.385813,0.220,5.230,31.090,-57.2,0.220,5.230,31.090,-57.2
2025-09-03T18:05:56.387822,0.240,5.200,31.100,-57.2,0.240,5.200,31.100,-57.2
2025-09-03T18:05:57.255722,0.250,5.140,31.090,-57.2,0.250,5.140,31.090,-57.2
2025-09-03T18:05:57.257728,0.230,5.080,31.100,-57.2,0.230,5.080,31.100,-57.2
2025-09-03T18:05:57.259727,0.190,5.030,31.110,-57.2,0.190,5.030,31.110,-57.2
2025-09-03T18:05:57.260728,0.160,5.000,31.100,-57.2,0.160,5.000,31.100,-57.2
2025-09-03T18:05:57.262730,0.170,4.970,31.100,-57.2,0.170,4.970,31.100,-57.2
2025-09-03T18:05:58.142692,0.190,4.930,31.100,-57.2,0.190,4.930,31.100,-57.2
2025-09-03T18:05:58.144685,0.200,4.870,31.110,-57.2,0.200,4.870,31.110,-57.2
2025-09-03T18:05:58.146685,0.170,4.850,31.120,-57.3,0.170,4.850,31.120,-57.3
2025-09-03T18:05:58.147686,0.120,4.870,31.130,-57.3,0.120,4.870,31.130,-57.3
2025-09-03T18:05:58.148686,0.110,4.880,31.120,-57.3,0.110,4.880,31.120,-57.3
2025-09-03T18:05:59.026563,0.150,4.870,31.130,-57.3,0.150,4.870,31.130,-57.3
2025-09-03T18:05:59.028563,0.200,4.840,31.140,-57.3,0.200,4.840,31.140,-57.3
2025-09-03T18:05:59.029564,0.240,4.820,31.140,-57.3,0.240,4.820,31.140,-57.3
2025-09-03T18:05:59.031567,0.220,4.800,31.150,-57.3,0.220,4.800,31.150,-57.3
2025-09-03T18:05:59.032564,0.190,4.790,31.140,-57.3,0.190,4.790,31.140,-57.3
2025-09-03T18:05:59.914133,0.160,4.760,31.120,-57.3,0.160,4.760,31.120,-57.3
2025-09-03T18:05:59.916132,0.120,4.730,31.120,-57.3,0.120,4.730,31.120,-57.3
2025-09-03T18:05:59.917132,0.070,4.690,31.120,-57.3,0.070,4.690,31.120,-57.3
2025-09-03T18:05:59.918131,0.020,4.660,31.130,-57.3,0.020,4.660,31.130,-57.3
2025-09-03T18:05:59.919133,-0.030,4.660,31.130,-57.3,-0.030,4.660,31.130,-57.3
2025-09-03T18:06:00.784345,0.230,3.330,30.900,-57.2,0.230,3.330,30.900,-57.2
2025-09-03T18:06:00.808344,0.250,2.770,31.370,-57.2,0.250,2.770,31.370,-57.2
2025-09-03T18:06:01.460519,0.200,2.800,31.390,-57.2,0.200,2.800,31.390,-57.2
2025-09-03T18:06:01.461519,0.190,2.770,31.380,-57.2,0.190,2.770,31.380,-57.2
2025-09-03T18:06:01.463521,0.240,2.660,31.380,-57.2,0.240,2.660,31.380,-57.2
2025-09-03T18:06:01.464523,0.310,2.510,31.380,-57.2,0.310,2.510,31.380,-57.2
2025-09-03T18:06:01.466520,0.350,2.380,31.390,-57.2,0.350,2.380,31.390,-57.2
2025-09-03T18:06:02.123522,0.360,2.310,31.380,-57.2,0.360,2.310,31.380,-57.2
2025-09-03T18:06:02.125523,0.400,2.280,31.360,-57.3,0.400,2.280,31.360,-57.3
2025-09-03T18:06:02.126528,0.390,2.310,31.360,-57.3,0.390,2.310,31.360,-57.3
2025-09-03T18:06:02.128522,0.310,2.440,31.380,-57.3,0.310,2.440,31.380,-57.3
2025-09-03T18:06:02.129523,0.260,2.560,31.380,-57.3,0.260,2.560,31.380,-57.3
2025-09-03T18:06:02.789365,0.260,2.640,31.410,-57.3,0.260,2.640,31.410,-57.3
2025-09-03T18:06:02.790359,0.240,2.690,31.430,-57.3,0.240,2.690,31.430,-57.3
2025-09-03T18:06:02.791361,0.230,2.680,31.450,-57.3,0.230,2.680,31.450,-57.3
2025-09-03T18:06:02.793360,0.260,2.620,31.460,-57.3,0.260,2.620,31.460,-57.3
2025-09-03T18:06:02.794360,0.320,2.520,31.470,-57.3,0.320,2.520,31.470,-57.3
2025-09-03T18:06:03.434221,0.380,2.420,31.470,-57.3,0.380,2.420,31.470,-57.3
2025-09-03T18:06:03.435221,0.400,2.350,31.470,-57.3,0.400,2.350,31.470,-57.3
2025-09-03T18:06:03.437226,0.420,2.340,31.450,-57.3,0.420,2.340,31.450,-57.3
2025-09-03T18:06:03.438220,0.380,2.410,31.460,-57.3,0.380,2.410,31.460,-57.3
2025-09-03T18:06:03.439220,0.350,2.520,31.480,-57.3,0.350,2.520,31.480,-57.3
2025-09-03T18:06:04.090382,0.330,2.640,21.230,1722.2,0.330,2.640,21.230,1722.2
2025-09-03T18:06:04.111377,0.320,0.740,31.090,-57.2,0.320,0.740,31.090,-57.2
2025-09-03T18:06:04.112375,0.280,0.720,31.070,-57.2,0.280,0.720,31.070,-57.2
2025-09-03T18:06:04.552544,0.230,0.690,31.070,-57.2,0.230,0.690,31.070,-57.2
2025-09-03T18:06:04.553543,0.140,0.670,31.070,-57.2,0.140,0.670,31.070,-57.2
2025-09-03T18:06:04.554542,0.090,0.680,31.060,-57.3,0.090,0.680,31.060,-57.3
2025-09-03T18:06:04.556543,0.110,0.650,31.070,-57.3,0.110,0.650,31.070,-57.3
2025-09-03T18:06:04.557543,0.080,0.610,31.080,-57.3,0.080,0.610,31.080,-57.3
2025-09-03T18:06:05.003913,0.090,0.560,31.060,-57.3,0.090,0.560,31.060,-57.3
2025-09-03T18:06:05.005914,0.160,0.530,31.060,-57.3,0.160,0.530,31.060,-57.3
2025-09-03T18:06:05.006916,0.180,0.540,31.050,-57.3,0.180,0.540,31.050,-57.3
2025-09-03T18:06:05.009917,0.180,0.640,31.030,-57.3,0.180,0.640,31.030,-57.3
2025-09-03T18:06:05.011913,0.190,0.770,31.050,-57.3,0.190,0.770,31.050,-57.3
2025-09-03T18:06:05.457298,0.130,0.890,31.050,-57.3,0.130,0.890,31.050,-57.3
2025-09-03T18:06:05.459287,0.100,1.040,31.060,-57.3,0.100,1.040,31.060,-57.3
2025-09-03T18:06:05.460298,0.130,1.100,31.090,-57.3,0.130,1.100,31.090,-57.3
2025-09-03T18:06:05.462287,0.110,1.100,31.120,-57.3,0.110,1.100,31.120,-57.3
2025-09-03T18:06:05.463300,0.110,1.040,31.120,-57.3,0.110,1.040,31.120,-57.3
2025-09-03T18:06:05.890903,0.170,0.940,31.100,-57.3,0.170,0.940,31.100,-57.3
2025-09-03T18:06:05.891902,0.250,0.810,31.120,-57.3,0.250,0.810,31.120,-57.3
2025-09-03T18:06:05.892903,0.260,0.690,31.120,-57.3,0.260,0.690,31.120,-57.3
2025-09-03T18:06:05.893902,0.270,0.670,31.100,-57.3,0.270,0.670,31.100,-57.3
2025-09-03T18:06:05.894902,0.250,0.750,31.130,-57.3,0.250,0.750,31.130,-57.3
2025-09-03T18:06:06.338076,-0.170,1.010,31.270,-57.2,0.000,1.090,180.000,1154.0
2025-09-03T18:06:06.339077,-0.150,1.020,31.300,-57.2,0.000,1.080,180.000,1154.0
2025-09-03T18:06:06.340075,-0.150,0.990,31.320,-57.2,0.000,1.070,180.000,1154.0
2025-09-03T18:06:12.730375,-0.400,-1.190,31.600,-57.3,-0.400,-1.190,31.600,-57.3
2025-09-03T18:06:12.731375,-0.430,-1.070,31.600,-57.3,-0.430,-1.070,31.600,-57.3
2025-09-03T18:06:12.732375,-0.430,-0.890,31.610,-57.3,-0.430,-0.890,31.610,-57.3
2025-09-03T18:06:13.585525,-0.440,-0.770,31.640,-57.3,-0.440,-0.770,31.640,-57.3
2025-09-03T18:06:13.587524,-0.450,-0.650,31.650,-57.3,-0.450,-0.650,31.650,-57.3
2025-09-03T18:06:13.589525,-0.450,-0.590,31.680,-57.3,-0.450,-0.590,31.680,-57.3
2025-09-03T18:06:13.590524,-0.420,-0.640,31.670,-57.3,-0.420,-0.640,31.670,-57.3
2025-09-03T18:06:13.591523,-0.390,-0.730,31.670,-57.3,-0.390,-0.730,31.670,-57.3
2025-09-03T18:06:14.463850,-0.370,-0.810,31.660,-57.3,-0.370,-0.810,31.660,-57.3
2025-09-03T18:06:14.465862,-0.320,-0.910,31.670,-57.3,-0.320,-0.910,31.670,-57.3
2025-09-03T18:06:14.466864,-0.310,-0.960,31.650,-57.3,-0.310,-0.960,31.650,-57.3
2025-09-03T18:06:14.467861,-0.320,-0.910,31.640,-57.3,-0.320,-0.910,31.640,-57.3
2025-09-03T18:06:14.469863,-0.360,-0.830,31.630,-57.3,-0.360,-0.830,31.630,-57.3
2025-09-03T18:06:15.345103,-0.390,-0.760,31.640,-57.3,-0.390,-0.760,31.640,-57.3
2025-09-03T18:06:15.346768,-0.440,-0.640,31.660,-57.3,-0.440,-0.640,31.660,-57.3
2025-09-03T18:06:15.347767,-0.420,-0.570,31.660,-57.3,-0.420,-0.570,31.660,-57.3
2025-09-03T18:06:15.349769,-0.460,-0.580,31.660,-57.3,-0.460,-0.580,31.660,-57.3
2025-09-03T18:06:15.350767,-0.450,-0.610,31.630,-57.3,-0.450,-0.610,31.630,-57.3
2025-09-03T18:06:16.226630,-0.410,-0.690,31.650,-57.3,-0.410,-0.690,31.650,-57.3
2025-09-03T18:06:16.227625,-0.380,-0.830,31.630,-57.3,-0.380,-0.830,31.630,-57.3
2025-09-03T18:06:16.229625,-0.340,-0.940,31.630,-57.3,-0.340,-0.940,31.630,-57.3
2025-09-03T18:06:16.230628,-0.330,-1.000,31.610,-57.3,-0.330,-1.000,31.610,-57.3
2025-09-03T18:06:16.231627,-0.300,-1.050,236.390,1722.2,-0.300,-1.050,236.390,1722.2
2025-09-03T18:06:16.254628,0.810,-3.960,31.030,-57.2,0.810,-3.960,31.030,-57.2
2025-09-03T18:06:16.909988,0.790,-4.060,31.000,-57.2,0.790,-4.060,31.000,-57.2
2025-09-03T18:06:16.911283,0.770,-4.120,30.990,-57.3,0.770,-4.120,30.990,-57.3
2025-09-03T18:06:16.912283,0.790,-4.170,30.990,-57.3,0.790,-4.170,30.990,-57.3
2025-09-03T18:06:16.913283,0.760,-4.190,30.960,-57.3,0.760,-4.190,30.960,-57.3
2025-09-03T18:06:16.914284,0.800,-4.200,30.980,-57.3,0.800,-4.200,30.980,-57.3
2025-09-03T18:06:17.573977,0.780,-4.210,30.940,-57.3,0.780,-4.210,30.940,-57.3
2025-09-03T18:06:17.576980,0.820,-4.170,30.950,-57.3,0.820,-4.170,30.950,-57.3
2025-09-03T18:06:17.578977,0.820,-4.200,30.930,-57.3,0.820,-4.200,30.930,-57.3
2025-09-03T18:06:17.579978,0.840,-4.190,30.930,-57.3,0.840,-4.190,30.930,-57.3
2025-09-03T18:06:17.581976,0.840,-4.250,30.910,-57.3,0.840,-4.250,30.910,-57.3
2025-09-03T18:06:18.242334,0.850,-4.270,30.910,-57.3,0.850,-4.270,30.910,-57.3
2025-09-03T18:06:18.243333,0.840,-4.310,30.900,-57.3,0.840,-4.310,30.900,-57.3
2025-09-03T18:06:18.245335,0.840,-4.380,30.870,-57.3,0.840,-4.380,30.870,-57.3
2025-09-03T18:06:18.246334,0.860,-4.440,30.880,-57.3,0.860,-4.440,30.880,-57.3
2025-09-03T18:06:18.247334,0.840,-4.490,30.850,-57.3,0.840,-4.490,30.850,-57.3
2025-09-03T18:06:18.904721,0.850,-4.520,30.860,-57.3,0.850,-4.520,30.860,-57.3
2025-09-03T18:06:18.906728,0.810,-4.550,30.850,-57.3,0.810,-4.550,30.850,-57.3
2025-09-03T18:06:18.908725,0.800,-4.540,30.850,-57.3,0.800,-4.540,30.850,-57.3
2025-09-03T18:06:18.909722,0.760,-4.560,30.850,-57.3,0.760,-4.560,30.850,-57.3
2025-09-03T18:06:18.911731,0.760,-4.550,30.840,-57.3,0.760,-4.550,30.840,-57.3
2025-09-03T18:06:19.571021,0.770,-4.610,30.830,-57.3,0.770,-4.610,30.830,-57.3
2025-09-03T18:06:19.573025,0.780,-4.650,30.810,-57.3,0.780,-4.650,30.810,-57.3
2025-09-03T18:06:19.575025,0.840,-4.730,192.090,1722.2,0.840,-4.730,192.090,1722.2
2025-09-03T18:06:19.597022,0.250,-10.230,30.800,-57.4,0.250,-10.230,30.800,-57.4
2025-09-03T18:06:19.598023,0.240,-10.270,30.790,-57.4,0.240,-10.270,30.790,-57.4
2025-09-03T18:06:20.035479,0.230,-10.350,30.780,-57.4,0.230,-10.350,30.780,-57.4
2025-09-03T18:06:20.037479,0.250,-10.400,30.780,-57.4,0.250,-10.400,30.780,-57.4
2025-09-03T18:06:20.038481,0.250,-10.430,30.760,-57.4,0.250,-10.430,30.760,-57.4
2025-09-03T18:06:20.040481,0.230,-10.460,30.750,-57.4,0.230,-10.460,30.750,-57.4
2025-09-03T18:06:20.041481,0.250,-10.460,30.740,-57.4,0.250,-10.460,30.740,-57.4
2025-09-03T18:06:20.473582,0.250,-10.470,30.740,-57.4,0.250,-10.470,30.740,-57.4
2025-09-03T18:06:20.476580,0.260,-10.490,30.720,-57.5,0.260,-10.490,30.720,-57.5
2025-09-03T18:06:20.477580,0.320,-10.520,30.710,-57.5,0.320,-10.520,30.710,-57.5
2025-09-03T18:06:20.479581,0.310,-10.530,30.680,-57.5,0.310,-10.530,30.680,-57.5
2025-09-03T18:06:20.480580,0.320,-10.560,30.670,-57.5,0.320,-10.560,30.670,-57.5
2025-09-03T18:06:20.923278,0.340,-10.570,30.660,-57.5,0.340,-10.570,30.660,-57.5
2025-09-03T18:06:20.925271,0.350,-10.610,30.650,-57.5,0.350,-10.610,30.650,-57.5
2025-09-03T18:06:20.926271,0.370,-10.630,30.630,-57.5,0.370,-10.630,30.630,-57.5
2025-09-03T18:06:20.928270,0.430,-10.680,30.610,-57.5,0.430,-10.680,30.610,-57.5
2025-09-03T18:06:20.929271,0.460,-10.740,30.590,-57.5,0.460,-10.740,30.590,-57.5
2025-09-03T18:06:21.377702,0.520,-10.850,30.580,-57.5,0.520,-10.850,30.580,-57.5
2025-09-03T18:06:21.379702,0.600,-10.960,30.550,-57.5,0.600,-10.960,30.550,-57.5
2025-09-03T18:06:21.380703,0.660,-11.090,30.540,-57.5,0.660,-11.090,30.540,-57.5
2025-09-03T18:06:21.381702,0.710,-11.230,30.520,-57.5,0.710,-11.230,30.520,-57.5
2025-09-03T18:06:21.383701,0.750,-11.380,30.490,-57.5,0.750,-11.380,30.490,-57.5
2025-09-03T18:06:21.816360,0.760,-11.490,30.500,-57.5,0.760,-11.490,30.500,-57.5
2025-09-03T18:06:21.817359,0.770,-11.620,30.480,-57.5,0.770,-11.620,30.480,-57.5
2025-09-03T18:06:21.819360,0.770,-11.700,117.500,1799.7,0.770,-11.700,117.500,1799.7
2025-09-03T18:06:21.841359,0.870,-12.800,29.770,-57.5,0.870,-12.800,29.770,-57.5
2025-09-03T18:06:21.842359,0.860,-12.790,29.770,-57.5,0.860,-12.790,29.770,-57.5
2025-09-03T18:06:22.166986,0.850,-12.800,29.760,-57.5,0.850,-12.800,29.760,-57.5
2025-09-03T18:06:22.168985,0.860,-12.770,29.770,-57.5,0.860,-12.770,29.770,-57.5
2025-09-03T18:06:22.169985,0.860,-12.740,29.770,-57.5,0.860,-12.740,29.770,-57.5
2025-09-03T18:06:22.171985,0.860,-12.710,29.770,-57.5,0.860,-12.710,29.770,-57.5
2025-09-03T18:06:22.173985,0.860,-12.670,29.760,-57.5,0.860,-12.670,29.760,-57.5
2025-09-03T18:06:22.509614,0.830,-12.630,29.740,-57.5,0.830,-12.630,29.740,-57.5
2025-09-03T18:06:22.510612,0.830,-12.590,29.760,-57.5,0.830,-12.590,29.760,-57.5
2025-09-03T18:06:22.512611,0.800,-12.550,29.750,-57.5,0.800,-12.550,29.750,-57.5
2025-09-03T18:06:22.513611,0.810,-12.500,29.780,-57.5,0.810,-12.500,29.780,-57.5
2025-09-03T18:06:22.514611,0.780,-12.430,29.770,-57.5,0.780,-12.430,29.770,-57.5
# Logging stopped at 2025-09-03 18:06:22
# Total duration: 109.9 seconds
# Total data points: 2769
