Timestamp,Roll_Angle,Pitch_Angle,Yaw_Angle,Altitude,Roll_Setpoint,Pitch_Setpoint,Yaw_Setpoint,Altitude_Setpoint
2025-09-03T17:58:21.592126,0.000,0.000,0.000,0.0,0.200,-0.300,180.360,1000.0
2025-09-03T17:58:21.704157,0.420,-1.190,359.890,-10.5,0.200,-0.300,180.360,1000.0
2025-09-03T17:58:21.706124,0.420,-1.180,359.890,-14.9,0.200,-0.300,180.360,1000.0
2025-09-03T17:58:21.707124,0.430,-1.190,359.890,-19.0,0.200,-0.300,180.360,1000.0
2025-09-03T17:58:21.709123,0.430,-1.190,359.890,-22.6,0.200,-0.300,180.360,1000.0
2025-09-03T17:58:21.814914,0.420,-1.190,359.900,-25.9,0.200,-0.300,180.360,1000.0
2025-09-03T17:58:21.816913,0.420,-1.190,359.890,-28.8,0.200,-0.300,180.360,1000.0
2025-09-03T17:58:21.817910,0.430,-1.180,359.900,-31.5,0.200,-0.300,180.360,1000.0
2025-09-03T17:58:21.819973,0.430,-1.180,359.900,-33.9,0.200,-0.300,180.360,1000.0
2025-09-03T17:58:21.820971,0.430,-1.180,359.900,-36.0,0.200,-0.300,180.360,1000.0
2025-09-03T17:58:21.936884,0.430,-1.180,359.900,-37.9,0.200,-0.300,180.360,1000.0
2025-09-03T17:58:21.937883,0.430,-1.180,359.900,-39.7,0.200,-0.300,180.360,1000.0
2025-09-03T17:58:21.938884,0.420,-1.180,359.900,-41.2,0.200,-0.300,180.360,1000.0
2025-09-03T17:58:21.939884,0.420,-1.180,359.900,-42.7,0.200,-0.300,180.360,1000.0
2025-09-03T17:58:21.940883,0.420,-1.190,359.890,-43.9,0.200,-0.300,180.360,1000.0
2025-09-03T17:58:22.058973,0.420,-1.210,359.900,-45.1,0.200,-0.300,180.360,1000.0
2025-09-03T17:58:22.060978,0.430,-1.220,359.900,-46.1,0.200,-0.300,180.360,1000.0
2025-09-03T17:58:22.061978,0.430,-1.230,359.900,-47.0,0.200,-0.300,180.360,1000.0
2025-09-03T17:58:22.063977,0.430,-1.240,359.910,-47.8,0.200,-0.300,180.360,1000.0
2025-09-03T17:58:22.064981,0.430,-1.250,359.910,-48.6,0.200,-0.300,180.360,1000.0
2025-09-03T17:58:22.181978,0.430,-1.270,359.900,-49.3,0.200,-0.300,180.360,1000.0
2025-09-03T17:58:22.184979,0.430,-1.280,359.900,-49.9,0.200,-0.300,180.360,1000.0
2025-09-03T17:58:22.186979,0.430,-1.290,359.900,-50.4,0.200,-0.300,180.360,1000.0
2025-09-03T17:58:22.187985,0.430,-1.300,359.900,-50.9,0.200,-0.300,180.360,1000.0
2025-09-03T17:58:22.188985,0.440,-1.300,359.910,-51.3,0.200,-0.300,180.360,1000.0
2025-09-03T17:58:22.303030,0.440,-1.300,359.910,-51.7,0.200,-0.300,180.360,1000.0
2025-09-03T17:58:22.304030,0.440,-1.310,359.910,-52.1,0.200,-0.300,180.360,1000.0
2025-09-03T17:58:22.306031,0.440,-1.310,359.910,-52.4,0.200,-0.300,180.360,1000.0
2025-09-03T17:58:22.307030,0.440,-1.310,359.910,-52.7,0.200,-0.300,180.360,1000.0
2025-09-03T17:58:22.308030,0.440,-1.320,359.910,-53.0,0.200,-0.300,180.360,1000.0
2025-09-03T17:58:22.425173,0.440,-1.320,359.910,-53.2,0.200,-0.300,180.360,1000.0
2025-09-03T17:58:22.426162,0.440,-1.320,359.910,-53.4,0.200,-0.300,180.360,1000.0
2025-09-03T17:58:22.427174,0.440,-1.320,359.910,-53.6,0.200,-0.300,180.360,1000.0
2025-09-03T17:58:22.429162,0.440,-1.320,359.900,-53.8,0.200,-0.300,180.360,1000.0
2025-09-03T17:58:22.430163,0.440,-1.330,359.900,-53.9,0.200,-0.300,180.360,1000.0
2025-09-03T17:58:22.547916,0.440,-1.330,359.900,-54.1,0.200,-0.300,180.360,1000.0
2025-09-03T17:58:22.549927,0.440,-1.330,359.900,-54.2,0.200,-0.300,180.360,1000.0
2025-09-03T17:58:22.550914,0.440,-1.340,359.900,-54.3,0.200,-0.300,180.360,1000.0
2025-09-03T17:58:22.551915,0.440,-1.340,359.900,-54.4,0.200,-0.300,180.360,1000.0
2025-09-03T17:58:22.553912,0.440,-1.350,359.900,-54.5,0.200,-0.300,180.360,1000.0
2025-09-03T17:58:22.658296,0.450,-1.350,359.900,-54.6,0.200,-0.300,180.360,1000.0
2025-09-03T17:58:22.659295,0.450,-1.350,359.900,-54.6,0.200,-0.300,180.360,1000.0
2025-09-03T17:58:22.661297,0.450,-1.350,359.900,-54.7,0.200,-0.300,180.360,1000.0
2025-09-03T17:58:22.662297,0.450,-1.350,359.900,-54.8,0.200,-0.300,180.360,1000.0
2025-09-03T17:58:22.664296,0.450,-1.350,359.900,-54.8,0.200,-0.300,180.360,1000.0
2025-09-03T17:58:22.769795,0.450,-1.340,359.900,-54.9,0.200,-0.300,180.360,1000.0
2025-09-03T17:58:22.770796,0.450,-1.340,359.900,-54.9,0.200,-0.300,180.360,1000.0
2025-09-03T17:58:22.772794,0.450,-1.340,359.900,-55.0,0.200,-0.300,180.360,1000.0
2025-09-03T17:58:22.774794,0.450,-1.340,359.900,-55.0,0.200,-0.300,180.360,1000.0
2025-09-03T17:58:22.776794,0.450,-1.340,359.900,-55.0,0.200,-0.300,180.360,1000.0
2025-09-03T17:58:22.892977,0.450,-1.340,359.900,-55.1,0.200,-0.300,180.360,1000.0
2025-09-03T17:58:22.893980,0.450,-1.340,359.900,-55.1,0.200,-0.300,180.360,1000.0
2025-09-03T17:58:22.894978,0.440,-1.330,359.900,-55.1,0.200,-0.300,180.360,1000.0
2025-09-03T17:58:22.895978,0.440,-1.330,359.890,-55.1,0.200,-0.300,180.360,1000.0
2025-09-03T17:58:22.896977,0.440,-1.340,359.890,-55.1,0.200,-0.300,180.360,1000.0
2025-09-03T17:58:23.002149,0.440,-1.330,359.890,-55.2,0.200,-0.300,180.360,1000.0
2025-09-03T17:58:23.003151,0.440,-1.330,359.890,-55.2,0.200,-0.300,180.360,1000.0
2025-09-03T17:58:23.005151,0.440,-1.330,359.890,-55.2,0.200,-0.300,180.360,1000.0
2025-09-03T17:58:23.007151,0.440,-1.330,359.890,-55.2,0.200,-0.300,180.360,1000.0
2025-09-03T17:58:23.008147,0.440,-1.320,359.900,-55.2,0.200,-0.300,180.360,1000.0
2025-09-03T17:58:23.112146,0.440,-1.320,359.900,-55.2,0.200,-0.300,180.360,1000.0
2025-09-03T17:58:23.113146,0.450,-1.330,359.910,-55.2,0.200,-0.300,180.360,1000.0
2025-09-03T17:58:23.114147,0.450,-1.330,359.900,-55.3,0.200,-0.300,180.360,1000.0
2025-09-03T17:58:23.116149,0.440,-1.320,359.900,-55.3,0.200,-0.300,180.360,1000.0
2025-09-03T17:58:23.117150,0.440,-1.320,359.900,-55.3,0.200,-0.300,180.360,1000.0
2025-09-03T17:58:23.235517,0.440,-1.330,359.900,-55.3,0.200,-0.300,180.360,1000.0
2025-09-03T17:58:23.237518,0.450,-1.320,359.910,-55.3,0.200,-0.300,180.360,1000.0
2025-09-03T17:58:23.238518,0.450,-1.320,359.910,-55.3,0.200,-0.300,180.360,1000.0
2025-09-03T17:58:23.239518,0.450,-1.320,359.910,-55.3,0.200,-0.300,180.360,1000.0
2025-09-03T17:58:23.240518,0.450,-1.320,359.900,-55.3,0.200,-0.300,180.360,1000.0
2025-09-03T17:58:23.356269,0.450,-1.320,359.900,-55.3,0.200,-0.300,180.360,1000.0
2025-09-03T17:58:23.357269,0.450,-1.320,359.900,-55.3,0.200,-0.300,180.360,1000.0
2025-09-03T17:58:23.358269,0.450,-1.320,359.900,-55.3,0.200,-0.300,180.360,1000.0
2025-09-03T17:58:23.359269,0.450,-1.320,359.900,-55.3,0.200,-0.300,180.360,1000.0
2025-09-03T17:58:23.361270,0.450,-1.320,359.900,-55.3,0.200,-0.300,180.360,1000.0
2025-09-03T17:58:23.480121,0.450,-1.320,359.910,-55.3,0.200,-0.300,180.360,1000.0
2025-09-03T17:58:23.482121,0.450,-1.320,359.910,-55.3,0.200,-0.300,180.360,1000.0
2025-09-03T17:58:23.485124,0.450,-1.320,359.910,-55.3,0.200,-0.300,180.360,1000.0
2025-09-03T17:58:23.485928,0.460,-1.320,359.900,-55.3,0.200,-0.300,180.360,1000.0
2025-09-03T17:58:23.486933,0.460,-1.320,359.900,-55.3,0.200,-0.300,180.360,1000.0
2025-09-03T17:58:23.603013,0.460,-1.320,359.900,-55.3,0.200,-0.300,180.360,1000.0
2025-09-03T17:58:23.604012,0.470,-1.320,359.900,-55.3,0.200,-0.300,180.360,1000.0
2025-09-03T17:58:23.606014,0.470,-1.320,359.900,-55.3,0.200,-0.300,180.360,1000.0
2025-09-03T17:58:23.607013,0.470,-1.320,359.900,-55.3,0.200,-0.300,180.360,1000.0
2025-09-03T17:58:23.608013,0.470,-1.320,359.900,-55.3,0.200,-0.300,180.360,1000.0
2025-09-03T17:58:23.711490,0.470,-1.320,359.900,-55.3,0.200,-0.300,180.360,1000.0
2025-09-03T17:58:23.713493,0.470,-1.320,359.900,-55.3,0.200,-0.300,180.360,1000.0
2025-09-03T17:58:23.714490,0.470,-1.320,359.910,-55.3,0.200,-0.300,180.360,1000.0
2025-09-03T17:58:23.716493,0.470,-1.320,359.910,-55.3,0.200,-0.300,180.360,1000.0
2025-09-03T17:58:23.717494,0.470,-1.320,359.910,-55.3,0.200,-0.300,180.360,1000.0
2025-09-03T17:58:23.834909,0.470,-1.320,359.900,-55.3,0.200,-0.300,180.360,1000.0
2025-09-03T17:58:23.836909,0.470,-1.330,359.910,-55.3,0.200,-0.300,180.360,1000.0
2025-09-03T17:58:23.837907,0.470,-1.320,359.910,-55.3,0.200,-0.300,180.360,1000.0
2025-09-03T17:58:23.839906,0.470,-1.330,359.910,-55.3,0.200,-0.300,180.360,1000.0
2025-09-03T17:58:23.840906,0.470,-1.330,359.910,-55.4,0.200,-0.300,180.360,1000.0
2025-09-03T17:58:23.955946,0.480,-1.330,359.910,-55.4,0.200,-0.300,180.360,1000.0
2025-09-03T17:58:23.957960,0.480,-1.340,359.910,-55.4,0.200,-0.300,180.360,1000.0
2025-09-03T17:58:23.958949,0.480,-1.340,359.910,-55.4,0.200,-0.300,180.360,1000.0
2025-09-03T17:58:23.959946,0.480,-1.340,359.910,-55.4,0.200,-0.300,180.360,1000.0
2025-09-03T17:58:23.960946,0.480,-1.340,359.910,-55.4,0.200,-0.300,180.360,1000.0
2025-09-03T17:58:24.078261,0.480,-1.340,359.910,-55.4,0.200,-0.300,180.360,1000.0
2025-09-03T17:58:24.081261,0.480,-1.340,359.910,-55.4,0.200,-0.300,180.360,1000.0
2025-09-03T17:58:24.084262,0.480,-1.340,359.910,-55.4,0.200,-0.300,180.360,1000.0
2025-09-03T17:58:24.085263,0.480,-1.350,359.910,-55.4,0.200,-0.300,180.360,1000.0
2025-09-03T17:58:24.086262,0.480,-1.350,359.910,-55.4,0.200,-0.300,180.360,1000.0
2025-09-03T17:58:24.203434,0.480,-1.350,359.910,-55.4,0.200,-0.300,180.360,1000.0
2025-09-03T17:58:24.204434,0.480,-1.350,359.910,-55.4,0.200,-0.300,180.360,1000.0
2025-09-03T17:58:24.206445,0.480,-1.350,359.910,-55.4,0.200,-0.300,180.360,1000.0
2025-09-03T17:58:24.207434,0.480,-1.350,359.910,-55.4,0.200,-0.300,180.360,1000.0
2025-09-03T17:58:24.208433,0.480,-1.360,359.910,-55.4,0.200,-0.300,180.360,1000.0
2025-09-03T17:58:24.313185,0.480,-1.350,359.910,-55.4,0.200,-0.300,180.360,1000.0
2025-09-03T17:58:24.315184,0.470,-1.350,359.910,-55.4,0.200,-0.300,180.360,1000.0
2025-09-03T17:58:24.316184,0.470,-1.350,359.910,-55.4,0.200,-0.300,180.360,1000.0
2025-09-03T17:58:24.318187,0.470,-1.350,359.910,-55.4,0.200,-0.300,180.360,1000.0
2025-09-03T17:58:24.320088,0.470,-1.350,359.910,-55.4,0.200,-0.300,180.360,1000.0
2025-09-03T17:58:24.438744,0.470,-1.360,359.910,-55.4,0.200,-0.300,180.360,1000.0
2025-09-03T17:58:24.439744,0.470,-1.360,359.910,-55.4,0.200,-0.300,180.360,1000.0
2025-09-03T17:58:24.441746,0.470,-1.360,359.910,-55.4,0.200,-0.300,180.360,1000.0
2025-09-03T17:58:24.442745,0.470,-1.360,359.910,-55.4,0.200,-0.300,180.360,1000.0
2025-09-03T17:58:24.443745,0.470,-1.360,359.910,-55.4,0.200,-0.300,180.360,1000.0
2025-09-03T17:58:24.546998,0.470,-1.360,359.910,-55.4,0.200,-0.300,180.360,1000.0
2025-09-03T17:58:24.548997,0.470,-1.360,359.900,-55.4,0.200,-0.300,180.360,1000.0
2025-09-03T17:58:24.550998,0.460,-1.350,359.900,-55.3,0.200,-0.300,180.360,1000.0
2025-09-03T17:58:24.551997,0.460,-1.350,359.900,-55.3,0.200,-0.300,180.360,1000.0
2025-09-03T17:58:24.552997,0.460,-1.350,359.900,-55.3,0.200,-0.300,180.360,1000.0
2025-09-03T17:58:24.657929,0.460,-1.350,359.910,-55.3,0.200,-0.300,180.360,1000.0
2025-09-03T17:58:24.659066,0.460,-1.350,359.900,-55.3,0.200,-0.300,180.360,1000.0
2025-09-03T17:58:24.660066,0.460,-1.340,359.900,-55.3,0.200,-0.300,180.360,1000.0
2025-09-03T17:58:24.662066,0.450,-1.340,359.910,-55.3,0.200,-0.300,180.360,1000.0
2025-09-03T17:58:24.663065,0.450,-1.340,359.910,-55.3,0.200,-0.300,180.360,1000.0
2025-09-03T17:58:24.781741,0.460,-1.340,359.900,-55.3,0.200,-0.300,180.360,1000.0
2025-09-03T17:58:24.783741,0.460,-1.330,359.910,-55.3,0.200,-0.300,180.360,1000.0
2025-09-03T17:58:24.785741,0.460,-1.320,359.910,-55.3,0.200,-0.300,180.360,1000.0
2025-09-03T17:58:24.787739,0.460,-1.320,359.910,-55.3,0.200,-0.300,180.360,1000.0
2025-09-03T17:58:24.788739,0.450,-1.310,359.910,-55.3,0.200,-0.300,180.360,1000.0
2025-09-03T17:58:24.904278,0.450,-1.310,359.910,-55.3,0.200,-0.300,180.360,1000.0
2025-09-03T17:58:24.906279,0.450,-1.310,359.910,-55.3,0.200,-0.300,180.360,1000.0
2025-09-03T17:58:24.907281,0.450,-1.310,359.910,-55.3,0.200,-0.300,180.360,1000.0
2025-09-03T17:58:24.908279,0.450,-1.310,359.910,-55.3,0.200,-0.300,180.360,1000.0
2025-09-03T17:58:24.909279,0.450,-1.310,359.910,-55.3,0.200,-0.300,180.360,1000.0
2025-09-03T17:58:25.014129,0.450,-1.310,359.910,-55.3,0.200,-0.300,180.360,1000.0
2025-09-03T17:58:25.015129,0.450,-1.320,359.910,-55.3,0.200,-0.300,180.360,1000.0
2025-09-03T17:58:25.017135,0.460,-1.320,359.910,-55.3,0.200,-0.300,180.360,1000.0
2025-09-03T17:58:25.018133,0.460,-1.320,359.910,-55.3,0.200,-0.300,180.360,1000.0
2025-09-03T17:58:25.020131,0.460,-1.320,359.910,-55.4,0.200,-0.300,180.360,1000.0
2025-09-03T17:58:25.136019,0.450,-1.320,359.910,-55.4,0.200,-0.300,180.360,1000.0
2025-09-03T17:58:25.138052,0.460,-1.320,359.910,-55.4,0.200,-0.300,180.360,1000.0
2025-09-03T17:58:25.139055,0.450,-1.320,359.910,-55.4,0.200,-0.300,180.360,1000.0
2025-09-03T17:58:25.140059,0.450,-1.310,359.910,-55.4,0.200,-0.300,180.360,1000.0
2025-09-03T17:58:25.141020,0.450,-1.320,359.910,-55.4,0.200,-0.300,180.360,1000.0
2025-09-03T17:58:25.258719,0.450,-1.320,359.910,-55.4,0.200,-0.300,180.360,1000.0
2025-09-03T17:58:25.259717,0.450,-1.320,359.910,-55.4,0.200,-0.300,180.360,1000.0
2025-09-03T17:58:25.260730,0.450,-1.320,359.910,-55.4,0.200,-0.300,180.360,1000.0
2025-09-03T17:58:25.261726,0.450,-1.320,359.910,-55.4,0.200,-0.300,180.360,1000.0
2025-09-03T17:58:25.263718,0.450,-1.320,359.910,-55.4,0.200,-0.300,180.360,1000.0
2025-09-03T17:58:25.367184,0.460,-1.320,359.910,-55.4,0.200,-0.300,180.360,1000.0
2025-09-03T17:58:25.369184,0.460,-1.310,359.910,-55.4,0.200,-0.300,180.360,1000.0
2025-09-03T17:58:25.370184,0.460,-1.310,359.910,-55.4,0.200,-0.300,180.360,1000.0
2025-09-03T17:58:25.372185,0.470,-1.310,359.910,-55.4,0.200,-0.300,180.360,1000.0
2025-09-03T17:58:25.374195,0.470,-1.310,359.910,-55.4,0.200,-0.300,180.360,1000.0
2025-09-03T17:58:25.489529,0.470,-1.310,359.910,-55.4,0.200,-0.300,180.360,1000.0
2025-09-03T17:58:25.491532,0.480,-1.310,359.920,-55.4,0.200,-0.300,180.360,1000.0
2025-09-03T17:58:25.492531,0.480,-1.310,359.920,-55.4,0.200,-0.300,180.360,1000.0
2025-09-03T17:58:25.493532,0.480,-1.310,359.920,-55.4,0.200,-0.300,180.360,1000.0
2025-09-03T17:58:25.495530,0.480,-1.310,359.910,-55.4,0.200,-0.300,180.360,1000.0
2025-09-03T17:58:25.612132,0.480,-1.310,359.910,-55.4,0.200,-0.300,180.360,1000.0
2025-09-03T17:58:25.614131,0.480,-1.310,359.920,-55.4,0.200,-0.300,180.360,1000.0
2025-09-03T17:58:25.615133,0.480,-1.310,359.920,-55.4,0.200,-0.300,180.360,1000.0
2025-09-03T17:58:25.617135,0.480,-1.310,359.920,-55.4,0.200,-0.300,180.360,1000.0
2025-09-03T17:58:25.619134,0.480,-1.310,359.920,-55.4,0.200,-0.300,180.360,1000.0
2025-09-03T17:58:25.733520,0.480,-1.310,359.920,-55.4,0.200,-0.300,180.360,1000.0
2025-09-03T17:58:25.735521,0.480,-1.310,359.920,-55.4,0.200,-0.300,180.360,1000.0
2025-09-03T17:58:25.736518,0.480,-1.310,359.920,-55.4,0.200,-0.300,180.360,1000.0
2025-09-03T17:58:25.737519,0.480,-1.310,359.920,-55.4,0.200,-0.300,180.360,1000.0
2025-09-03T17:58:25.738520,0.490,-1.310,359.920,-55.4,0.200,-0.300,180.360,1000.0
2025-09-03T17:58:25.857499,0.490,-1.310,359.920,-55.4,0.200,-0.300,180.360,1000.0
2025-09-03T17:58:25.858488,0.490,-1.310,359.920,-55.4,0.200,-0.300,180.360,1000.0
2025-09-03T17:58:25.859486,0.490,-1.310,359.920,-55.4,0.200,-0.300,180.360,1000.0
2025-09-03T17:58:25.860487,0.490,-1.310,359.920,-55.4,0.200,-0.300,180.360,1000.0
2025-09-03T17:58:25.862498,0.490,-1.310,359.920,-55.4,0.200,-0.300,180.360,1000.0
2025-09-03T17:58:25.967574,0.490,-1.310,359.920,-55.4,0.200,-0.300,180.360,1000.0
2025-09-03T17:58:25.969575,0.490,-1.310,359.920,-55.4,0.200,-0.300,180.360,1000.0
2025-09-03T17:58:25.970574,0.490,-1.310,359.920,-55.4,0.200,-0.300,180.360,1000.0
2025-09-03T17:58:25.971575,0.490,-1.320,359.920,-55.4,0.200,-0.300,180.360,1000.0
2025-09-03T17:58:25.973583,0.490,-1.320,359.920,-55.4,0.200,-0.300,180.360,1000.0
2025-09-03T17:58:26.078627,0.490,-1.320,359.920,-55.4,0.200,-0.300,180.360,1000.0
2025-09-03T17:58:26.080575,0.490,-1.320,359.920,-55.4,0.200,-0.300,180.360,1000.0
2025-09-03T17:58:26.082576,0.490,-1.320,359.920,-55.4,0.200,-0.300,180.360,1000.0
2025-09-03T17:58:26.084575,0.490,-1.320,359.920,-55.4,0.200,-0.300,180.360,1000.0
2025-09-03T17:58:26.086585,0.490,-1.320,359.920,-55.4,0.200,-0.300,180.360,1000.0
2025-09-03T17:58:26.202952,0.490,-1.320,359.920,-55.4,0.200,-0.300,180.360,1000.0
2025-09-03T17:58:26.203952,0.490,-1.320,359.920,-55.4,0.200,-0.300,180.360,1000.0
2025-09-03T17:58:26.205951,0.490,-1.320,359.920,-55.4,0.200,-0.300,180.360,1000.0
2025-09-03T17:58:26.206952,0.490,-1.320,359.920,-55.4,0.200,-0.300,180.360,1000.0
2025-09-03T17:58:26.207951,0.490,-1.320,359.920,-55.4,0.200,-0.300,180.360,1000.0
2025-09-03T17:58:26.325945,0.490,-1.320,359.920,-55.4,0.200,-0.300,180.360,1000.0
2025-09-03T17:58:26.326945,0.490,-1.320,359.920,-55.5,0.200,-0.300,180.360,1000.0
2025-09-03T17:58:26.327945,0.490,-1.320,359.920,-55.5,0.200,-0.300,180.360,1000.0
2025-09-03T17:58:26.328944,0.480,-1.320,359.920,-55.5,0.200,-0.300,180.360,1000.0
2025-09-03T17:58:26.330944,0.480,-1.320,359.920,-55.5,0.200,-0.300,180.360,1000.0
2025-09-03T17:58:26.434474,0.480,-1.320,359.920,-55.5,0.200,-0.300,180.360,1000.0
2025-09-03T17:58:26.436475,0.480,-1.330,359.920,-55.5,0.200,-0.300,180.360,1000.0
2025-09-03T17:58:26.437474,0.480,-1.330,359.920,-55.5,0.200,-0.300,180.360,1000.0
2025-09-03T17:58:26.438475,0.480,-1.330,359.920,-55.5,0.200,-0.300,180.360,1000.0
2025-09-03T17:58:26.439475,0.480,-1.340,359.920,-55.5,0.200,-0.300,180.360,1000.0
2025-09-03T17:58:26.544525,0.480,-1.340,359.920,-55.5,0.200,-0.300,180.360,1000.0
2025-09-03T17:58:26.545525,0.480,-1.340,359.920,-55.5,0.200,-0.300,180.360,1000.0
2025-09-03T17:58:26.546525,0.480,-1.340,359.920,-55.5,0.200,-0.300,180.360,1000.0
2025-09-03T17:58:26.547525,0.480,-1.340,359.920,-55.5,0.200,-0.300,180.360,1000.0
2025-09-03T17:58:26.548525,0.480,-1.350,359.920,-55.5,0.200,-0.300,180.360,1000.0
2025-09-03T17:58:26.653054,0.480,-1.350,359.920,-55.5,0.200,-0.300,180.360,1000.0
2025-09-03T17:58:26.654906,0.480,-1.350,359.920,-55.5,0.200,-0.300,180.360,1000.0
2025-09-03T17:58:26.655904,0.480,-1.350,359.920,-55.5,0.200,-0.300,180.360,1000.0
2025-09-03T17:58:26.657902,0.490,-1.350,359.920,-55.5,0.200,-0.300,180.360,1000.0
2025-09-03T17:58:26.658902,0.490,-1.350,359.920,-55.5,0.200,-0.300,180.360,1000.0
2025-09-03T17:58:26.777485,0.490,-1.350,359.920,-55.5,0.200,-0.300,180.360,1000.0
2025-09-03T17:58:26.779487,0.490,-1.350,359.920,-55.5,0.200,-0.300,180.360,1000.0
2025-09-03T17:58:26.781486,0.490,-1.340,359.920,-55.5,0.200,-0.300,180.360,1000.0
2025-09-03T17:58:26.783485,0.490,-1.340,359.920,-55.5,0.200,-0.300,180.360,1000.0
2025-09-03T17:58:26.784488,0.480,-1.340,359.920,-55.5,0.200,-0.300,180.360,1000.0
2025-09-03T17:58:26.902122,0.480,-1.340,359.920,-55.5,0.200,-0.300,180.360,1000.0
2025-09-03T17:58:26.903134,0.480,-1.330,359.920,-55.6,0.200,-0.300,180.360,1000.0
2025-09-03T17:58:26.905121,0.480,-1.330,359.920,-55.6,0.200,-0.300,180.360,1000.0
2025-09-03T17:58:26.906118,0.480,-1.330,359.920,-55.6,0.200,-0.300,180.360,1000.0
2025-09-03T17:58:26.907118,0.480,-1.330,359.920,-55.6,0.200,-0.300,180.360,1000.0
2025-09-03T17:58:27.009580,0.470,-1.330,359.920,-55.6,0.200,-0.300,180.360,1000.0
2025-09-03T17:58:27.011580,0.480,-1.320,359.920,-55.6,0.200,-0.300,180.360,1000.0
2025-09-03T17:58:27.012579,0.480,-1.320,359.920,-55.6,0.200,-0.300,180.360,1000.0
2025-09-03T17:58:27.013580,0.480,-1.320,359.920,-55.6,0.200,-0.300,180.360,1000.0
2025-09-03T17:58:27.015579,0.480,-1.320,359.920,-55.6,0.200,-0.300,180.360,1000.0
2025-09-03T17:58:27.132638,0.480,-1.320,359.920,-55.6,0.200,-0.300,180.360,1000.0
2025-09-03T17:58:27.133639,0.480,-1.320,359.920,-55.6,0.200,-0.300,180.360,1000.0
2025-09-03T17:58:27.135687,0.480,-1.320,359.920,-55.6,0.200,-0.300,180.360,1000.0
2025-09-03T17:58:27.136641,0.480,-1.320,359.920,-55.6,0.200,-0.300,180.360,1000.0
2025-09-03T17:58:27.137641,0.480,-1.320,359.920,-55.6,0.200,-0.300,180.360,1000.0
2025-09-03T17:58:27.242486,0.480,-1.320,359.920,-55.7,0.200,-0.300,180.360,1000.0
2025-09-03T17:58:27.243491,0.480,-1.320,359.920,-55.7,0.200,-0.300,180.360,1000.0
2025-09-03T17:58:27.244491,0.480,-1.320,359.920,-55.7,0.200,-0.300,180.360,1000.0
2025-09-03T17:58:27.245491,0.480,-1.320,359.920,-55.7,0.200,-0.300,180.360,1000.0
2025-09-03T17:58:27.246491,0.480,-1.320,359.920,-55.8,0.200,-0.300,180.360,1000.0
2025-09-03T17:58:27.350711,0.480,-1.320,359.920,-55.8,0.200,-0.300,180.360,1000.0
2025-09-03T17:58:27.352711,0.480,-1.320,359.920,-55.8,0.200,-0.300,180.360,1000.0
2025-09-03T17:58:27.353711,0.480,-1.320,359.920,-55.9,0.200,-0.300,180.360,1000.0
2025-09-03T17:58:27.355710,0.470,-1.320,359.920,-55.9,0.200,-0.300,180.360,1000.0
2025-09-03T17:58:27.356710,0.470,-1.320,359.920,-56.0,0.200,-0.300,180.360,1000.0
2025-09-03T17:58:27.474848,0.470,-1.320,359.920,-56.0,0.200,-0.300,180.360,1000.0
2025-09-03T17:58:27.477840,0.470,-1.320,359.920,-56.1,0.200,-0.300,180.360,1000.0
2025-09-03T17:58:27.479839,0.470,-1.320,359.920,-56.1,0.200,-0.300,180.360,1000.0
2025-09-03T17:58:27.481839,0.480,-1.320,359.920,-56.2,0.200,-0.300,180.360,1000.0
2025-09-03T17:58:27.482848,0.480,-1.320,359.920,-56.2,0.200,-0.300,180.360,1000.0
2025-09-03T17:58:27.598176,0.480,-1.320,359.920,-56.3,0.200,-0.300,180.360,1000.0
2025-09-03T17:58:27.599176,0.480,-1.320,359.920,-56.3,0.200,-0.300,180.360,1000.0
2025-09-03T17:58:27.600176,0.480,-1.320,359.920,-56.3,0.200,-0.300,180.360,1000.0
2025-09-03T17:58:27.602177,0.480,-1.320,359.920,-56.4,0.200,-0.300,180.360,1000.0
2025-09-03T17:58:27.604176,0.480,-1.320,359.920,-56.4,0.200,-0.300,180.360,1000.0
2025-09-03T17:58:27.721544,0.490,-1.320,359.920,-56.4,0.200,-0.300,180.360,1000.0
2025-09-03T17:58:27.722545,0.480,-1.320,359.920,-56.4,0.200,-0.300,180.360,1000.0
2025-09-03T17:58:27.724545,0.490,-1.320,359.920,-56.5,0.200,-0.300,180.360,1000.0
2025-09-03T17:58:27.725545,0.490,-1.320,359.920,-56.5,0.200,-0.300,180.360,1000.0
2025-09-03T17:58:27.726545,0.490,-1.320,359.920,-56.5,0.200,-0.300,180.360,1000.0
2025-09-03T17:58:27.830148,0.490,-1.320,359.920,-56.5,0.200,-0.300,180.360,1000.0
2025-09-03T17:58:27.832153,0.490,-1.320,359.920,-56.5,0.200,-0.300,180.360,1000.0
2025-09-03T17:58:27.833153,0.490,-1.320,359.920,-56.4,0.200,-0.300,180.360,1000.0
2025-09-03T17:58:27.834152,0.490,-1.320,359.920,-56.4,0.200,-0.300,180.360,1000.0
2025-09-03T17:58:27.836155,0.490,-1.320,359.920,-56.4,0.200,-0.300,180.360,1000.0
2025-09-03T17:58:27.953615,0.490,-1.320,359.920,-56.4,0.200,-0.300,180.360,1000.0
2025-09-03T17:58:27.955615,0.490,-1.330,359.920,-56.4,0.200,-0.300,180.360,1000.0
2025-09-03T17:58:27.956614,0.480,-1.330,359.920,-56.4,0.200,-0.300,180.360,1000.0
2025-09-03T17:58:27.957625,0.480,-1.330,359.920,-56.3,0.200,-0.300,180.360,1000.0
2025-09-03T17:58:27.958616,0.480,-1.330,359.920,-56.3,0.200,-0.300,180.360,1000.0
2025-09-03T17:58:28.075404,0.480,-1.330,359.920,-56.3,0.200,-0.300,180.360,1000.0
2025-09-03T17:58:28.077413,0.480,-1.330,359.920,-56.3,0.200,-0.300,180.360,1000.0
2025-09-03T17:58:28.078405,0.480,-1.330,359.920,-56.3,0.200,-0.300,180.360,1000.0
2025-09-03T17:58:28.079403,0.480,-1.330,359.920,-56.3,0.200,-0.300,180.360,1000.0
2025-09-03T17:58:28.081406,0.470,-1.330,359.930,-56.3,0.200,-0.300,180.360,1000.0
2025-09-03T17:58:28.184398,0.470,-1.330,359.920,-56.2,0.200,-0.300,180.360,1000.0
2025-09-03T17:58:28.186396,0.470,-1.330,359.920,-56.2,0.200,-0.300,180.360,1000.0
2025-09-03T17:58:28.187399,0.470,-1.330,359.920,-56.2,0.200,-0.300,180.360,1000.0
2025-09-03T17:58:28.188397,0.460,-1.330,359.930,-56.2,0.200,-0.300,180.360,1000.0
2025-09-03T17:58:28.189398,0.460,-1.320,359.930,-56.2,0.200,-0.300,180.360,1000.0
2025-09-03T17:58:28.307078,0.460,-1.320,359.930,-56.1,0.200,-0.300,180.360,1000.0
2025-09-03T17:58:28.308069,0.460,-1.320,359.930,-56.1,0.200,-0.300,180.360,1000.0
2025-09-03T17:58:28.309068,0.460,-1.320,359.930,-56.1,0.200,-0.300,180.360,1000.0
2025-09-03T17:58:28.310068,0.460,-1.320,359.930,-56.1,0.200,-0.300,180.360,1000.0
2025-09-03T17:58:28.311069,0.450,-1.320,359.930,-56.1,0.200,-0.300,180.360,1000.0
2025-09-03T17:58:28.415360,0.450,-1.320,359.930,-56.0,0.200,-0.300,180.360,1000.0
2025-09-03T17:58:28.416401,0.450,-1.320,359.930,-56.0,0.200,-0.300,180.360,1000.0
2025-09-03T17:58:28.418385,0.450,-1.320,359.930,-56.0,0.200,-0.300,180.360,1000.0
2025-09-03T17:58:28.419368,0.450,-1.320,359.930,-56.0,0.200,-0.300,180.360,1000.0
2025-09-03T17:58:28.420426,0.450,-1.320,359.930,-56.0,0.200,-0.300,180.360,1000.0
2025-09-03T17:58:28.524389,0.450,-1.320,359.930,-56.0,0.200,-0.300,180.360,1000.0
2025-09-03T17:58:28.526374,0.450,-1.320,359.930,-56.0,0.200,-0.300,180.360,1000.0
2025-09-03T17:58:28.527378,0.450,-1.320,359.930,-55.9,0.200,-0.300,180.360,1000.0
2025-09-03T17:58:28.528379,0.450,-1.330,359.930,-55.9,0.200,-0.300,180.360,1000.0
2025-09-03T17:58:28.529376,0.450,-1.330,359.930,-55.9,0.200,-0.300,180.360,1000.0
2025-09-03T17:58:28.634737,0.450,-1.320,359.930,-55.9,0.200,-0.300,180.360,1000.0
2025-09-03T17:58:28.636743,0.450,-1.320,359.930,-55.9,0.200,-0.300,180.360,1000.0
2025-09-03T17:58:28.637743,0.450,-1.320,359.930,-55.9,0.200,-0.300,180.360,1000.0
2025-09-03T17:58:28.639741,0.450,-1.320,359.930,-55.9,0.200,-0.300,180.360,1000.0
2025-09-03T17:58:28.640741,0.450,-1.320,359.930,-55.9,0.200,-0.300,180.360,1000.0
2025-09-03T17:58:28.758696,0.460,-1.320,359.930,-55.9,0.200,-0.300,180.360,1000.0
2025-09-03T17:58:28.759704,0.460,-1.320,359.930,-55.9,0.200,-0.300,180.360,1000.0
2025-09-03T17:58:28.761702,0.470,-1.320,359.930,-55.9,0.200,-0.300,180.360,1000.0
2025-09-03T17:58:28.762702,0.470,-1.320,359.930,-55.9,0.200,-0.300,180.360,1000.0
2025-09-03T17:58:28.763701,0.470,-1.320,359.930,-55.9,0.200,-0.300,180.360,1000.0
2025-09-03T17:58:28.866878,0.470,-1.320,359.930,-55.9,0.200,-0.300,180.360,1000.0
2025-09-03T17:58:28.868879,0.470,-1.320,359.930,-55.9,0.200,-0.300,180.360,1000.0
2025-09-03T17:58:28.870883,0.480,-1.320,359.930,-55.9,0.200,-0.300,180.360,1000.0
2025-09-03T17:58:28.872891,0.480,-1.320,359.930,-55.9,0.200,-0.300,180.360,1000.0
2025-09-03T17:58:28.874878,0.480,-1.310,359.930,-55.9,0.200,-0.300,180.360,1000.0
2025-09-03T17:58:28.991400,0.480,-1.310,359.930,-55.9,0.200,-0.300,180.360,1000.0
2025-09-03T17:58:28.992337,0.480,-1.310,359.930,-55.9,0.200,-0.300,180.360,1000.0
2025-09-03T17:58:28.993369,0.480,-1.310,359.930,-55.9,0.200,-0.300,180.360,1000.0
2025-09-03T17:58:28.995334,0.480,-1.310,359.930,-55.9,0.200,-0.300,180.360,1000.0
2025-09-03T17:58:28.996334,0.480,-1.310,359.930,-55.9,0.200,-0.300,180.360,1000.0
2025-09-03T17:58:29.099333,0.480,-1.320,359.940,-56.0,0.200,-0.300,180.360,1000.0
2025-09-03T17:58:29.101332,0.480,-1.320,359.940,-56.0,0.200,-0.300,180.360,1000.0
2025-09-03T17:58:29.103334,0.480,-1.320,359.940,-56.0,0.200,-0.300,180.360,1000.0
2025-09-03T17:58:29.104336,0.480,-1.320,359.940,-56.0,0.200,-0.300,180.360,1000.0
2025-09-03T17:58:29.106336,0.480,-1.320,359.940,-56.0,0.200,-0.300,180.360,1000.0
2025-09-03T17:58:29.224479,0.490,-1.320,359.940,-56.0,0.200,-0.300,180.360,1000.0
2025-09-03T17:58:29.225479,0.490,-1.320,359.940,-56.0,0.200,-0.300,180.360,1000.0
2025-09-03T17:58:29.227481,0.490,-1.320,359.940,-56.0,0.200,-0.300,180.360,1000.0
2025-09-03T17:58:29.228480,0.490,-1.320,359.940,-56.0,0.200,-0.300,180.360,1000.0
2025-09-03T17:58:29.230481,0.490,-1.320,359.940,-56.0,0.200,-0.300,180.360,1000.0
2025-09-03T17:58:29.347481,0.480,-1.320,359.940,-56.0,0.200,-0.300,180.360,1000.0
2025-09-03T17:58:29.348480,0.490,-1.320,359.940,-56.0,0.200,-0.300,180.360,1000.0
2025-09-03T17:58:29.349481,0.490,-1.320,359.940,-56.0,0.200,-0.300,180.360,1000.0
2025-09-03T17:58:29.351480,0.490,-1.320,359.930,-56.0,0.200,-0.300,180.360,1000.0
2025-09-03T17:58:29.352481,0.490,-1.320,359.930,-56.0,0.200,-0.300,180.360,1000.0
2025-09-03T17:58:29.457270,0.490,-1.320,359.930,-56.0,0.200,-0.300,180.360,1000.0
2025-09-03T17:58:29.458264,0.490,-1.320,359.930,-56.0,0.200,-0.300,180.360,1000.0
2025-09-03T17:58:29.459265,0.490,-1.320,359.930,-56.0,0.200,-0.300,180.360,1000.0
2025-09-03T17:58:29.460265,0.490,-1.320,359.930,-56.0,0.200,-0.300,180.360,1000.0
2025-09-03T17:58:29.461264,0.480,-1.330,359.930,-56.0,0.200,-0.300,180.360,1000.0
2025-09-03T17:58:29.566162,0.480,-1.330,359.930,-56.0,0.200,-0.300,180.360,1000.0
2025-09-03T17:58:29.567161,0.480,-1.340,359.930,-55.9,0.200,-0.300,180.360,1000.0
2025-09-03T17:58:29.569163,0.480,-1.340,359.930,-55.9,0.200,-0.300,180.360,1000.0
2025-09-03T17:58:29.571253,0.480,-1.340,359.930,-55.9,0.200,-0.300,180.360,1000.0
2025-09-03T17:58:29.573164,0.480,-1.350,359.930,-55.9,0.200,-0.300,180.360,1000.0
2025-09-03T17:58:29.689526,0.480,-1.350,359.930,-55.9,0.200,-0.300,180.360,1000.0
2025-09-03T17:58:29.691518,0.480,-1.350,359.930,-55.9,0.200,-0.300,180.360,1000.0
2025-09-03T17:58:29.692519,0.480,-1.350,359.930,-55.9,0.200,-0.300,180.360,1000.0
2025-09-03T17:58:29.693519,0.480,-1.350,359.940,-55.9,0.200,-0.300,180.360,1000.0
2025-09-03T17:58:29.694518,0.480,-1.350,359.930,-55.9,0.200,-0.300,180.360,1000.0
2025-09-03T17:58:29.797476,0.480,-1.350,359.930,-55.9,0.200,-0.300,180.360,1000.0
2025-09-03T17:58:29.798477,0.470,-1.350,359.930,-55.9,0.200,-0.300,180.360,1000.0
2025-09-03T17:58:29.799475,0.470,-1.360,359.930,-55.9,0.200,-0.300,180.360,1000.0
2025-09-03T17:58:29.800476,0.470,-1.360,359.930,-55.9,0.200,-0.300,180.360,1000.0
2025-09-03T17:58:29.801475,0.470,-1.360,359.930,-55.9,0.200,-0.300,180.360,1000.0
2025-09-03T17:58:29.905479,0.470,-1.360,359.930,-55.9,0.200,-0.300,180.360,1000.0
2025-09-03T17:58:29.907479,0.470,-1.360,359.930,-55.9,0.200,-0.300,180.360,1000.0
2025-09-03T17:58:29.908477,0.480,-1.360,359.930,-55.9,0.200,-0.300,180.360,1000.0
2025-09-03T17:58:29.909477,0.480,-1.360,359.930,-55.9,0.200,-0.300,180.360,1000.0
2025-09-03T17:58:29.910477,0.480,-1.350,359.930,-56.0,0.200,-0.300,180.360,1000.0
2025-09-03T17:58:30.029389,0.480,-1.350,359.930,-56.0,0.200,-0.300,180.360,1000.0
2025-09-03T17:58:30.030390,0.480,-1.350,359.930,-56.0,0.200,-0.300,180.360,1000.0
2025-09-03T17:58:30.032391,0.480,-1.350,359.930,-55.9,0.200,-0.300,180.360,1000.0
2025-09-03T17:58:30.034390,0.480,-1.350,359.930,-55.9,0.200,-0.300,180.360,1000.0
2025-09-03T17:58:30.036391,0.480,-1.340,359.930,-55.9,0.200,-0.300,180.360,1000.0
2025-09-03T17:58:30.149390,0.480,-1.340,359.930,-55.9,0.200,-0.300,180.360,1000.0
2025-09-03T17:58:30.151390,0.480,-1.340,359.930,-56.0,0.200,-0.300,180.360,1000.0
2025-09-03T17:58:30.152390,0.480,-1.340,359.930,-56.0,0.200,-0.300,180.360,1000.0
2025-09-03T17:58:30.154391,0.480,-1.330,359.930,-56.0,0.200,-0.300,180.360,1000.0
2025-09-03T17:58:30.155388,0.490,-1.330,359.930,-56.0,0.200,-0.300,180.360,1000.0
2025-09-03T17:58:30.274105,0.490,-1.330,359.930,-56.0,0.200,-0.300,180.360,1000.0
2025-09-03T17:58:30.276111,0.490,-1.330,359.930,-56.0,0.200,-0.300,180.360,1000.0
2025-09-03T17:58:30.278106,0.490,-1.330,359.930,-56.0,0.200,-0.300,180.360,1000.0
2025-09-03T17:58:30.280105,0.490,-1.320,359.930,-56.0,0.200,-0.300,180.360,1000.0
2025-09-03T17:58:30.281105,0.490,-1.320,359.930,-56.0,0.200,-0.300,180.360,1000.0
2025-09-03T17:58:30.397822,0.490,-1.320,359.930,-56.0,0.200,-0.300,180.360,1000.0
2025-09-03T17:58:30.398822,0.490,-1.320,359.930,-56.0,0.200,-0.300,180.360,1000.0
2025-09-03T17:58:30.400823,0.490,-1.320,359.930,-56.0,0.200,-0.300,180.360,1000.0
2025-09-03T17:58:30.401824,0.490,-1.320,359.930,-56.0,0.200,-0.300,180.360,1000.0
2025-09-03T17:58:30.403824,0.490,-1.320,359.930,-56.0,0.200,-0.300,180.360,1000.0
2025-09-03T17:58:30.507389,0.490,-1.320,359.930,-56.0,0.200,-0.300,180.360,1000.0
2025-09-03T17:58:30.509388,0.490,-1.320,359.930,-56.0,0.200,-0.300,180.360,1000.0
2025-09-03T17:58:30.511388,0.490,-1.320,359.930,-56.1,0.200,-0.300,180.360,1000.0
2025-09-03T17:58:30.512388,0.490,-1.320,359.930,-56.1,0.200,-0.300,180.360,1000.0
2025-09-03T17:58:30.513386,0.490,-1.320,359.930,-56.1,0.200,-0.300,180.360,1000.0
2025-09-03T17:58:30.632039,0.490,-1.320,359.930,-56.1,0.200,-0.300,180.360,1000.0
2025-09-03T17:58:30.634038,0.490,-1.320,359.940,-56.1,0.200,-0.300,180.360,1000.0
2025-09-03T17:58:30.635040,0.490,-1.320,359.940,-56.1,0.200,-0.300,180.360,1000.0
2025-09-03T17:58:30.637040,0.480,-1.320,359.940,-56.1,0.200,-0.300,180.360,1000.0
2025-09-03T17:58:30.638041,0.480,-1.320,359.940,-56.1,0.200,-0.300,180.360,1000.0
2025-09-03T17:58:30.756816,0.480,-1.320,359.940,-56.1,0.200,-0.300,180.360,1000.0
2025-09-03T17:58:30.757818,0.480,-1.320,359.940,-56.1,0.200,-0.300,180.360,1000.0
2025-09-03T17:58:30.758816,0.480,-1.320,359.940,-56.0,0.200,-0.300,180.360,1000.0
2025-09-03T17:58:30.760818,0.480,-1.320,359.940,-56.0,0.200,-0.300,180.360,1000.0
2025-09-03T17:58:30.761817,0.480,-1.320,359.940,-56.0,0.200,-0.300,180.360,1000.0
2025-09-03T17:58:30.865272,0.480,-1.320,359.940,-56.0,0.200,-0.300,180.360,1000.0
2025-09-03T17:58:30.867273,0.480,-1.320,359.940,-56.0,0.200,-0.300,180.360,1000.0
2025-09-03T17:58:30.868273,0.480,-1.320,359.940,-56.0,0.200,-0.300,180.360,1000.0
2025-09-03T17:58:30.870276,0.470,-1.320,359.940,-56.0,0.200,-0.300,180.360,1000.0
2025-09-03T17:58:30.872273,0.470,-1.320,359.940,-56.0,0.200,-0.300,180.360,1000.0
2025-09-03T17:58:30.988317,0.470,-1.320,359.940,-56.0,0.200,-0.300,180.360,1000.0
2025-09-03T17:58:30.990318,0.470,-1.320,359.940,-56.0,0.200,-0.300,180.360,1000.0
2025-09-03T17:58:30.991317,0.460,-1.320,359.940,-56.0,0.200,-0.300,180.360,1000.0
2025-09-03T17:58:30.992317,0.460,-1.320,359.940,-56.0,0.200,-0.300,180.360,1000.0
2025-09-03T17:58:30.993318,0.460,-1.320,359.940,-56.0,0.200,-0.300,180.360,1000.0
2025-09-03T17:58:31.111371,0.460,-1.320,359.940,-56.0,0.200,-0.300,180.360,1000.0
2025-09-03T17:58:31.112413,0.460,-1.320,359.940,-56.0,0.200,-0.300,180.360,1000.0
2025-09-03T17:58:31.113404,0.460,-1.320,359.940,-56.0,0.200,-0.300,180.360,1000.0
2025-09-03T17:58:31.114404,0.460,-1.320,359.940,-56.0,0.200,-0.300,180.360,1000.0
2025-09-03T17:58:31.116373,0.450,-1.320,359.940,-56.0,0.200,-0.300,180.360,1000.0
2025-09-03T17:58:31.233410,0.450,-1.320,359.940,-56.0,0.200,-0.300,180.360,1000.0
2025-09-03T17:58:31.234372,0.450,-1.320,359.940,-56.0,0.200,-0.300,180.360,1000.0
2025-09-03T17:58:31.235371,0.450,-1.320,359.940,-56.0,0.200,-0.300,180.360,1000.0
2025-09-03T17:58:31.237379,0.450,-1.320,359.940,-56.0,0.200,-0.300,180.360,1000.0
2025-09-03T17:58:31.238373,0.450,-1.320,359.940,-56.0,0.200,-0.300,180.360,1000.0
2025-09-03T17:58:31.356458,0.450,-1.320,359.940,-56.0,0.200,-0.300,180.360,1000.0
2025-09-03T17:58:31.358460,0.450,-1.320,359.940,-56.0,0.200,-0.300,180.360,1000.0
2025-09-03T17:58:31.359459,0.450,-1.320,359.940,-56.0,0.200,-0.300,180.360,1000.0
2025-09-03T17:58:31.360460,0.450,-1.320,359.940,-56.0,0.200,-0.300,180.360,1000.0
2025-09-03T17:58:31.361465,0.450,-1.320,359.940,-56.0,0.200,-0.300,180.360,1000.0
2025-09-03T17:58:31.464590,0.450,-1.320,359.940,-56.0,0.200,-0.300,180.360,1000.0
2025-09-03T17:58:31.465592,0.450,-1.320,359.940,-56.0,0.200,-0.300,180.360,1000.0
2025-09-03T17:58:31.467590,0.450,-1.320,359.940,-56.0,0.200,-0.300,180.360,1000.0
2025-09-03T17:58:31.468590,0.450,-1.320,359.940,-56.0,0.200,-0.300,180.360,1000.0
2025-09-03T17:58:31.471593,0.460,-1.320,359.940,-56.0,0.200,-0.300,180.360,1000.0
2025-09-03T17:58:31.587745,0.460,-1.320,359.940,-56.0,0.200,-0.300,180.360,1000.0
2025-09-03T17:58:31.589743,0.470,-1.320,359.940,-56.0,0.200,-0.300,180.360,1000.0
2025-09-03T17:58:31.590744,0.470,-1.320,359.940,-56.0,0.200,-0.300,180.360,1000.0
2025-09-03T17:58:31.591744,0.470,-1.320,359.940,-56.0,0.200,-0.300,180.360,1000.0
2025-09-03T17:58:31.592743,0.470,-1.330,359.940,-56.0,0.200,-0.300,180.360,1000.0
2025-09-03T17:58:31.696724,0.480,-1.330,359.940,-56.0,0.200,-0.300,180.360,1000.0
2025-09-03T17:58:31.697732,0.480,-1.330,359.940,-56.0,0.200,-0.300,180.360,1000.0
2025-09-03T17:58:31.699729,0.480,-1.340,359.940,-56.0,0.200,-0.300,180.360,1000.0
2025-09-03T17:58:31.700730,0.480,-1.340,359.940,-56.0,0.200,-0.300,180.360,1000.0
2025-09-03T17:58:31.701730,0.480,-1.340,359.940,-56.0,0.200,-0.300,180.360,1000.0
2025-09-03T17:58:31.806292,0.480,-1.340,359.940,-56.0,0.200,-0.300,180.360,1000.0
2025-09-03T17:58:31.807290,0.480,-1.350,359.940,-56.0,0.200,-0.300,180.360,1000.0
2025-09-03T17:58:31.808290,0.480,-1.350,359.940,-56.0,0.200,-0.300,180.360,1000.0
2025-09-03T17:58:31.810289,0.480,-1.350,359.940,-56.0,0.200,-0.300,180.360,1000.0
2025-09-03T17:58:31.811291,0.480,-1.350,359.940,-56.0,0.200,-0.300,180.360,1000.0
2025-09-03T17:58:31.914902,0.480,-1.350,359.940,-56.0,0.200,-0.300,180.360,1000.0
2025-09-03T17:58:31.915891,0.480,-1.350,359.940,-56.0,0.200,-0.300,180.360,1000.0
2025-09-03T17:58:31.917891,0.480,-1.340,359.940,-56.0,0.200,-0.300,180.360,1000.0
2025-09-03T17:58:31.918891,0.490,-1.340,359.940,-56.0,0.200,-0.300,180.360,1000.0
2025-09-03T17:58:31.919891,0.490,-1.340,359.940,-56.1,0.200,-0.300,180.360,1000.0
2025-09-03T17:58:32.038091,0.490,-1.340,359.940,-56.1,0.200,-0.300,180.360,1000.0
2025-09-03T17:58:32.040090,0.490,-1.330,359.940,-56.1,0.200,-0.300,180.360,1000.0
2025-09-03T17:58:32.041089,0.490,-1.330,359.940,-56.1,0.200,-0.300,180.360,1000.0
2025-09-03T17:58:32.042088,0.490,-1.330,359.940,-56.1,0.200,-0.300,180.360,1000.0
2025-09-03T17:58:32.043088,0.480,-1.330,359.940,-56.1,0.200,-0.300,180.360,1000.0
2025-09-03T17:58:32.159766,0.480,-1.330,359.940,-56.1,0.200,-0.300,180.360,1000.0
2025-09-03T17:58:32.160756,0.480,-1.320,359.940,-56.1,0.200,-0.300,180.360,1000.0
2025-09-03T17:58:32.162757,0.480,-1.320,359.940,-56.1,0.200,-0.300,180.360,1000.0
2025-09-03T17:58:32.163793,0.480,-1.320,359.940,-56.1,0.200,-0.300,180.360,1000.0
2025-09-03T17:58:32.164758,0.470,-1.320,359.940,-56.0,0.200,-0.300,180.360,1000.0
2025-09-03T17:58:32.268308,0.470,-1.320,359.940,-56.0,0.200,-0.300,180.360,1000.0
2025-09-03T17:58:32.269307,0.470,-1.320,359.940,-56.0,0.200,-0.300,180.360,1000.0
2025-09-03T17:58:32.272315,0.470,-1.320,359.940,-56.0,0.200,-0.300,180.360,1000.0
2025-09-03T17:58:32.274308,0.480,-1.320,359.940,-56.0,0.200,-0.300,180.360,1000.0
2025-09-03T17:58:32.275307,0.480,-1.320,359.940,-56.0,0.200,-0.300,180.360,1000.0
2025-09-03T17:58:32.391222,0.480,-1.320,359.940,-56.0,0.200,-0.300,180.360,1000.0
2025-09-03T17:58:32.392221,0.480,-1.320,359.940,-56.1,0.200,-0.300,180.360,1000.0
2025-09-03T17:58:32.394232,0.480,-1.320,359.940,-56.1,0.200,-0.300,180.360,1000.0
2025-09-03T17:58:32.395222,0.480,-1.320,359.940,-56.1,0.200,-0.300,180.360,1000.0
2025-09-03T17:58:32.396221,0.480,-1.320,359.940,-56.1,0.200,-0.300,180.360,1000.0
2025-09-03T17:58:32.500322,0.480,-1.320,359.940,-56.0,0.200,-0.300,180.360,1000.0
2025-09-03T17:58:32.501320,0.480,-1.320,359.940,-56.0,0.200,-0.300,180.360,1000.0
2025-09-03T17:58:32.502319,0.480,-1.320,359.940,-56.0,0.200,-0.300,180.360,1000.0
2025-09-03T17:58:32.504323,0.480,-1.320,359.940,-56.0,0.200,-0.300,180.360,1000.0
2025-09-03T17:58:32.506324,0.480,-1.320,359.940,-56.0,0.200,-0.300,180.360,1000.0
2025-09-03T17:58:32.612361,0.480,-1.320,359.940,-56.0,0.200,-0.300,180.360,1000.0
2025-09-03T17:58:32.613363,0.480,-1.320,359.940,-56.0,0.200,-0.300,180.360,1000.0
2025-09-03T17:58:32.615361,0.490,-1.320,359.940,-56.0,0.200,-0.300,180.360,1000.0
2025-09-03T17:58:32.616362,0.490,-1.320,359.940,-56.0,0.200,-0.300,180.360,1000.0
2025-09-03T17:58:32.617362,0.490,-1.320,359.940,-56.0,0.200,-0.300,180.360,1000.0
2025-09-03T17:58:32.720584,0.490,-1.320,359.940,-56.0,0.200,-0.300,180.360,1000.0
2025-09-03T17:58:32.722586,0.490,-1.320,359.940,-56.0,0.200,-0.300,180.360,1000.0
2025-09-03T17:58:32.724585,0.490,-1.320,359.940,-56.0,0.200,-0.300,180.360,1000.0
2025-09-03T17:58:32.725584,0.490,-1.320,359.950,-56.0,0.200,-0.300,180.360,1000.0
2025-09-03T17:58:32.726583,0.490,-1.320,359.950,-56.0,0.200,-0.300,180.360,1000.0
2025-09-03T17:58:32.844756,0.480,-1.320,359.950,-56.0,0.200,-0.300,180.360,1000.0
2025-09-03T17:58:32.845758,0.480,-1.320,359.950,-56.0,0.200,-0.300,180.360,1000.0
2025-09-03T17:58:32.846756,0.480,-1.320,359.950,-56.0,0.200,-0.300,180.360,1000.0
2025-09-03T17:58:32.847756,0.480,-1.320,359.950,-56.0,0.200,-0.300,180.360,1000.0
2025-09-03T17:58:32.848756,0.480,-1.320,359.950,-56.0,0.200,-0.300,180.360,1000.0
2025-09-03T17:58:32.966989,0.480,-1.320,359.950,-56.0,0.200,-0.300,180.360,1000.0
2025-09-03T17:58:32.967988,0.470,-1.320,359.950,-56.0,0.200,-0.300,180.360,1000.0
2025-09-03T17:58:32.968988,0.470,-1.320,359.950,-56.1,0.200,-0.300,180.360,1000.0
2025-09-03T17:58:32.973989,0.470,-1.320,359.950,-56.1,0.200,-0.300,180.360,1000.0
2025-09-03T17:58:32.974990,0.470,-1.320,359.950,-56.1,0.200,-0.300,180.360,1000.0
2025-09-03T17:58:33.090063,0.470,-1.320,359.950,-56.1,0.200,-0.300,180.360,1000.0
2025-09-03T17:58:33.091052,0.460,-1.320,359.950,-56.1,0.200,-0.300,180.360,1000.0
2025-09-03T17:58:33.093053,0.460,-1.320,359.950,-56.1,0.200,-0.300,180.360,1000.0
2025-09-03T17:58:33.094053,0.460,-1.320,359.950,-56.1,0.200,-0.300,180.360,1000.0
2025-09-03T17:58:33.095052,0.460,-1.320,359.950,-56.1,0.200,-0.300,180.360,1000.0
2025-09-03T17:58:33.200279,0.460,-1.320,359.950,-56.1,0.200,-0.300,180.360,1000.0
2025-09-03T17:58:33.201279,0.460,-1.320,359.950,-56.1,0.200,-0.300,180.360,1000.0
2025-09-03T17:58:33.203280,0.460,-1.320,359.950,-56.1,0.200,-0.300,180.360,1000.0
2025-09-03T17:58:33.204279,0.450,-1.320,359.950,-56.1,0.200,-0.300,180.360,1000.0
2025-09-03T17:58:33.206282,0.450,-1.320,359.950,-56.1,0.200,-0.300,180.360,1000.0
2025-09-03T17:58:33.309589,0.450,-1.320,359.950,-56.1,0.200,-0.300,180.360,1000.0
2025-09-03T17:58:33.310589,0.460,-1.320,359.950,-56.1,0.200,-0.300,180.360,1000.0
2025-09-03T17:58:33.312590,0.460,-1.320,359.950,-56.1,0.200,-0.300,180.360,1000.0
2025-09-03T17:58:33.313589,0.460,-1.320,359.950,-56.1,0.200,-0.300,180.360,1000.0
2025-09-03T17:58:33.314589,0.470,-1.320,359.950,-56.1,0.200,-0.300,180.360,1000.0
2025-09-03T17:58:33.420297,0.460,-1.320,359.950,-56.1,0.200,-0.300,180.360,1000.0
2025-09-03T17:58:33.422297,0.460,-1.320,359.950,-56.1,0.200,-0.300,180.360,1000.0
2025-09-03T17:58:33.424297,0.460,-1.320,359.950,-56.1,0.200,-0.300,180.360,1000.0
2025-09-03T17:58:33.425293,0.460,-1.320,359.950,-56.1,0.200,-0.300,180.360,1000.0
2025-09-03T17:58:33.426293,0.460,-1.320,359.950,-56.1,0.200,-0.300,180.360,1000.0
2025-09-03T17:58:33.542483,0.460,-1.320,359.950,-56.1,0.200,-0.300,180.360,1000.0
2025-09-03T17:58:33.543441,0.460,-1.320,359.950,-56.1,0.200,-0.300,180.360,1000.0
2025-09-03T17:58:33.544441,0.450,-1.320,359.950,-56.1,0.200,-0.300,180.360,1000.0
2025-09-03T17:58:33.546487,0.450,-1.320,359.950,-56.1,0.200,-0.300,180.360,1000.0
2025-09-03T17:58:33.547441,0.450,-1.320,359.950,-56.1,0.200,-0.300,180.360,1000.0
2025-09-03T17:58:33.664390,0.450,-1.320,359.950,-56.1,0.200,-0.300,180.360,1000.0
2025-09-03T17:58:33.666389,0.450,-1.320,359.950,-56.1,0.200,-0.300,180.360,1000.0
2025-09-03T17:58:33.667389,0.450,-1.320,359.950,-56.1,0.200,-0.300,180.360,1000.0
2025-09-03T17:58:33.668389,0.450,-1.320,359.950,-56.1,0.200,-0.300,180.360,1000.0
2025-09-03T17:58:33.669390,0.450,-1.320,359.950,-56.1,0.200,-0.300,180.360,1000.0
2025-09-03T17:58:33.786161,0.450,-1.320,359.950,-56.1,0.200,-0.300,180.360,1000.0
2025-09-03T17:58:33.787162,0.450,-1.320,359.950,-56.1,0.200,-0.300,180.360,1000.0
2025-09-03T17:58:33.789162,0.450,-1.320,359.950,-56.1,0.200,-0.300,180.360,1000.0
2025-09-03T17:58:33.790160,0.450,-1.320,359.950,-56.1,0.200,-0.300,180.360,1000.0
2025-09-03T17:58:33.791164,0.450,-1.320,359.950,-56.1,0.200,-0.300,180.360,1000.0
2025-09-03T17:58:33.909388,0.450,-1.320,359.950,-56.1,0.200,-0.300,180.360,1000.0
2025-09-03T17:58:33.911393,0.450,-1.320,359.950,-56.1,0.200,-0.300,180.360,1000.0
2025-09-03T17:58:33.912402,0.450,-1.330,359.950,-56.1,0.200,-0.300,180.360,1000.0
2025-09-03T17:58:33.913393,0.450,-1.330,359.950,-56.1,0.200,-0.300,180.360,1000.0
2025-09-03T17:58:33.914392,0.450,-1.330,359.950,-56.1,0.200,-0.300,180.360,1000.0
2025-09-03T17:58:34.018210,0.450,-1.340,359.950,-56.1,0.200,-0.300,180.360,1000.0
2025-09-03T17:58:34.020211,0.450,-1.340,359.950,-56.1,0.200,-0.300,180.360,1000.0
2025-09-03T17:58:34.022213,0.450,-1.340,359.950,-56.1,0.200,-0.300,180.360,1000.0
2025-09-03T17:58:34.023214,0.450,-1.340,359.950,-56.1,0.200,-0.300,180.360,1000.0
2025-09-03T17:58:34.025368,0.450,-1.340,359.950,-56.1,0.200,-0.300,180.360,1000.0
2025-09-03T17:58:34.140259,0.450,-1.350,359.950,-56.1,0.200,-0.300,180.360,1000.0
2025-09-03T17:58:34.141257,0.450,-1.350,359.950,-56.1,0.200,-0.300,180.360,1000.0
2025-09-03T17:58:34.143258,0.460,-1.350,359.950,-56.1,0.200,-0.300,180.360,1000.0
2025-09-03T17:58:34.144258,0.460,-1.350,359.950,-56.1,0.200,-0.300,180.360,1000.0
2025-09-03T17:58:34.145258,0.460,-1.350,359.950,-56.1,0.200,-0.300,180.360,1000.0
2025-09-03T17:58:34.263404,0.470,-1.350,359.950,-56.1,0.200,-0.300,180.360,1000.0
2025-09-03T17:58:34.265404,0.470,-1.350,359.950,-56.1,0.200,-0.300,180.360,1000.0
2025-09-03T17:58:34.266403,0.470,-1.340,359.950,-56.1,0.200,-0.300,180.360,1000.0
2025-09-03T17:58:34.267403,0.480,-1.340,359.950,-56.1,0.200,-0.300,180.360,1000.0
2025-09-03T17:58:34.268403,0.480,-1.350,359.950,-56.1,0.200,-0.300,180.360,1000.0
2025-09-03T17:58:34.386187,0.480,-1.350,359.950,-56.1,0.200,-0.300,180.360,1000.0
2025-09-03T17:58:34.388185,0.480,-1.350,359.950,-56.1,0.200,-0.300,180.360,1000.0
2025-09-03T17:58:34.390186,0.480,-1.350,359.950,-56.1,0.200,-0.300,180.360,1000.0
2025-09-03T17:58:34.392185,0.480,-1.350,359.950,-56.1,0.200,-0.300,180.360,1000.0
2025-09-03T17:58:34.393184,0.480,-1.350,359.950,-56.1,0.200,-0.300,180.360,1000.0
2025-09-03T17:58:34.509032,0.480,-1.350,359.950,-56.1,0.200,-0.300,180.360,1000.0
2025-09-03T17:58:34.510033,0.480,-1.350,359.950,-56.1,0.200,-0.300,180.360,1000.0
2025-09-03T17:58:34.512032,0.480,-1.350,359.950,-56.1,0.200,-0.300,180.360,1000.0
2025-09-03T17:58:34.513032,0.470,-1.350,359.950,-56.1,0.200,-0.300,180.360,1000.0
2025-09-03T17:58:34.514031,0.470,-1.350,359.950,-56.1,0.200,-0.300,180.360,1000.0
2025-09-03T17:58:34.632282,0.470,-1.350,359.950,-56.1,0.200,-0.300,180.360,1000.0
2025-09-03T17:58:34.633282,0.470,-1.350,359.950,-56.1,0.200,-0.300,180.360,1000.0
2025-09-03T17:58:34.635283,0.460,-1.350,359.950,-56.1,0.200,-0.300,180.360,1000.0
2025-09-03T17:58:34.636283,0.460,-1.350,359.950,-56.1,0.200,-0.300,180.360,1000.0
2025-09-03T17:58:34.637282,0.460,-1.350,359.950,-56.1,0.200,-0.300,180.360,1000.0
2025-09-03T17:58:34.752987,0.470,-1.350,359.950,-56.1,0.200,-0.300,180.360,1000.0
2025-09-03T17:58:34.753994,0.470,-1.350,359.950,-56.1,0.200,-0.300,180.360,1000.0
2025-09-03T17:58:34.754992,0.470,-1.350,359.950,-56.1,0.200,-0.300,180.360,1000.0
2025-09-03T17:58:34.756993,0.470,-1.350,359.950,-56.1,0.200,-0.300,180.360,1000.0
2025-09-03T17:58:34.757993,0.480,-1.350,359.950,-56.1,0.200,-0.300,180.360,1000.0
2025-09-03T17:58:34.876327,0.480,-1.350,359.950,-56.1,0.200,-0.300,180.360,1000.0
2025-09-03T17:58:34.879325,0.480,-1.350,359.950,-56.1,0.200,-0.300,180.360,1000.0
2025-09-03T17:58:34.881340,0.480,-1.350,359.950,-56.1,0.200,-0.300,180.360,1000.0
2025-09-03T17:58:34.882326,0.480,-1.340,359.950,-56.1,0.200,-0.300,180.360,1000.0
2025-09-03T17:58:34.883327,0.480,-1.340,359.950,-56.1,0.200,-0.300,180.360,1000.0
2025-09-03T17:58:35.001335,0.480,-1.340,359.950,-56.2,0.200,-0.300,180.360,1000.0
2025-09-03T17:58:35.002336,0.480,-1.340,359.950,-56.2,0.200,-0.300,180.360,1000.0
2025-09-03T17:58:35.004337,0.480,-1.330,359.950,-56.1,0.200,-0.300,180.360,1000.0
2025-09-03T17:58:35.006337,0.470,-1.330,359.950,-56.2,0.200,-0.300,180.360,1000.0
2025-09-03T17:58:35.008336,0.470,-1.330,359.950,-56.1,0.200,-0.300,180.360,1000.0
2025-09-03T17:58:35.126389,0.470,-1.330,359.950,-56.2,0.200,-0.300,180.360,1000.0
2025-09-03T17:58:35.127389,0.470,-1.330,359.950,-56.2,0.200,-0.300,180.360,1000.0
2025-09-03T17:58:35.128389,0.470,-1.330,359.950,-56.2,0.200,-0.300,180.360,1000.0
2025-09-03T17:58:35.129426,0.470,-1.320,359.950,-56.2,0.200,-0.300,180.360,1000.0
2025-09-03T17:58:35.131435,0.450,-1.310,359.950,-56.1,0.200,-0.300,180.360,1000.0
2025-09-03T17:58:35.248221,0.460,-1.310,359.950,-56.2,0.200,-0.300,180.360,1000.0
2025-09-03T17:58:35.249222,0.450,-1.310,359.950,-56.2,0.200,-0.300,180.360,1000.0
2025-09-03T17:58:35.250222,0.430,-1.320,359.960,-56.2,0.200,-0.300,180.360,1000.0
2025-09-03T17:58:35.357181,0.410,-1.320,0.020,-56.2,0.200,-0.300,180.360,1000.0
2025-09-03T17:58:35.359186,0.380,-1.340,0.170,-56.2,0.200,-0.300,180.360,1000.0
2025-09-03T17:58:35.360186,0.340,-1.360,0.380,-56.2,0.200,-0.300,180.360,1000.0
2025-09-03T17:58:35.361188,0.420,-1.340,0.510,-56.2,0.200,-0.300,180.360,1000.0
2025-09-03T17:58:35.362186,0.470,-1.300,0.420,-56.1,0.200,-0.300,180.360,1000.0
2025-09-03T17:58:35.465811,0.550,-1.240,359.940,-56.2,0.200,-0.300,180.360,1000.0
2025-09-03T17:58:35.467812,0.570,-1.190,359.340,-56.1,0.200,-0.300,180.360,1000.0
2025-09-03T17:58:35.468816,0.540,-1.080,358.550,-56.1,0.200,-0.300,180.360,1000.0
2025-09-03T17:58:35.471811,0.550,-1.070,357.770,-56.1,0.200,-0.300,180.360,1000.0
2025-09-03T17:58:35.474810,0.540,-1.020,357.400,-56.1,0.200,-0.300,180.360,1000.0
2025-09-03T17:58:35.593811,0.540,-1.010,357.300,-56.1,0.200,-0.300,180.360,1000.0
2025-09-03T17:58:35.595810,0.520,-0.980,357.360,-56.1,0.200,-0.300,180.360,1000.0
2025-09-03T17:58:35.596810,0.490,-0.920,357.390,-56.1,0.200,-0.300,180.360,1000.0
2025-09-03T17:58:35.597811,0.490,-0.910,357.240,-56.1,0.200,-0.300,180.360,1000.0
2025-09-03T17:58:35.598811,0.510,-0.950,356.920,-56.1,0.200,-0.300,180.360,1000.0
2025-09-03T17:58:35.703180,0.470,-0.950,356.460,-56.1,0.200,-0.300,180.360,1000.0
2025-09-03T17:58:35.705181,0.450,-0.930,355.930,-56.1,0.200,-0.300,180.360,1000.0
2025-09-03T17:58:35.707179,0.330,-0.770,355.300,-56.1,0.200,-0.300,180.360,1000.0
2025-09-03T17:58:35.708180,-0.040,-0.450,354.610,-56.1,0.200,-0.300,180.360,1000.0
2025-09-03T17:58:35.709178,-0.940,0.000,353.660,-56.1,0.200,-0.300,180.360,1000.0
2025-09-03T17:58:35.827718,-1.010,0.080,353.000,-56.1,0.200,-0.300,180.360,1000.0
2025-09-03T17:58:35.828721,-1.030,0.190,352.450,-56.1,0.200,-0.300,180.360,1000.0
2025-09-03T17:58:35.830719,-1.090,0.070,351.920,-56.2,0.200,-0.300,180.360,1000.0
2025-09-03T17:58:35.831754,-1.090,-0.030,351.400,-56.2,0.200,-0.300,180.360,1000.0
2025-09-03T17:58:35.832719,-1.060,0.020,350.850,-56.2,0.200,-0.300,180.360,1000.0
2025-09-03T17:58:35.938464,-0.990,0.090,350.330,-56.2,0.200,-0.300,180.360,1000.0
2025-09-03T17:58:35.939427,-1.010,0.120,349.860,-56.2,0.200,-0.300,180.360,1000.0
2025-09-03T17:58:35.941467,-1.010,0.140,349.540,-56.2,0.200,-0.300,180.360,1000.0
2025-09-03T17:58:35.942427,-1.070,0.090,349.390,-56.2,0.200,-0.300,180.360,1000.0
2025-09-03T17:58:35.944426,-1.140,0.050,349.420,-56.2,0.200,-0.300,180.360,1000.0
2025-09-03T17:58:36.062429,-1.210,0.060,349.540,-56.2,0.200,-0.300,180.360,1000.0
2025-09-03T17:58:36.064428,-1.290,0.100,349.660,-56.2,0.200,-0.300,180.360,1000.0
2025-09-03T17:58:36.065427,-1.480,0.160,349.700,-56.2,0.200,-0.300,180.360,1000.0
2025-09-03T17:58:36.066428,-1.930,0.240,349.650,-56.2,0.200,-0.300,180.360,1000.0
2025-09-03T17:58:36.068427,-2.620,0.360,349.410,-56.2,0.200,-0.300,180.360,1000.0
2025-09-03T17:58:36.184427,-3.500,0.530,348.950,-56.2,0.200,-0.300,180.360,1000.0
2025-09-03T17:58:36.185426,-4.550,0.690,348.380,-56.2,0.200,-0.300,180.360,1000.0
2025-09-03T17:58:36.186433,-5.760,0.780,347.830,-56.2,0.200,-0.300,180.360,1000.0
2025-09-03T17:58:36.187433,-7.010,0.820,347.320,-56.2,0.200,-0.300,180.360,1000.0
2025-09-03T17:58:36.189429,-8.050,0.830,346.890,-56.2,0.200,-0.300,180.360,1000.0
2025-09-03T17:58:36.307312,-9.120,0.780,346.350,-56.2,0.200,-0.300,180.360,1000.0
2025-09-03T17:58:36.309315,-9.760,0.700,345.830,-56.2,0.200,-0.300,180.360,1000.0
2025-09-03T17:58:36.310315,-10.040,0.660,345.360,-56.2,0.200,-0.300,180.360,1000.0
2025-09-03T17:58:36.311313,-10.020,0.620,344.970,-56.2,0.200,-0.300,180.360,1000.0
2025-09-03T17:58:36.313313,-9.610,0.490,344.710,-56.2,0.200,-0.300,180.360,1000.0
2025-09-03T17:58:36.429702,-8.820,0.320,344.500,-56.2,0.200,-0.300,180.360,1000.0
2025-09-03T17:58:36.430701,-7.810,0.170,344.340,-56.2,0.200,-0.300,180.360,1000.0
2025-09-03T17:58:36.432702,-6.760,-0.020,344.250,-56.2,0.200,-0.300,180.360,1000.0
2025-09-03T17:58:36.433701,-5.820,-0.180,344.250,-56.2,0.200,-0.300,180.360,1000.0
2025-09-03T17:58:36.434701,-4.520,-0.550,344.490,-56.2,0.200,-0.300,180.360,1000.0
2025-09-03T17:58:36.552477,-3.290,-0.850,344.840,-56.2,0.200,-0.300,180.360,1000.0
2025-09-03T17:58:36.553471,-2.090,-0.790,345.130,-56.2,0.200,-0.300,180.360,1000.0
2025-09-03T17:58:36.554471,-1.120,0.020,345.230,-56.2,0.200,-0.300,180.360,1000.0
2025-09-03T17:58:36.555470,-0.730,0.320,345.320,-56.2,0.200,-0.300,180.360,1000.0
2025-09-03T17:58:36.557472,-0.540,0.520,345.410,-56.2,0.200,-0.300,180.360,1000.0
2025-09-03T17:58:36.674766,-0.540,0.470,345.380,-56.2,0.200,-0.300,180.360,1000.0
2025-09-03T17:58:36.677766,-0.550,0.410,345.370,-56.2,0.200,-0.300,180.360,1000.0
2025-09-03T17:58:36.679767,-0.550,0.340,345.380,-56.2,0.200,-0.300,180.360,1000.0
2025-09-03T17:58:36.680766,-0.530,0.340,345.390,-56.2,0.200,-0.300,180.360,1000.0
2025-09-03T17:58:36.681766,-0.520,0.360,345.330,-56.2,0.200,-0.300,180.360,1000.0
2025-09-03T17:58:36.798967,-0.510,0.370,345.200,-56.2,0.200,-0.300,180.360,1000.0
2025-09-03T17:58:36.799965,-0.510,0.340,345.050,-56.2,0.200,-0.300,180.360,1000.0
2025-09-03T17:58:36.800966,-0.520,0.290,344.860,-56.2,0.200,-0.300,180.360,1000.0
2025-09-03T17:58:36.801965,-0.530,0.290,344.640,-56.2,0.200,-0.300,180.360,1000.0
2025-09-03T17:58:36.802966,-0.530,0.290,344.390,-56.2,0.200,-0.300,180.360,1000.0
2025-09-03T17:58:36.921957,-0.530,0.300,344.090,-56.2,0.200,-0.300,180.360,1000.0
2025-09-03T17:58:36.922962,-0.540,0.280,343.770,-56.2,0.200,-0.300,180.360,1000.0
2025-09-03T17:58:36.924963,-0.550,0.260,343.490,-56.2,0.200,-0.300,180.360,1000.0
2025-09-03T17:58:36.925961,-0.560,0.250,343.250,-56.2,0.200,-0.300,180.360,1000.0
2025-09-03T17:58:36.926962,-0.560,0.260,343.080,-56.2,0.200,-0.300,180.360,1000.0
2025-09-03T17:58:37.045039,-0.570,0.260,342.940,-56.2,0.200,-0.300,180.360,1000.0
2025-09-03T17:58:37.047039,-0.570,0.240,342.860,-56.2,0.200,-0.300,180.360,1000.0
2025-09-03T17:58:37.048039,-0.570,0.220,342.830,-56.2,0.200,-0.300,180.360,1000.0
2025-09-03T17:58:37.049037,-0.580,0.210,342.810,-56.2,0.200,-0.300,180.360,1000.0
2025-09-03T17:58:37.050040,-0.580,0.200,342.790,-56.2,0.200,-0.300,180.360,1000.0
2025-09-03T17:58:37.153045,-0.590,0.210,342.730,-56.2,0.200,-0.300,180.360,1000.0
2025-09-03T17:58:37.155039,-0.590,0.200,342.640,-56.2,0.200,-0.300,180.360,1000.0
2025-09-03T17:58:37.156038,-0.600,0.200,342.510,-56.1,0.200,-0.300,180.360,1000.0
2025-09-03T17:58:37.158043,-0.600,0.200,342.370,-56.1,0.200,-0.300,180.360,1000.0
2025-09-03T17:58:37.159041,-0.600,0.200,342.210,-56.1,0.200,-0.300,180.360,1000.0
2025-09-03T17:58:37.277228,-0.610,0.200,342.010,-56.1,0.200,-0.300,180.360,1000.0
2025-09-03T17:58:37.279234,-0.610,0.190,341.750,-56.1,0.200,-0.300,180.360,1000.0
2025-09-03T17:58:37.281238,-0.620,0.190,341.480,-56.2,0.200,-0.300,180.360,1000.0
2025-09-03T17:58:37.283227,-0.630,0.190,341.210,-56.2,0.200,-0.300,180.360,1000.0
2025-09-03T17:58:37.284227,-0.640,0.190,340.970,-56.2,0.200,-0.300,180.360,1000.0
2025-09-03T17:58:37.401842,-0.650,0.180,340.740,-56.2,0.200,-0.300,180.360,1000.0
2025-09-03T17:58:37.402831,-0.660,0.180,340.540,-56.2,0.200,-0.300,180.360,1000.0
2025-09-03T17:58:37.403831,-0.660,0.180,340.440,-56.2,0.200,-0.300,180.360,1000.0
2025-09-03T17:58:37.404831,-0.660,0.170,340.380,-56.2,0.200,-0.300,180.360,1000.0
2025-09-03T17:58:37.406832,-0.670,0.160,340.390,-56.2,0.200,-0.300,180.360,1000.0
2025-09-03T17:58:37.509915,-0.680,0.160,340.390,-56.2,0.200,-0.300,180.360,1000.0
2025-09-03T17:58:37.510916,-0.680,0.160,340.390,-56.2,0.200,-0.300,180.360,1000.0
2025-09-03T17:58:37.511914,-0.680,0.150,340.390,-56.2,0.200,-0.300,180.360,1000.0
2025-09-03T17:58:37.512913,-0.670,0.140,340.390,-56.2,0.200,-0.300,180.360,1000.0
2025-09-03T17:58:37.514914,-0.680,0.130,340.390,-56.2,0.200,-0.300,180.360,1000.0
2025-09-03T17:58:37.618287,-0.680,0.130,340.390,-56.2,0.200,-0.300,180.360,1000.0
2025-09-03T17:58:37.619287,-0.680,0.120,340.380,-56.2,0.200,-0.300,180.360,1000.0
2025-09-03T17:58:37.620287,-0.670,0.120,340.390,-56.2,0.200,-0.300,180.360,1000.0
2025-09-03T17:58:37.621287,-0.670,0.110,340.390,-56.2,0.200,-0.300,180.360,1000.0
2025-09-03T17:58:37.622288,-0.650,0.090,340.380,-56.2,0.200,-0.300,180.360,1000.0
2025-09-03T17:58:37.726458,-0.630,0.070,340.380,-56.3,0.200,-0.300,180.360,1000.0
2025-09-03T17:58:37.728456,-0.620,0.040,340.380,-56.3,0.200,-0.300,180.360,1000.0
2025-09-03T17:58:37.729455,-0.600,0.010,340.380,-56.2,0.200,-0.300,180.360,1000.0
2025-09-03T17:58:37.730455,-0.580,0.000,340.390,-56.2,0.200,-0.300,180.360,1000.0
2025-09-03T17:58:37.731457,-0.550,-0.020,340.390,-56.3,0.200,-0.300,180.360,1000.0
2025-09-03T17:58:37.848237,-0.530,-0.040,340.380,-56.3,0.200,-0.300,180.360,1000.0
2025-09-03T17:58:37.850237,-0.520,-0.060,340.380,-56.3,0.200,-0.300,180.360,1000.0
2025-09-03T17:58:37.851236,-0.510,-0.080,340.380,-56.3,0.200,-0.300,180.360,1000.0
2025-09-03T17:58:37.852237,-0.490,-0.100,340.390,-56.3,0.200,-0.300,180.360,1000.0
2025-09-03T17:58:37.853237,-0.480,-0.120,340.390,-56.3,0.200,-0.300,180.360,1000.0
2025-09-03T17:58:37.956853,-0.470,-0.140,340.380,-56.3,0.200,-0.300,180.360,1000.0
2025-09-03T17:58:37.958851,-0.460,-0.150,340.390,-56.3,0.200,-0.300,180.360,1000.0
2025-09-03T17:58:37.959850,-0.460,-0.170,340.390,-56.3,0.200,-0.300,180.360,1000.0
2025-09-03T17:58:37.960850,-0.440,-0.190,340.390,-56.3,0.200,-0.300,180.360,1000.0
2025-09-03T17:58:37.961862,-0.430,-0.200,340.390,-56.3,0.200,-0.300,180.360,1000.0
2025-09-03T17:58:38.065391,-0.420,-0.210,340.390,-56.3,0.200,-0.300,180.360,1000.0
2025-09-03T17:58:38.067391,-0.410,-0.220,340.390,-56.3,0.200,-0.300,180.360,1000.0
2025-09-03T17:58:38.069393,-0.400,-0.230,340.390,-56.3,0.200,-0.300,180.360,1000.0
2025-09-03T17:58:38.071393,-0.390,-0.250,340.390,-56.3,0.200,-0.300,180.360,1000.0
2025-09-03T17:58:38.072392,-0.390,-0.250,340.390,-56.2,0.200,-0.300,180.360,1000.0
2025-09-03T17:58:38.189390,-0.370,-0.260,340.390,-56.3,0.200,-0.300,180.360,1000.0
2025-09-03T17:58:38.191392,-0.370,-0.260,340.390,-56.3,0.200,-0.300,180.360,1000.0
2025-09-03T17:58:38.193391,-0.360,-0.270,340.390,-56.3,0.200,-0.300,180.360,1000.0
2025-09-03T17:58:38.194390,-0.350,-0.270,340.390,-56.3,0.200,-0.300,180.360,1000.0
2025-09-03T17:58:38.195390,-0.350,-0.280,340.390,-56.3,0.200,-0.300,180.360,1000.0
2025-09-03T17:58:38.311228,-0.340,-0.290,340.390,-56.3,0.200,-0.300,180.360,1000.0
2025-09-03T17:58:38.312228,-0.340,-0.290,340.390,-56.3,0.200,-0.300,180.360,1000.0
2025-09-03T17:58:38.313225,-0.330,-0.300,340.400,-56.3,0.200,-0.300,180.360,1000.0
2025-09-03T17:58:38.315226,-0.320,-0.310,340.400,-56.3,0.200,-0.300,180.360,1000.0
2025-09-03T17:58:38.316225,-0.310,-0.320,340.390,-56.3,0.200,-0.300,180.360,1000.0
2025-09-03T17:58:38.421959,-0.310,-0.320,340.390,-56.3,0.200,-0.300,180.360,1000.0
2025-09-03T17:58:38.423959,-0.310,-0.320,340.390,-56.3,0.200,-0.300,180.360,1000.0
2025-09-03T17:58:38.424962,-0.310,-0.320,340.390,-56.3,0.200,-0.300,180.360,1000.0
2025-09-03T17:58:38.426959,-0.310,-0.320,340.400,-56.3,0.200,-0.300,180.360,1000.0
2025-09-03T17:58:38.427970,-0.300,-0.330,340.400,-56.3,0.200,-0.300,180.360,1000.0
2025-09-03T17:58:38.531265,-0.290,-0.330,340.390,-56.3,0.200,-0.300,180.360,1000.0
2025-09-03T17:58:38.533236,-0.290,-0.330,340.390,-56.3,0.200,-0.300,180.360,1000.0
2025-09-03T17:58:38.535234,-0.290,-0.340,340.390,-56.3,0.200,-0.300,180.360,1000.0
2025-09-03T17:58:38.536234,-0.290,-0.340,340.390,-56.3,0.200,-0.300,180.360,1000.0
2025-09-03T17:58:38.537234,-0.290,-0.340,340.390,-56.3,0.200,-0.300,180.360,1000.0
2025-09-03T17:58:38.655455,-0.290,-0.340,340.390,-56.3,0.200,-0.300,180.360,1000.0
2025-09-03T17:58:38.656459,-0.290,-0.350,340.390,-56.3,0.200,-0.300,180.360,1000.0
2025-09-03T17:58:38.658462,-0.290,-0.360,340.400,-56.3,0.200,-0.300,180.360,1000.0
2025-09-03T17:58:38.659459,-0.280,-0.350,340.400,-56.3,0.200,-0.300,180.360,1000.0
2025-09-03T17:58:38.660841,-0.280,-0.350,340.400,-56.3,0.200,-0.300,180.360,1000.0
2025-09-03T17:58:38.763859,-0.280,-0.350,340.400,-56.3,0.200,-0.300,180.360,1000.0
2025-09-03T17:58:38.765863,-0.280,-0.340,340.400,-56.3,0.200,-0.300,180.360,1000.0
2025-09-03T17:58:38.766865,-0.280,-0.340,340.390,-56.3,0.200,-0.300,180.360,1000.0
2025-09-03T17:58:38.767864,-0.280,-0.340,340.400,-56.4,0.200,-0.300,180.360,1000.0
2025-09-03T17:58:38.768864,-0.270,-0.340,340.390,-56.4,0.200,-0.300,180.360,1000.0
2025-09-03T17:58:38.887080,-0.280,-0.350,340.390,-56.4,0.200,-0.300,180.360,1000.0
