Timestamp,Roll_Angle,Pitch_Angle,Yaw_Angle,Altitude,Roll_Setpoint,Pitch_Setpoint,Yaw_Setpoint,Altitude_Setpoint
2025-09-04T16:18:21.145368,-3.210,-3.460,351.870,-85.5,0.200,-0.300,180.360,1000.0
2025-09-04T16:18:21.268372,-3.220,-3.460,351.870,-85.5,0.200,-0.300,180.360,1000.0
2025-09-04T16:18:21.269367,-3.220,-3.460,351.870,-85.5,0.200,-0.300,180.360,1000.0
2025-09-04T16:18:21.271368,-3.220,-3.460,351.870,-85.5,0.200,-0.300,180.360,1000.0
2025-09-04T16:18:21.272367,-3.220,-3.460,351.870,-85.5,0.200,-0.300,180.360,1000.0
2025-09-04T16:18:21.273368,-3.220,-3.460,351.870,-85.5,0.200,-0.300,180.360,1000.0
2025-09-04T16:18:21.392554,-3.220,-3.460,351.870,-85.5,0.200,-0.300,180.360,1000.0
2025-09-04T16:18:21.394566,-3.220,-3.460,351.870,-85.5,0.200,-0.300,180.360,1000.0
2025-09-04T16:18:21.395553,-3.220,-3.460,351.870,-85.5,0.200,-0.300,180.360,1000.0
2025-09-04T16:18:21.396555,-3.220,-3.460,351.870,-85.5,0.200,-0.300,180.360,1000.0
2025-09-04T16:18:21.397555,-3.210,-3.460,351.870,-85.5,0.200,-0.300,180.360,1000.0
2025-09-04T16:18:21.516241,-3.210,-3.460,351.870,-85.5,0.200,-0.300,180.360,1000.0
2025-09-04T16:18:21.518241,-3.210,-3.460,351.870,-85.5,0.200,-0.300,180.360,1000.0
2025-09-04T16:18:21.519253,-3.210,-3.460,351.870,-85.5,0.200,-0.300,180.360,1000.0
2025-09-04T16:18:21.520241,-3.210,-3.460,351.870,-85.5,0.200,-0.300,180.360,1000.0
2025-09-04T16:18:21.521242,-3.210,-3.460,351.870,-85.5,0.200,-0.300,180.360,1000.0
2025-09-04T16:18:21.638457,-3.210,-3.460,351.870,-85.5,0.200,-0.300,180.360,1000.0
2025-09-04T16:18:21.640463,-3.210,-3.460,351.870,-85.5,0.200,-0.300,180.360,1000.0
2025-09-04T16:18:21.642462,-3.210,-3.460,351.870,-85.5,0.200,-0.300,180.360,1000.0
2025-09-04T16:18:21.643466,-3.210,-3.460,351.870,-85.5,0.200,-0.300,180.360,1000.0
2025-09-04T16:18:21.645465,-3.210,-3.460,351.870,-85.5,0.200,-0.300,180.360,1000.0
2025-09-04T16:18:21.762912,-3.210,-3.460,351.870,-85.5,0.200,-0.300,180.360,1000.0
2025-09-04T16:18:21.764912,-3.210,-3.460,351.870,-85.5,0.200,-0.300,180.360,1000.0
2025-09-04T16:18:21.765912,-3.210,-3.460,351.870,-85.5,0.200,-0.300,180.360,1000.0
2025-09-04T16:18:21.766912,-3.210,-3.460,351.870,-85.5,0.200,-0.300,180.360,1000.0
2025-09-04T16:18:21.767912,-3.210,-3.460,351.870,-85.5,0.200,-0.300,180.360,1000.0
2025-09-04T16:18:21.872832,-3.210,-3.460,351.870,-85.5,0.200,-0.300,180.360,1000.0
2025-09-04T16:18:21.874841,-3.210,-3.460,351.870,-85.5,0.200,-0.300,180.360,1000.0
2025-09-04T16:18:21.876838,-3.210,-3.470,351.870,-85.5,0.200,-0.300,180.360,1000.0
2025-09-04T16:18:21.877838,-3.210,-3.470,351.870,-85.5,0.200,-0.300,180.360,1000.0
2025-09-04T16:18:21.878837,-3.210,-3.470,351.870,-85.5,0.200,-0.300,180.360,1000.0
2025-09-04T16:18:21.995808,-3.210,-3.480,351.870,-85.5,0.200,-0.300,180.360,1000.0
2025-09-04T16:18:21.997808,-3.210,-3.480,351.870,-85.5,0.200,-0.300,180.360,1000.0
2025-09-04T16:18:21.999810,-3.210,-3.480,351.870,-85.5,0.200,-0.300,180.360,1000.0
2025-09-04T16:18:22.000809,-3.210,-3.480,351.870,-85.5,0.200,-0.300,180.360,1000.0
2025-09-04T16:18:22.002809,-3.210,-3.480,351.870,-85.5,0.200,-0.300,180.360,1000.0
2025-09-04T16:18:22.120808,-3.210,-3.480,351.870,-85.5,0.200,-0.300,180.360,1000.0
2025-09-04T16:18:22.121807,-3.210,-3.480,351.870,-85.5,0.200,-0.300,180.360,1000.0
2025-09-04T16:18:22.122806,-3.210,-3.480,351.870,-85.5,0.200,-0.300,180.360,1000.0
2025-09-04T16:18:22.124810,-3.210,-3.490,351.870,-85.5,0.200,-0.300,180.360,1000.0
2025-09-04T16:18:22.126813,-3.210,-3.490,351.870,-85.5,0.200,-0.300,180.360,1000.0
2025-09-04T16:18:22.246810,-3.210,-3.490,351.870,-85.5,0.200,-0.300,180.360,1000.0
2025-09-04T16:18:22.247815,-3.210,-3.490,351.870,-85.5,0.200,-0.300,180.360,1000.0
2025-09-04T16:18:22.249808,-3.210,-3.490,351.870,-85.5,0.200,-0.300,180.360,1000.0
2025-09-04T16:18:22.251810,-3.210,-3.490,351.870,-85.5,0.200,-0.300,180.360,1000.0
2025-09-04T16:18:22.252812,-3.210,-3.490,351.870,-85.5,0.200,-0.300,180.360,1000.0
2025-09-04T16:18:22.369262,-3.210,-3.500,351.870,-85.5,0.200,-0.300,180.360,1000.0
2025-09-04T16:18:22.370261,-3.210,-3.490,351.870,-85.5,0.200,-0.300,180.360,1000.0
2025-09-04T16:18:22.371261,-3.210,-3.490,351.870,-85.5,0.200,-0.300,180.360,1000.0
2025-09-04T16:18:22.373260,-3.210,-3.490,351.870,-85.5,0.200,-0.300,180.360,1000.0
2025-09-04T16:18:22.374261,-3.210,-3.480,351.870,-85.5,0.200,-0.300,180.360,1000.0
2025-09-04T16:18:22.492983,-3.210,-3.480,351.870,-85.5,0.200,-0.300,180.360,1000.0
2025-09-04T16:18:22.495987,-3.210,-3.480,351.870,-85.5,0.200,-0.300,180.360,1000.0
2025-09-04T16:18:22.497987,-3.210,-3.480,351.870,-85.5,0.200,-0.300,180.360,1000.0
2025-09-04T16:18:22.499988,-3.210,-3.480,351.870,-85.5,0.200,-0.300,180.360,1000.0
2025-09-04T16:18:22.500988,-3.210,-3.480,351.870,-85.5,0.200,-0.300,180.360,1000.0
2025-09-04T16:18:22.617784,-3.210,-3.480,351.870,-85.5,0.200,-0.300,180.360,1000.0
2025-09-04T16:18:22.619783,-3.210,-3.480,351.870,-85.5,0.200,-0.300,180.360,1000.0
2025-09-04T16:18:22.620786,-3.210,-3.480,351.870,-85.5,0.200,-0.300,180.360,1000.0
2025-09-04T16:18:22.621793,-3.210,-3.480,351.870,-85.5,0.200,-0.300,180.360,1000.0
2025-09-04T16:18:22.623784,-3.210,-3.480,351.870,-85.5,0.200,-0.300,180.360,1000.0
2025-09-04T16:18:22.741186,-3.210,-3.480,351.870,-85.5,0.200,-0.300,180.360,1000.0
2025-09-04T16:18:22.743188,-3.210,-3.480,351.870,-85.5,0.200,-0.300,180.360,1000.0
2025-09-04T16:18:22.745192,-3.210,-3.480,351.870,-85.5,0.200,-0.300,180.360,1000.0
2025-09-04T16:18:22.746190,-3.210,-3.490,351.870,-85.5,0.200,-0.300,180.360,1000.0
2025-09-04T16:18:22.748195,-3.210,-3.490,351.870,-85.5,0.200,-0.300,180.360,1000.0
2025-09-04T16:18:22.865199,-3.210,-3.490,351.870,-85.5,0.200,-0.300,180.360,1000.0
2025-09-04T16:18:22.866209,-3.210,-3.490,351.870,-85.5,0.200,-0.300,180.360,1000.0
2025-09-04T16:18:22.867198,-3.210,-3.490,351.870,-85.5,0.200,-0.300,180.360,1000.0
2025-09-04T16:18:22.868198,-3.210,-3.490,351.870,-85.5,0.200,-0.300,180.360,1000.0
2025-09-04T16:18:22.869198,-3.210,-3.490,351.870,-85.5,0.200,-0.300,180.360,1000.0
2025-09-04T16:18:22.974732,-3.210,-3.500,351.870,-85.5,0.200,-0.300,180.360,1000.0
2025-09-04T16:18:22.976731,-3.210,-3.500,351.870,-85.5,0.200,-0.300,180.360,1000.0
2025-09-04T16:18:22.977731,-3.210,-3.500,351.870,-85.5,0.200,-0.300,180.360,1000.0
2025-09-04T16:18:22.979732,-3.210,-3.500,351.870,-85.6,0.200,-0.300,180.360,1000.0
2025-09-04T16:18:22.980730,-3.210,-3.500,351.870,-85.6,0.200,-0.300,180.360,1000.0
2025-09-04T16:18:23.084776,-3.210,-3.500,351.870,-85.6,0.200,-0.300,180.360,1000.0
2025-09-04T16:18:23.086731,-3.210,-3.500,351.870,-85.6,0.200,-0.300,180.360,1000.0
2025-09-04T16:18:23.087731,-3.210,-3.500,351.870,-85.6,0.200,-0.300,180.360,1000.0
2025-09-04T16:18:23.088730,-3.210,-3.500,351.870,-85.6,0.200,-0.300,180.360,1000.0
2025-09-04T16:18:23.089730,-3.210,-3.500,351.870,-85.6,0.200,-0.300,180.360,1000.0
2025-09-04T16:18:23.207731,-3.210,-3.500,351.870,-85.6,0.200,-0.300,180.360,1000.0
2025-09-04T16:18:23.209733,-3.210,-3.500,351.870,-85.6,0.200,-0.300,180.360,1000.0
2025-09-04T16:18:23.210732,-3.210,-3.500,351.870,-85.6,0.200,-0.300,180.360,1000.0
2025-09-04T16:18:23.212733,-3.210,-3.500,351.870,-85.6,0.200,-0.300,180.360,1000.0
2025-09-04T16:18:23.214731,-3.210,-3.500,351.870,-85.6,0.200,-0.300,180.360,1000.0
2025-09-04T16:18:23.329775,-3.210,-3.500,351.870,-85.6,0.200,-0.300,180.360,1000.0
2025-09-04T16:18:23.330775,-3.210,-3.500,351.870,-85.6,0.200,-0.300,180.360,1000.0
2025-09-04T16:18:23.331774,-3.210,-3.500,351.870,-85.6,0.200,-0.300,180.360,1000.0
2025-09-04T16:18:23.333774,-3.210,-3.500,351.870,-85.6,0.200,-0.300,180.360,1000.0
2025-09-04T16:18:23.334775,-3.210,-3.500,351.870,-85.6,0.200,-0.300,180.360,1000.0
2025-09-04T16:18:23.439344,-3.210,-3.500,351.870,-85.5,0.200,-0.300,180.360,1000.0
2025-09-04T16:18:23.440449,-3.210,-3.490,351.870,-85.5,0.200,-0.300,180.360,1000.0
2025-09-04T16:18:23.441436,-3.210,-3.490,351.870,-85.5,0.200,-0.300,180.360,1000.0
2025-09-04T16:18:23.443437,-3.210,-3.490,351.870,-85.5,0.200,-0.300,180.360,1000.0
2025-09-04T16:18:23.444434,-3.210,-3.480,351.870,-85.5,0.200,-0.300,180.360,1000.0
2025-09-04T16:18:23.561768,-3.210,-3.480,351.870,-85.5,0.200,-0.300,180.360,1000.0
2025-09-04T16:18:23.563769,-3.210,-3.480,351.870,-85.5,0.200,-0.300,180.360,1000.0
2025-09-04T16:18:23.565768,-3.210,-3.480,351.870,-85.5,0.200,-0.300,180.360,1000.0
2025-09-04T16:18:23.567769,-3.210,-3.480,351.870,-85.5,0.200,-0.300,180.360,1000.0
2025-09-04T16:18:23.568770,-3.210,-3.480,351.870,-85.5,0.200,-0.300,180.360,1000.0
2025-09-04T16:18:23.688211,-3.210,-3.480,351.870,-85.5,0.200,-0.300,180.360,1000.0
2025-09-04T16:18:23.689211,-3.210,-3.480,351.870,-85.5,0.200,-0.300,180.360,1000.0
2025-09-04T16:18:23.690211,-3.210,-3.480,351.870,-85.5,0.200,-0.300,180.360,1000.0
2025-09-04T16:18:23.691210,-3.210,-3.480,351.870,-85.5,0.200,-0.300,180.360,1000.0
2025-09-04T16:18:23.693223,-3.210,-3.470,351.870,-85.5,0.200,-0.300,180.360,1000.0
2025-09-04T16:18:23.813209,-3.210,-3.470,351.870,-85.5,0.200,-0.300,180.360,1000.0
2025-09-04T16:18:23.814209,-3.210,-3.470,351.870,-85.5,0.200,-0.300,180.360,1000.0
2025-09-04T16:18:23.816209,-3.210,-3.470,351.870,-85.5,0.200,-0.300,180.360,1000.0
2025-09-04T16:18:23.817210,-3.210,-3.470,351.870,-85.5,0.200,-0.300,180.360,1000.0
2025-09-04T16:18:23.819208,-3.210,-3.470,351.870,-85.5,0.200,-0.300,180.360,1000.0
2025-09-04T16:18:23.937321,-3.210,-3.470,351.870,-85.5,0.200,-0.300,180.360,1000.0
2025-09-04T16:18:23.939321,-3.210,-3.460,351.870,-85.5,0.200,-0.300,180.360,1000.0
2025-09-04T16:18:23.940322,-3.210,-3.460,351.870,-85.5,0.200,-0.300,180.360,1000.0
2025-09-04T16:18:23.941320,-3.210,-3.460,351.870,-85.5,0.200,-0.300,180.360,1000.0
2025-09-04T16:18:23.943323,-3.210,-3.460,351.870,-85.5,0.200,-0.300,180.360,1000.0
2025-09-04T16:18:24.047321,-3.210,-3.460,351.870,-85.5,0.200,-0.300,180.360,1000.0
2025-09-04T16:18:24.049321,-3.210,-3.460,351.870,-85.5,0.200,-0.300,180.360,1000.0
2025-09-04T16:18:24.050320,-3.210,-3.460,351.870,-85.5,0.200,-0.300,180.360,1000.0
2025-09-04T16:18:24.051320,-3.210,-3.460,351.870,-85.5,0.200,-0.300,180.360,1000.0
2025-09-04T16:18:24.052320,-3.210,-3.460,351.870,-85.5,0.200,-0.300,180.360,1000.0
2025-09-04T16:18:24.170321,-3.210,-3.460,351.870,-85.5,0.200,-0.300,180.360,1000.0
2025-09-04T16:18:24.172332,-3.210,-3.460,351.870,-85.5,0.200,-0.300,180.360,1000.0
2025-09-04T16:18:24.173323,-3.210,-3.460,351.870,-85.5,0.200,-0.300,180.360,1000.0
2025-09-04T16:18:24.174323,-3.210,-3.460,351.870,-85.5,0.200,-0.300,180.360,1000.0
2025-09-04T16:18:24.175323,-3.210,-3.460,351.870,-85.5,0.200,-0.300,180.360,1000.0
2025-09-04T16:18:24.280320,-3.220,-3.460,351.870,-85.5,0.200,-0.300,180.360,1000.0
2025-09-04T16:18:24.282320,-3.220,-3.460,351.870,-85.5,0.200,-0.300,180.360,1000.0
2025-09-04T16:18:24.283320,-3.210,-3.470,351.870,-85.5,0.200,-0.300,180.360,1000.0
2025-09-04T16:18:24.284319,-3.210,-3.470,351.870,-85.5,0.200,-0.300,180.360,1000.0
2025-09-04T16:18:24.285321,-3.220,-3.480,351.870,-85.5,0.200,-0.300,180.360,1000.0
2025-09-04T16:18:24.402338,-3.220,-3.470,351.870,-85.5,0.200,-0.300,180.360,1000.0
2025-09-04T16:18:24.405333,-3.220,-3.480,351.870,-85.5,0.200,-0.300,180.360,1000.0
2025-09-04T16:18:24.406334,-3.220,-3.470,351.870,-85.5,0.200,-0.300,180.360,1000.0
2025-09-04T16:18:24.407333,-3.220,-3.470,351.880,-85.5,0.200,-0.300,180.360,1000.0
2025-09-04T16:18:24.409334,-3.220,-3.470,351.880,-85.5,0.200,-0.300,180.360,1000.0
2025-09-04T16:18:24.527530,-3.220,-3.470,351.880,-85.5,0.200,-0.300,180.360,1000.0
2025-09-04T16:18:24.529534,-3.210,-3.470,351.870,-85.5,0.200,-0.300,180.360,1000.0
2025-09-04T16:18:24.530531,-3.220,-3.470,351.880,-85.5,0.200,-0.300,180.360,1000.0
2025-09-04T16:18:24.532532,-3.220,-3.470,351.880,-85.5,0.200,-0.300,180.360,1000.0
2025-09-04T16:18:24.533530,-3.220,-3.470,351.880,-85.5,0.200,-0.300,180.360,1000.0
2025-09-04T16:18:24.651521,-3.220,-3.470,351.880,-85.5,0.200,-0.300,180.360,1000.0
2025-09-04T16:18:24.652519,-3.220,-3.470,351.880,-85.5,0.200,-0.300,180.360,1000.0
2025-09-04T16:18:24.653521,-3.220,-3.470,351.880,-85.5,0.200,-0.300,180.360,1000.0
2025-09-04T16:18:24.655522,-3.220,-3.460,351.880,-85.5,0.200,-0.300,180.360,1000.0
2025-09-04T16:18:24.656523,-3.210,-3.460,351.880,-85.5,0.200,-0.300,180.360,1000.0
2025-09-04T16:18:24.761554,-3.210,-3.460,351.880,-85.5,0.200,-0.300,180.360,1000.0
2025-09-04T16:18:24.763550,-3.220,-3.460,351.880,-85.5,0.200,-0.300,180.360,1000.0
2025-09-04T16:18:24.765548,-3.220,-3.460,351.880,-85.5,0.200,-0.300,180.360,1000.0
2025-09-04T16:18:24.766549,-3.210,-3.460,351.880,-85.5,0.200,-0.300,180.360,1000.0
2025-09-04T16:18:24.767549,-3.210,-3.460,351.890,-85.5,0.200,-0.300,180.360,1000.0
2025-09-04T16:18:24.885214,-3.210,-3.460,351.890,-85.5,0.200,-0.300,180.360,1000.0
2025-09-04T16:18:24.886220,-3.210,-3.460,351.890,-85.5,0.200,-0.300,180.360,1000.0
2025-09-04T16:18:24.887219,-3.210,-3.460,351.890,-85.5,0.200,-0.300,180.360,1000.0
2025-09-04T16:18:24.888219,-3.210,-3.460,351.890,-85.5,0.200,-0.300,180.360,1000.0
2025-09-04T16:18:24.889220,-3.210,-3.470,351.890,-85.5,0.200,-0.300,180.360,1000.0
2025-09-04T16:18:25.007334,-3.210,-3.470,351.900,-85.5,0.200,-0.300,180.360,1000.0
2025-09-04T16:18:25.010336,-3.210,-3.480,351.900,-85.5,0.200,-0.300,180.360,1000.0
2025-09-04T16:18:25.013335,-3.210,-3.480,351.900,-85.5,0.200,-0.300,180.360,1000.0
2025-09-04T16:18:25.014334,-3.210,-3.480,351.900,-85.5,0.200,-0.300,180.360,1000.0
2025-09-04T16:18:25.015335,-3.210,-3.480,351.900,-85.5,0.200,-0.300,180.360,1000.0
2025-09-04T16:18:25.130336,-3.210,-3.480,351.900,-85.5,0.200,-0.300,180.360,1000.0
2025-09-04T16:18:25.132334,-3.210,-3.470,351.900,-85.5,0.200,-0.300,180.360,1000.0
2025-09-04T16:18:25.133335,-3.210,-3.480,351.900,-85.5,0.200,-0.300,180.360,1000.0
2025-09-04T16:18:25.135370,-3.210,-3.480,351.900,-85.5,0.200,-0.300,180.360,1000.0
2025-09-04T16:18:25.136334,-3.210,-3.480,351.900,-85.5,0.200,-0.300,180.360,1000.0
2025-09-04T16:18:25.255332,-3.210,-3.480,351.900,-85.5,0.200,-0.300,180.360,1000.0
2025-09-04T16:18:25.256334,-3.210,-3.480,351.900,-85.5,0.200,-0.300,180.360,1000.0
2025-09-04T16:18:25.257334,-3.210,-3.480,351.900,-85.5,0.200,-0.300,180.360,1000.0
2025-09-04T16:18:25.258334,-3.210,-3.480,351.900,-85.5,0.200,-0.300,180.360,1000.0
2025-09-04T16:18:25.260334,-3.210,-3.480,351.900,-85.5,0.200,-0.300,180.360,1000.0
2025-09-04T16:18:25.375776,-3.210,-3.490,351.900,-85.5,0.200,-0.300,180.360,1000.0
2025-09-04T16:18:25.377777,-3.210,-3.480,351.900,-85.5,0.200,-0.300,180.360,1000.0
2025-09-04T16:18:25.378777,-3.200,-3.470,351.900,-85.5,0.200,-0.300,180.360,1000.0
2025-09-04T16:18:25.380777,-3.200,-3.470,351.900,-85.5,0.200,-0.300,180.360,1000.0
2025-09-04T16:18:25.381777,-3.200,-3.470,351.900,-85.5,0.200,-0.300,180.360,1000.0
2025-09-04T16:18:25.500776,-3.190,-3.470,351.900,-85.5,0.200,-0.300,180.360,1000.0
2025-09-04T16:18:25.501776,-3.190,-3.480,351.900,-85.5,0.200,-0.300,180.360,1000.0
2025-09-04T16:18:25.503779,-3.190,-3.480,351.900,-85.5,0.200,-0.300,180.360,1000.0
2025-09-04T16:18:25.504778,-3.190,-3.480,351.900,-85.5,0.200,-0.300,180.360,1000.0
2025-09-04T16:18:25.505778,-3.190,-3.490,351.900,-85.5,0.200,-0.300,180.360,1000.0
2025-09-04T16:18:25.621381,-3.190,-3.490,351.900,-85.5,0.200,-0.300,180.360,1000.0
2025-09-04T16:18:25.623381,-3.190,-3.490,351.900,-85.5,0.200,-0.300,180.360,1000.0
2025-09-04T16:18:25.625386,-3.190,-3.490,351.900,-85.5,0.200,-0.300,180.360,1000.0
2025-09-04T16:18:25.627387,-3.180,-3.480,351.900,-85.5,0.200,-0.300,180.360,1000.0
2025-09-04T16:18:25.628384,-3.180,-3.480,351.900,-85.5,0.200,-0.300,180.360,1000.0
2025-09-04T16:18:25.745231,-3.180,-3.480,351.890,-85.5,0.200,-0.300,180.360,1000.0
2025-09-04T16:18:25.747234,-3.190,-3.480,351.900,-85.5,0.200,-0.300,180.360,1000.0
2025-09-04T16:18:25.749231,-3.190,-3.480,351.900,-85.5,0.200,-0.300,180.360,1000.0
2025-09-04T16:18:25.750231,-3.190,-3.480,351.900,-85.5,0.200,-0.300,180.360,1000.0
2025-09-04T16:18:25.752230,-3.200,-3.480,351.900,-85.5,0.200,-0.300,180.360,1000.0
2025-09-04T16:18:25.866781,-3.200,-3.480,351.900,-85.5,0.200,-0.300,180.360,1000.0
2025-09-04T16:18:25.868782,-3.200,-3.470,351.900,-85.5,0.200,-0.300,180.360,1000.0
2025-09-04T16:18:25.869782,-3.200,-3.470,351.900,-85.5,0.200,-0.300,180.360,1000.0
2025-09-04T16:18:25.870781,-3.200,-3.470,351.900,-85.5,0.200,-0.300,180.360,1000.0
2025-09-04T16:18:25.871782,-3.200,-3.470,351.900,-85.5,0.200,-0.300,180.360,1000.0
2025-09-04T16:18:25.975011,-3.200,-3.470,351.900,-85.5,0.200,-0.300,180.360,1000.0
2025-09-04T16:18:25.977013,-3.200,-3.470,351.900,-85.5,0.200,-0.300,180.360,1000.0
2025-09-04T16:18:25.978011,-3.200,-3.470,351.900,-85.5,0.200,-0.300,180.360,1000.0
2025-09-04T16:18:25.979011,-3.200,-3.460,351.900,-85.5,0.200,-0.300,180.360,1000.0
2025-09-04T16:18:25.981010,-3.200,-3.460,351.900,-85.5,0.200,-0.300,180.360,1000.0
2025-09-04T16:18:26.098011,-3.200,-3.460,351.900,-85.5,0.200,-0.300,180.360,1000.0
2025-09-04T16:18:26.100010,-3.200,-3.460,351.900,-85.5,0.200,-0.300,180.360,1000.0
2025-09-04T16:18:26.101010,-3.200,-3.460,351.900,-85.5,0.200,-0.300,180.360,1000.0
2025-09-04T16:18:26.102010,-3.210,-3.460,351.900,-85.5,0.200,-0.300,180.360,1000.0
2025-09-04T16:18:26.103010,-3.210,-3.460,351.900,-85.5,0.200,-0.300,180.360,1000.0
2025-09-04T16:18:26.207009,-3.210,-3.460,351.900,-85.5,0.200,-0.300,180.360,1000.0
2025-09-04T16:18:26.208009,-3.210,-3.460,351.900,-85.5,0.200,-0.300,180.360,1000.0
2025-09-04T16:18:26.209010,-3.210,-3.460,351.900,-85.5,0.200,-0.300,180.360,1000.0
2025-09-04T16:18:26.211009,-3.220,-3.470,351.900,-85.5,0.200,-0.300,180.360,1000.0
2025-09-04T16:18:26.212012,-3.220,-3.470,351.900,-85.5,0.200,-0.300,180.360,1000.0
2025-09-04T16:18:26.331012,-3.220,-3.470,351.900,-85.5,0.200,-0.300,180.360,1000.0
2025-09-04T16:18:26.332018,-3.230,-3.480,351.900,-85.6,0.200,-0.300,180.360,1000.0
2025-09-04T16:18:26.334020,-3.230,-3.480,351.900,-85.6,0.200,-0.300,180.360,1000.0
2025-09-04T16:18:26.335011,-3.230,-3.480,351.900,-85.6,0.200,-0.300,180.360,1000.0
2025-09-04T16:18:26.336012,-3.230,-3.480,351.900,-85.6,0.200,-0.300,180.360,1000.0
2025-09-04T16:18:26.442373,-3.230,-3.480,351.900,-85.5,0.200,-0.300,180.360,1000.0
2025-09-04T16:18:26.444374,-3.230,-3.480,351.900,-85.5,0.200,-0.300,180.360,1000.0
2025-09-04T16:18:26.446378,-3.240,-3.480,351.900,-85.5,0.200,-0.300,180.360,1000.0
2025-09-04T16:18:26.447803,-3.240,-3.490,351.900,-85.5,0.200,-0.300,180.360,1000.0
2025-09-04T16:18:26.449374,-3.240,-3.490,351.900,-85.5,0.200,-0.300,180.360,1000.0
2025-09-04T16:18:26.565456,-3.240,-3.490,351.900,-85.5,0.200,-0.300,180.360,1000.0
2025-09-04T16:18:26.566465,-3.240,-3.490,351.900,-85.5,0.200,-0.300,180.360,1000.0
2025-09-04T16:18:26.567460,-3.240,-3.490,351.900,-85.5,0.200,-0.300,180.360,1000.0
2025-09-04T16:18:26.569457,-3.230,-3.490,351.900,-85.5,0.200,-0.300,180.360,1000.0
2025-09-04T16:18:26.570466,-3.240,-3.500,351.900,-85.5,0.200,-0.300,180.360,1000.0
2025-09-04T16:18:26.673834,-3.240,-3.500,351.900,-85.5,0.200,-0.300,180.360,1000.0
2025-09-04T16:18:26.675832,-3.240,-3.500,351.900,-85.5,0.200,-0.300,180.360,1000.0
2025-09-04T16:18:26.677836,-3.240,-3.500,351.900,-85.5,0.200,-0.300,180.360,1000.0
2025-09-04T16:18:26.679839,-3.240,-3.500,351.900,-85.5,0.200,-0.300,180.360,1000.0
2025-09-04T16:18:26.680836,-3.250,-3.500,351.900,-85.5,0.200,-0.300,180.360,1000.0
2025-09-04T16:18:26.796426,-3.250,-3.500,351.900,-85.5,0.200,-0.300,180.360,1000.0
2025-09-04T16:18:26.799427,-3.250,-3.500,351.900,-85.5,0.200,-0.300,180.360,1000.0
2025-09-04T16:18:26.802427,-3.250,-3.500,351.900,-85.5,0.200,-0.300,180.360,1000.0
2025-09-04T16:18:26.803427,-3.250,-3.500,351.900,-85.5,0.200,-0.300,180.360,1000.0
2025-09-04T16:18:26.805428,-3.250,-3.500,351.900,-85.5,0.200,-0.300,180.360,1000.0
2025-09-04T16:18:26.918195,-3.250,-3.500,351.900,-85.5,0.200,-0.300,180.360,1000.0
2025-09-04T16:18:26.919196,-3.250,-3.500,351.900,-85.5,0.200,-0.300,180.360,1000.0
2025-09-04T16:18:26.920196,-3.250,-3.500,351.900,-85.5,0.200,-0.300,180.360,1000.0
2025-09-04T16:18:26.921195,-3.260,-3.500,351.900,-85.5,0.200,-0.300,180.360,1000.0
2025-09-04T16:18:26.922195,-3.260,-3.500,351.900,-85.5,0.200,-0.300,180.360,1000.0
2025-09-04T16:18:27.028194,-3.260,-3.500,351.900,-85.5,0.200,-0.300,180.360,1000.0
2025-09-04T16:18:27.030199,-3.260,-3.500,351.900,-85.5,0.200,-0.300,180.360,1000.0
2025-09-04T16:18:27.031195,-3.260,-3.500,351.900,-85.5,0.200,-0.300,180.360,1000.0
2025-09-04T16:18:27.032195,-3.260,-3.500,351.900,-85.5,0.200,-0.300,180.360,1000.0
2025-09-04T16:18:27.033196,-3.260,-3.500,351.900,-85.5,0.200,-0.300,180.360,1000.0
2025-09-04T16:18:27.150194,-3.250,-3.500,351.900,-85.5,0.200,-0.300,180.360,1000.0
2025-09-04T16:18:27.151198,-3.250,-3.500,351.900,-85.5,0.200,-0.300,180.360,1000.0
2025-09-04T16:18:27.152195,-3.250,-3.490,351.900,-85.5,0.200,-0.300,180.360,1000.0
2025-09-04T16:18:27.154195,-3.240,-3.490,351.900,-85.5,0.200,-0.300,180.360,1000.0
2025-09-04T16:18:27.155194,-3.240,-3.490,351.900,-85.5,0.200,-0.300,180.360,1000.0
2025-09-04T16:18:27.272195,-3.240,-3.480,351.900,-85.5,0.200,-0.300,180.360,1000.0
2025-09-04T16:18:27.273193,-3.230,-3.480,351.900,-85.5,0.200,-0.300,180.360,1000.0
2025-09-04T16:18:27.274196,-3.230,-3.480,351.900,-85.5,0.200,-0.300,180.360,1000.0
2025-09-04T16:18:27.276196,-3.230,-3.480,351.900,-85.5,0.200,-0.300,180.360,1000.0
2025-09-04T16:18:27.277196,-3.230,-3.480,351.900,-85.5,0.200,-0.300,180.360,1000.0
2025-09-04T16:18:27.395515,-3.230,-3.480,351.900,-85.5,0.200,-0.300,180.360,1000.0
2025-09-04T16:18:27.398514,-3.230,-3.480,351.900,-85.5,0.200,-0.300,180.360,1000.0
2025-09-04T16:18:27.400515,-3.220,-3.480,351.900,-85.5,0.200,-0.300,180.360,1000.0
2025-09-04T16:18:27.401515,-3.220,-3.480,351.900,-85.5,0.200,-0.300,180.360,1000.0
2025-09-04T16:18:27.402513,-3.210,-3.480,351.900,-85.5,0.200,-0.300,180.360,1000.0
2025-09-04T16:18:27.520711,-3.210,-3.480,351.900,-85.5,0.200,-0.300,180.360,1000.0
2025-09-04T16:18:27.521712,-3.210,-3.490,351.900,-85.5,0.200,-0.300,180.360,1000.0
2025-09-04T16:18:27.522712,-3.210,-3.490,351.900,-85.5,0.200,-0.300,180.360,1000.0
2025-09-04T16:18:27.523712,-3.200,-3.490,351.900,-85.5,0.200,-0.300,180.360,1000.0
2025-09-04T16:18:27.524711,-3.200,-3.490,351.900,-85.5,0.200,-0.300,180.360,1000.0
2025-09-04T16:18:27.642248,-3.200,-3.490,351.900,-85.5,0.200,-0.300,180.360,1000.0
2025-09-04T16:18:27.644252,-3.190,-3.490,351.900,-85.5,0.200,-0.300,180.360,1000.0
2025-09-04T16:18:27.646253,-3.190,-3.490,351.900,-85.5,0.200,-0.300,180.360,1000.0
2025-09-04T16:18:27.648251,-3.190,-3.490,351.900,-85.5,0.200,-0.300,180.360,1000.0
2025-09-04T16:18:27.649253,-3.190,-3.490,351.900,-85.4,0.200,-0.300,180.360,1000.0
2025-09-04T16:18:27.764413,-3.190,-3.490,351.900,-85.4,0.200,-0.300,180.360,1000.0
2025-09-04T16:18:27.766402,-3.190,-3.490,351.900,-85.4,0.200,-0.300,180.360,1000.0
2025-09-04T16:18:27.767403,-3.190,-3.490,351.900,-85.4,0.200,-0.300,180.360,1000.0
2025-09-04T16:18:27.768402,-3.190,-3.490,351.900,-85.5,0.200,-0.300,180.360,1000.0
2025-09-04T16:18:27.769402,-3.180,-3.490,351.900,-85.5,0.200,-0.300,180.360,1000.0
2025-09-04T16:18:27.873963,-3.180,-3.490,351.900,-85.5,0.200,-0.300,180.360,1000.0
2025-09-04T16:18:27.875963,-3.180,-3.500,351.900,-85.5,0.200,-0.300,180.360,1000.0
2025-09-04T16:18:27.876963,-3.180,-3.500,351.900,-85.5,0.200,-0.300,180.360,1000.0
2025-09-04T16:18:27.878965,-3.180,-3.500,351.900,-85.5,0.200,-0.300,180.360,1000.0
2025-09-04T16:18:27.879966,-3.180,-3.500,351.900,-85.4,0.200,-0.300,180.360,1000.0
2025-09-04T16:18:27.984303,-3.180,-3.500,351.900,-85.4,0.200,-0.300,180.360,1000.0
2025-09-04T16:18:27.985301,-3.180,-3.500,351.900,-85.4,0.200,-0.300,180.360,1000.0
2025-09-04T16:18:27.986301,-3.170,-3.500,351.900,-85.4,0.200,-0.300,180.360,1000.0
2025-09-04T16:18:27.987300,-3.170,-3.500,351.900,-85.4,0.200,-0.300,180.360,1000.0
2025-09-04T16:18:27.988299,-3.170,-3.500,351.900,-85.5,0.200,-0.300,180.360,1000.0
2025-09-04T16:18:28.106306,-3.170,-3.500,351.900,-85.4,0.200,-0.300,180.360,1000.0
2025-09-04T16:18:28.107334,-3.170,-3.500,351.900,-85.4,0.200,-0.300,180.360,1000.0
2025-09-04T16:18:28.108300,-3.170,-3.500,351.900,-85.4,0.200,-0.300,180.360,1000.0
2025-09-04T16:18:28.109300,-3.170,-3.500,351.900,-85.4,0.200,-0.300,180.360,1000.0
2025-09-04T16:18:28.111303,-3.170,-3.500,351.900,-85.4,0.200,-0.300,180.360,1000.0
2025-09-04T16:18:28.228302,-3.170,-3.500,351.900,-85.5,0.200,-0.300,180.360,1000.0
2025-09-04T16:18:28.230301,-3.170,-3.500,351.900,-85.4,0.200,-0.300,180.360,1000.0
2025-09-04T16:18:28.231302,-3.170,-3.500,351.900,-85.4,0.200,-0.300,180.360,1000.0
2025-09-04T16:18:28.232301,-3.170,-3.500,351.900,-85.4,0.200,-0.300,180.360,1000.0
2025-09-04T16:18:28.233301,-3.170,-3.500,351.900,-85.4,0.200,-0.300,180.360,1000.0
2025-09-04T16:18:28.351788,-3.170,-3.500,351.900,-85.4,0.200,-0.300,180.360,1000.0
2025-09-04T16:18:28.352788,-3.170,-3.500,351.900,-85.4,0.200,-0.300,180.360,1000.0
2025-09-04T16:18:28.353787,-3.170,-3.500,351.900,-85.4,0.200,-0.300,180.360,1000.0
2025-09-04T16:18:28.354787,-3.170,-3.500,351.900,-85.4,0.200,-0.300,180.360,1000.0
2025-09-04T16:18:28.355786,-3.170,-3.500,351.900,-85.4,0.200,-0.300,180.360,1000.0
2025-09-04T16:18:28.461527,-3.170,-3.510,351.900,-85.4,0.200,-0.300,180.360,1000.0
2025-09-04T16:18:28.462525,-3.180,-3.510,351.900,-85.4,0.200,-0.300,180.360,1000.0
2025-09-04T16:18:28.464527,-3.180,-3.510,351.900,-85.4,0.200,-0.300,180.360,1000.0
2025-09-04T16:18:28.465523,-3.170,-3.510,351.900,-85.4,0.200,-0.300,180.360,1000.0
2025-09-04T16:18:28.466523,-3.170,-3.510,351.900,-85.4,0.200,-0.300,180.360,1000.0
2025-09-04T16:18:28.585172,-3.170,-3.510,351.900,-85.4,0.200,-0.300,180.360,1000.0
2025-09-04T16:18:28.587173,-3.180,-3.510,351.900,-85.4,0.200,-0.300,180.360,1000.0
2025-09-04T16:18:28.588173,-3.180,-3.510,351.900,-85.4,0.200,-0.300,180.360,1000.0
2025-09-04T16:18:28.589172,-3.190,-3.510,351.900,-85.4,0.200,-0.300,180.360,1000.0
2025-09-04T16:18:28.590173,-3.190,-3.510,351.900,-85.4,0.200,-0.300,180.360,1000.0
2025-09-04T16:18:28.695631,-3.190,-3.510,351.900,-85.4,0.200,-0.300,180.360,1000.0
2025-09-04T16:18:28.698626,-3.190,-3.510,351.890,-85.4,0.200,-0.300,180.360,1000.0
2025-09-04T16:18:28.700626,-3.190,-3.510,351.890,-85.4,0.200,-0.300,180.360,1000.0
2025-09-04T16:18:28.701627,-3.190,-3.510,351.900,-85.4,0.200,-0.300,180.360,1000.0
2025-09-04T16:18:28.702626,-3.190,-3.510,351.900,-85.4,0.200,-0.300,180.360,1000.0
2025-09-04T16:18:28.816628,-3.190,-3.510,351.900,-85.4,0.200,-0.300,180.360,1000.0
2025-09-04T16:18:28.818626,-3.200,-3.510,351.900,-85.4,0.200,-0.300,180.360,1000.0
2025-09-04T16:18:28.820626,-3.200,-3.510,351.900,-85.4,0.200,-0.300,180.360,1000.0
2025-09-04T16:18:28.821628,-3.200,-3.520,351.900,-85.4,0.200,-0.300,180.360,1000.0
2025-09-04T16:18:28.823628,-3.200,-3.520,351.900,-85.4,0.200,-0.300,180.360,1000.0
2025-09-04T16:18:28.939627,-3.200,-3.520,351.900,-85.4,0.200,-0.300,180.360,1000.0
2025-09-04T16:18:28.940625,-3.210,-3.520,351.900,-85.4,0.200,-0.300,180.360,1000.0
2025-09-04T16:18:28.941627,-3.210,-3.520,351.900,-85.5,0.200,-0.300,180.360,1000.0
2025-09-04T16:18:28.942628,-3.210,-3.510,351.900,-85.5,0.200,-0.300,180.360,1000.0
2025-09-04T16:18:28.945629,-3.210,-3.510,351.900,-85.5,0.200,-0.300,180.360,1000.0
2025-09-04T16:18:29.064629,-3.200,-3.530,351.890,-85.5,0.200,-0.300,180.360,1000.0
2025-09-04T16:18:29.065626,-3.200,-3.510,351.890,-85.5,0.200,-0.300,180.360,1000.0
2025-09-04T16:18:29.066626,-3.200,-3.510,351.900,-85.5,0.200,-0.300,180.360,1000.0
2025-09-04T16:18:29.067625,-3.200,-3.510,351.900,-85.5,0.200,-0.300,180.360,1000.0
2025-09-04T16:18:29.068626,-3.200,-3.500,351.900,-85.5,0.200,-0.300,180.360,1000.0
2025-09-04T16:18:29.188634,-3.200,-3.490,351.900,-85.5,0.200,-0.300,180.360,1000.0
2025-09-04T16:18:29.189625,-3.200,-3.490,351.900,-85.5,0.200,-0.300,180.360,1000.0
2025-09-04T16:18:29.191627,-3.190,-3.490,351.890,-85.5,0.200,-0.300,180.360,1000.0
2025-09-04T16:18:29.192626,-3.190,-3.490,351.900,-85.5,0.200,-0.300,180.360,1000.0
2025-09-04T16:18:29.193627,-3.190,-3.480,351.890,-85.5,0.200,-0.300,180.360,1000.0
2025-09-04T16:18:29.312629,-3.190,-3.470,351.890,-85.5,0.200,-0.300,180.360,1000.0
2025-09-04T16:18:29.313627,-3.190,-3.470,351.890,-85.5,0.200,-0.300,180.360,1000.0
2025-09-04T16:18:29.314626,-3.190,-3.460,351.890,-85.5,0.200,-0.300,180.360,1000.0
2025-09-04T16:18:29.315626,-3.190,-3.460,351.890,-85.5,0.200,-0.300,180.360,1000.0
2025-09-04T16:18:29.316627,-3.190,-3.450,351.890,-85.5,0.200,-0.300,180.360,1000.0
2025-09-04T16:18:29.422077,-3.180,-3.440,351.890,-85.5,0.200,-0.300,180.360,1000.0
2025-09-04T16:18:29.423078,-3.190,-3.440,351.890,-85.5,0.200,-0.300,180.360,1000.0
2025-09-04T16:18:29.424078,-3.180,-3.440,351.890,-85.5,0.200,-0.300,180.360,1000.0
2025-09-04T16:18:29.425077,-3.180,-3.440,351.890,-85.5,0.200,-0.300,180.360,1000.0
2025-09-04T16:18:29.426078,-3.180,-3.440,351.890,-85.5,0.200,-0.300,180.360,1000.0
2025-09-04T16:18:29.545679,-3.180,-3.440,351.890,-85.5,0.200,-0.300,180.360,1000.0
2025-09-04T16:18:29.548680,-3.180,-3.440,351.890,-85.5,0.200,-0.300,180.360,1000.0
2025-09-04T16:18:29.550679,-3.180,-3.440,351.880,-85.5,0.200,-0.300,180.360,1000.0
2025-09-04T16:18:29.551679,-3.180,-3.440,351.880,-85.5,0.200,-0.300,180.360,1000.0
2025-09-04T16:18:29.552677,-3.180,-3.450,351.880,-85.5,0.200,-0.300,180.360,1000.0
2025-09-04T16:18:29.669859,-3.180,-3.450,351.890,-85.5,0.200,-0.300,180.360,1000.0
2025-09-04T16:18:29.670859,-3.170,-3.460,351.880,-85.5,0.200,-0.300,180.360,1000.0
2025-09-04T16:18:29.673857,-3.170,-3.460,351.880,-85.5,0.200,-0.300,180.360,1000.0
2025-09-04T16:18:29.674859,-3.170,-3.450,351.880,-85.5,0.200,-0.300,180.360,1000.0
2025-09-04T16:18:29.675859,-3.180,-3.450,351.870,-85.5,0.200,-0.300,180.360,1000.0
2025-09-04T16:18:29.793818,-3.180,-3.460,351.870,-85.5,0.200,-0.300,180.360,1000.0
2025-09-04T16:18:29.797822,-3.180,-3.460,351.870,-85.5,0.200,-0.300,180.360,1000.0
2025-09-04T16:18:29.800818,-3.180,-3.460,351.870,-85.5,0.200,-0.300,180.360,1000.0
2025-09-04T16:18:29.801819,-3.180,-3.470,351.870,-85.5,0.200,-0.300,180.360,1000.0
2025-09-04T16:18:29.802818,-3.180,-3.470,351.870,-85.5,0.200,-0.300,180.360,1000.0
2025-09-04T16:18:29.917676,-3.190,-3.460,351.870,-85.5,0.200,-0.300,180.360,1000.0
2025-09-04T16:18:29.918676,-3.190,-3.470,351.870,-85.5,0.200,-0.300,180.360,1000.0
2025-09-04T16:18:29.920691,-3.190,-3.470,351.870,-85.5,0.200,-0.300,180.360,1000.0
2025-09-04T16:18:29.921680,-3.200,-3.470,351.870,-85.5,0.200,-0.300,180.360,1000.0
2025-09-04T16:18:29.922679,-3.190,-3.480,351.870,-85.5,0.200,-0.300,180.360,1000.0
2025-09-04T16:18:30.028677,-3.200,-3.480,351.870,-85.5,0.200,-0.300,180.360,1000.0
2025-09-04T16:18:30.030678,-3.200,-3.480,351.870,-85.5,0.200,-0.300,180.360,1000.0
2025-09-04T16:18:30.032681,-3.200,-3.480,351.870,-85.5,0.200,-0.300,180.360,1000.0
2025-09-04T16:18:30.033679,-3.200,-3.480,351.870,-85.5,0.200,-0.300,180.360,1000.0
2025-09-04T16:18:30.035677,-3.200,-3.480,351.870,-85.5,0.200,-0.300,180.360,1000.0
2025-09-04T16:18:30.152677,-3.200,-3.480,351.870,-85.5,0.200,-0.300,180.360,1000.0
2025-09-04T16:18:30.153679,-3.210,-3.480,351.880,-85.5,0.200,-0.300,180.360,1000.0
2025-09-04T16:18:30.154678,-3.210,-3.480,351.880,-85.5,0.200,-0.300,180.360,1000.0
2025-09-04T16:18:30.155677,-3.210,-3.480,351.880,-85.5,0.200,-0.300,180.360,1000.0
2025-09-04T16:18:30.156686,-3.210,-3.480,351.880,-85.5,0.200,-0.300,180.360,1000.0
2025-09-04T16:18:30.263676,-3.210,-3.490,351.880,-85.5,0.200,-0.300,180.360,1000.0
2025-09-04T16:18:30.265680,-3.210,-3.490,351.880,-85.5,0.200,-0.300,180.360,1000.0
2025-09-04T16:18:30.266679,-3.210,-3.490,351.880,-85.5,0.200,-0.300,180.360,1000.0
2025-09-04T16:18:30.267680,-3.210,-3.490,351.880,-85.5,0.200,-0.300,180.360,1000.0
2025-09-04T16:18:30.268680,-3.210,-3.490,351.880,-85.5,0.200,-0.300,180.360,1000.0
2025-09-04T16:18:30.385348,-3.210,-3.490,351.880,-85.5,0.200,-0.300,180.360,1000.0
2025-09-04T16:18:30.386348,-3.210,-3.490,351.880,-85.5,0.200,-0.300,180.360,1000.0
2025-09-04T16:18:30.387348,-3.210,-3.490,351.880,-85.4,0.200,-0.300,180.360,1000.0
2025-09-04T16:18:30.389348,-3.210,-3.500,351.880,-85.4,0.200,-0.300,180.360,1000.0
2025-09-04T16:18:30.390347,-3.210,-3.500,351.880,-85.4,0.200,-0.300,180.360,1000.0
2025-09-04T16:18:30.506445,-3.210,-3.500,351.880,-85.4,0.200,-0.300,180.360,1000.0
2025-09-04T16:18:30.507443,-3.210,-3.500,351.880,-85.4,0.200,-0.300,180.360,1000.0
2025-09-04T16:18:30.509443,-3.210,-3.500,351.880,-85.4,0.200,-0.300,180.360,1000.0
2025-09-04T16:18:30.510443,-3.210,-3.500,351.880,-85.4,0.200,-0.300,180.360,1000.0
2025-09-04T16:18:30.511444,-3.210,-3.500,351.880,-85.4,0.200,-0.300,180.360,1000.0
2025-09-04T16:18:30.630270,-3.210,-3.500,351.880,-85.4,0.200,-0.300,180.360,1000.0
2025-09-04T16:18:30.632271,-3.210,-3.500,351.880,-85.4,0.200,-0.300,180.360,1000.0
2025-09-04T16:18:30.633275,-3.210,-3.500,351.880,-85.4,0.200,-0.300,180.360,1000.0
2025-09-04T16:18:30.635270,-3.210,-3.500,351.880,-85.5,0.200,-0.300,180.360,1000.0
2025-09-04T16:18:30.636270,-3.210,-3.500,351.880,-85.5,0.200,-0.300,180.360,1000.0
2025-09-04T16:18:30.752552,-3.210,-3.500,351.880,-85.5,0.200,-0.300,180.360,1000.0
2025-09-04T16:18:30.753549,-3.210,-3.500,351.880,-85.5,0.200,-0.300,180.360,1000.0
2025-09-04T16:18:30.754551,-3.210,-3.500,351.880,-85.5,0.200,-0.300,180.360,1000.0
2025-09-04T16:18:30.755550,-3.210,-3.500,351.880,-85.5,0.200,-0.300,180.360,1000.0
2025-09-04T16:18:30.756551,-3.210,-3.500,351.880,-85.5,0.200,-0.300,180.360,1000.0
2025-09-04T16:18:30.874864,-3.210,-3.500,351.880,-85.5,0.200,-0.300,180.360,1000.0
2025-09-04T16:18:30.875864,-3.210,-3.500,351.880,-85.5,0.200,-0.300,180.360,1000.0
2025-09-04T16:18:30.876865,-3.210,-3.500,351.880,-85.5,0.200,-0.300,180.360,1000.0
2025-09-04T16:18:30.877863,-3.210,-3.500,351.880,-85.5,0.200,-0.300,180.360,1000.0
2025-09-04T16:18:30.879871,-3.210,-3.500,351.880,-85.5,0.200,-0.300,180.360,1000.0
2025-09-04T16:18:30.996931,-3.210,-3.500,351.880,-85.5,0.200,-0.300,180.360,1000.0
2025-09-04T16:18:30.998932,-3.210,-3.500,351.880,-85.5,0.200,-0.300,180.360,1000.0
2025-09-04T16:18:30.999932,-3.210,-3.500,351.880,-85.5,0.200,-0.300,180.360,1000.0
2025-09-04T16:18:31.001931,-3.210,-3.500,351.880,-85.5,0.200,-0.300,180.360,1000.0
2025-09-04T16:18:31.002931,-3.210,-3.500,351.880,-85.5,0.200,-0.300,180.360,1000.0
2025-09-04T16:18:31.121932,-3.210,-3.500,351.880,-85.4,0.200,-0.300,180.360,1000.0
2025-09-04T16:18:31.123934,-3.210,-3.500,351.880,-85.4,0.200,-0.300,180.360,1000.0
2025-09-04T16:18:31.125935,-3.210,-3.500,351.880,-85.4,0.200,-0.300,180.360,1000.0
2025-09-04T16:18:31.127938,-3.210,-3.500,351.880,-85.4,0.200,-0.300,180.360,1000.0
2025-09-04T16:18:31.128939,-3.210,-3.500,351.880,-85.4,0.200,-0.300,180.360,1000.0
2025-09-04T16:18:31.245930,-3.210,-3.500,351.880,-85.4,0.200,-0.300,180.360,1000.0
2025-09-04T16:18:31.247933,-3.210,-3.500,351.880,-85.4,0.200,-0.300,180.360,1000.0
2025-09-04T16:18:31.250174,-3.210,-3.500,351.880,-85.4,0.200,-0.300,180.360,1000.0
2025-09-04T16:18:31.251934,-3.210,-3.500,351.880,-85.4,0.200,-0.300,180.360,1000.0
2025-09-04T16:18:31.252931,-3.210,-3.500,351.880,-85.4,0.200,-0.300,180.360,1000.0
2025-09-04T16:18:31.367871,-3.210,-3.500,351.880,-85.4,0.200,-0.300,180.360,1000.0
2025-09-04T16:18:31.368869,-3.210,-3.500,351.880,-85.4,0.200,-0.300,180.360,1000.0
2025-09-04T16:18:31.369869,-3.210,-3.500,351.880,-85.4,0.200,-0.300,180.360,1000.0
2025-09-04T16:18:31.370870,-3.210,-3.500,351.880,-85.4,0.200,-0.300,180.360,1000.0
2025-09-04T16:18:31.371872,-3.210,-3.500,351.880,-85.4,0.200,-0.300,180.360,1000.0
2025-09-04T16:18:31.489256,-3.210,-3.500,351.880,-85.4,0.200,-0.300,180.360,1000.0
2025-09-04T16:18:31.490255,-3.210,-3.500,351.880,-85.4,0.200,-0.300,180.360,1000.0
2025-09-04T16:18:31.491255,-3.210,-3.500,351.880,-85.4,0.200,-0.300,180.360,1000.0
2025-09-04T16:18:31.492256,-3.210,-3.500,351.880,-85.4,0.200,-0.300,180.360,1000.0
2025-09-04T16:18:31.494255,-3.210,-3.500,351.880,-85.4,0.200,-0.300,180.360,1000.0
2025-09-04T16:18:31.612298,-3.210,-3.500,351.880,-85.4,0.200,-0.300,180.360,1000.0
2025-09-04T16:18:31.614301,-3.210,-3.500,351.880,-85.4,0.200,-0.300,180.360,1000.0
2025-09-04T16:18:31.616303,-3.210,-3.500,351.880,-85.4,0.200,-0.300,180.360,1000.0
2025-09-04T16:18:31.618302,-3.210,-3.500,351.880,-85.5,0.200,-0.300,180.360,1000.0
2025-09-04T16:18:31.619298,-3.210,-3.500,351.880,-85.5,0.200,-0.300,180.360,1000.0
2025-09-04T16:18:31.737153,-3.210,-3.500,351.880,-85.5,0.200,-0.300,180.360,1000.0
2025-09-04T16:18:31.738154,-3.210,-3.500,351.880,-85.5,0.200,-0.300,180.360,1000.0
2025-09-04T16:18:31.739154,-3.210,-3.500,351.880,-85.5,0.200,-0.300,180.360,1000.0
2025-09-04T16:18:31.740154,-3.220,-3.500,351.870,-85.5,0.200,-0.300,180.360,1000.0
2025-09-04T16:18:31.741154,-3.210,-3.500,351.870,-85.5,0.200,-0.300,180.360,1000.0
2025-09-04T16:18:31.847201,-3.210,-3.500,351.870,-85.5,0.200,-0.300,180.360,1000.0
2025-09-04T16:18:31.849197,-3.210,-3.500,351.870,-85.5,0.200,-0.300,180.360,1000.0
2025-09-04T16:18:31.852195,-3.210,-3.500,351.880,-85.5,0.200,-0.300,180.360,1000.0
2025-09-04T16:18:31.853196,-3.210,-3.490,351.880,-85.5,0.200,-0.300,180.360,1000.0
2025-09-04T16:18:31.855196,-3.210,-3.480,351.880,-85.5,0.200,-0.300,180.360,1000.0
2025-09-04T16:18:31.972906,-3.210,-3.480,351.880,-85.5,0.200,-0.300,180.360,1000.0
2025-09-04T16:18:31.973905,-3.210,-3.470,351.870,-85.5,0.200,-0.300,180.360,1000.0
2025-09-04T16:18:31.974908,-3.210,-3.460,351.870,-85.5,0.200,-0.300,180.360,1000.0
2025-09-04T16:18:31.975906,-3.210,-3.460,351.870,-85.5,0.200,-0.300,180.360,1000.0
2025-09-04T16:18:31.976906,-3.220,-3.460,351.870,-85.4,0.200,-0.300,180.360,1000.0
2025-09-04T16:18:32.081906,-3.220,-3.460,351.870,-85.4,0.200,-0.300,180.360,1000.0
2025-09-04T16:18:32.082906,-3.210,-3.450,351.880,-85.4,0.200,-0.300,180.360,1000.0
2025-09-04T16:18:32.083906,-3.210,-3.450,351.880,-85.4,0.200,-0.300,180.360,1000.0
2025-09-04T16:18:32.084906,-3.220,-3.450,351.880,-85.5,0.200,-0.300,180.360,1000.0
2025-09-04T16:18:32.086905,-3.210,-3.450,351.870,-85.5,0.200,-0.300,180.360,1000.0
2025-09-04T16:18:32.189905,-3.220,-3.450,351.870,-85.5,0.200,-0.300,180.360,1000.0
2025-09-04T16:18:32.190907,-3.210,-3.460,351.870,-85.5,0.200,-0.300,180.360,1000.0
2025-09-04T16:18:32.191905,-3.210,-3.450,351.870,-85.5,0.200,-0.300,180.360,1000.0
2025-09-04T16:18:32.192905,-3.210,-3.450,351.870,-85.5,0.200,-0.300,180.360,1000.0
2025-09-04T16:18:32.193905,-3.200,-3.450,351.880,-85.5,0.200,-0.300,180.360,1000.0
2025-09-04T16:18:32.298617,-3.200,-3.450,351.880,-85.5,0.200,-0.300,180.360,1000.0
2025-09-04T16:18:32.301606,-3.200,-3.450,351.880,-85.5,0.200,-0.300,180.360,1000.0
2025-09-04T16:18:32.303606,-3.200,-3.450,351.880,-85.5,0.200,-0.300,180.360,1000.0
2025-09-04T16:18:32.304606,-3.200,-3.450,351.880,-85.5,0.200,-0.300,180.360,1000.0
2025-09-04T16:18:32.305605,-3.200,-3.450,351.870,-85.5,0.200,-0.300,180.360,1000.0
2025-09-04T16:18:32.423519,-3.200,-3.450,351.880,-85.5,0.200,-0.300,180.360,1000.0
2025-09-04T16:18:32.425517,-3.200,-3.450,351.880,-85.5,0.200,-0.300,180.360,1000.0
2025-09-04T16:18:32.428524,-3.200,-3.440,351.890,-85.5,0.200,-0.300,180.360,1000.0
2025-09-04T16:18:32.430521,-3.200,-3.440,351.890,-85.5,0.200,-0.300,180.360,1000.0
2025-09-04T16:18:32.432521,-3.190,-3.440,351.880,-85.5,0.200,-0.300,180.360,1000.0
2025-09-04T16:18:32.547293,-3.190,-3.450,351.880,-85.5,0.200,-0.300,180.360,1000.0
2025-09-04T16:18:32.548291,-3.190,-3.450,351.880,-85.5,0.200,-0.300,180.360,1000.0
2025-09-04T16:18:32.551051,-3.180,-3.450,351.890,-85.5,0.200,-0.300,180.360,1000.0
2025-09-04T16:18:32.552288,-3.180,-3.450,351.880,-85.5,0.200,-0.300,180.360,1000.0
2025-09-04T16:18:32.553287,-3.180,-3.450,351.880,-85.5,0.200,-0.300,180.360,1000.0
2025-09-04T16:18:32.668631,-3.180,-3.450,351.890,-85.5,0.200,-0.300,180.360,1000.0
2025-09-04T16:18:32.670631,-3.180,-3.450,351.890,-85.5,0.200,-0.300,180.360,1000.0
2025-09-04T16:18:32.671631,-3.180,-3.450,351.890,-85.5,0.200,-0.300,180.360,1000.0
2025-09-04T16:18:32.672630,-3.180,-3.450,351.890,-85.5,0.200,-0.300,180.360,1000.0
2025-09-04T16:18:32.673630,-3.180,-3.450,351.890,-85.5,0.200,-0.300,180.360,1000.0
2025-09-04T16:18:32.793950,-3.180,-3.450,351.890,-85.5,0.200,-0.300,180.360,1000.0
2025-09-04T16:18:32.798952,-3.180,-3.450,351.880,-85.5,0.200,-0.300,180.360,1000.0
2025-09-04T16:18:32.800964,-3.180,-3.450,351.890,-85.5,0.200,-0.300,180.360,1000.0
2025-09-04T16:18:32.801954,-3.180,-3.450,351.890,-85.5,0.200,-0.300,180.360,1000.0
2025-09-04T16:18:32.803952,-3.180,-3.450,351.890,-85.5,0.200,-0.300,180.360,1000.0
2025-09-04T16:18:32.915925,-3.180,-3.450,351.890,-85.5,0.200,-0.300,180.360,1000.0
2025-09-04T16:18:32.917923,-3.180,-3.450,351.890,-85.5,0.200,-0.300,180.360,1000.0
2025-09-04T16:18:32.918923,-3.170,-3.450,351.890,-85.5,0.200,-0.300,180.360,1000.0
2025-09-04T16:18:32.919923,-3.180,-3.460,351.880,-85.5,0.200,-0.300,180.360,1000.0
2025-09-04T16:18:32.920922,-3.170,-3.460,351.890,-85.5,0.200,-0.300,180.360,1000.0
2025-09-04T16:18:33.037930,-3.180,-3.460,351.890,-85.5,0.200,-0.300,180.360,1000.0
2025-09-04T16:18:33.038922,-3.180,-3.460,351.890,-85.5,0.200,-0.300,180.360,1000.0
2025-09-04T16:18:33.039922,-3.180,-3.460,351.890,-85.5,0.200,-0.300,180.360,1000.0
2025-09-04T16:18:33.040922,-3.170,-3.460,351.880,-85.5,0.200,-0.300,180.360,1000.0
2025-09-04T16:18:33.041922,-3.170,-3.460,351.890,-85.5,0.200,-0.300,180.360,1000.0
2025-09-04T16:18:33.145922,-3.170,-3.460,351.890,-85.5,0.200,-0.300,180.360,1000.0
2025-09-04T16:18:33.147926,-3.170,-3.470,351.880,-85.5,0.200,-0.300,180.360,1000.0
2025-09-04T16:18:33.148928,-3.170,-3.470,351.880,-85.5,0.200,-0.300,180.360,1000.0
2025-09-04T16:18:33.150925,-3.170,-3.470,351.880,-85.5,0.200,-0.300,180.360,1000.0
2025-09-04T16:18:33.152930,-3.170,-3.470,351.880,-85.5,0.200,-0.300,180.360,1000.0
2025-09-04T16:18:33.267403,-3.170,-3.470,351.880,-85.5,0.200,-0.300,180.360,1000.0
2025-09-04T16:18:33.268928,-3.170,-3.480,351.880,-85.5,0.200,-0.300,180.360,1000.0
2025-09-04T16:18:33.269922,-3.170,-3.480,351.890,-85.5,0.200,-0.300,180.360,1000.0
2025-09-04T16:18:33.270922,-3.160,-3.480,351.890,-85.5,0.200,-0.300,180.360,1000.0
2025-09-04T16:18:33.271921,-3.170,-3.480,351.890,-85.5,0.200,-0.300,180.360,1000.0
2025-09-04T16:18:33.389922,-3.160,-3.490,351.890,-85.5,0.200,-0.300,180.360,1000.0
2025-09-04T16:18:33.390921,-3.170,-3.490,351.890,-85.5,0.200,-0.300,180.360,1000.0
2025-09-04T16:18:33.392922,-3.170,-3.490,351.890,-85.5,0.200,-0.300,180.360,1000.0
2025-09-04T16:18:33.393922,-3.170,-3.490,351.890,-85.5,0.200,-0.300,180.360,1000.0
2025-09-04T16:18:33.394925,-3.170,-3.500,351.890,-85.5,0.200,-0.300,180.360,1000.0
2025-09-04T16:18:33.514849,-3.170,-3.500,351.890,-85.5,0.200,-0.300,180.360,1000.0
2025-09-04T16:18:33.516848,-3.170,-3.500,351.890,-85.4,0.200,-0.300,180.360,1000.0
2025-09-04T16:18:33.517852,-3.170,-3.500,351.890,-85.4,0.200,-0.300,180.360,1000.0
2025-09-04T16:18:33.518845,-3.180,-3.490,351.880,-85.4,0.200,-0.300,180.360,1000.0
2025-09-04T16:18:33.520845,-3.180,-3.490,351.890,-85.4,0.200,-0.300,180.360,1000.0
2025-09-04T16:18:33.638202,-3.180,-3.500,351.880,-85.4,0.200,-0.300,180.360,1000.0
2025-09-04T16:18:33.639203,-3.180,-3.490,351.880,-85.4,0.200,-0.300,180.360,1000.0
2025-09-04T16:18:33.640202,-3.180,-3.490,351.890,-85.4,0.200,-0.300,180.360,1000.0
2025-09-04T16:18:33.641203,-3.180,-3.490,351.880,-85.4,0.200,-0.300,180.360,1000.0
2025-09-04T16:18:33.642201,-3.180,-3.490,351.880,-85.4,0.200,-0.300,180.360,1000.0
2025-09-04T16:18:33.760631,-3.180,-3.490,351.880,-85.4,0.200,-0.300,180.360,1000.0
2025-09-04T16:18:33.761627,-3.180,-3.500,351.880,-85.4,0.200,-0.300,180.360,1000.0
2025-09-04T16:18:33.762627,-3.180,-3.500,351.880,-85.4,0.200,-0.300,180.360,1000.0
2025-09-04T16:18:33.763626,-3.170,-3.500,351.880,-85.4,0.200,-0.300,180.360,1000.0
2025-09-04T16:18:33.765643,-3.170,-3.500,351.880,-85.4,0.200,-0.300,180.360,1000.0
2025-09-04T16:18:33.883545,-3.170,-3.500,351.880,-85.4,0.200,-0.300,180.360,1000.0
2025-09-04T16:18:33.884831,-3.170,-3.500,351.880,-85.4,0.200,-0.300,180.360,1000.0
2025-09-04T16:18:33.886543,-3.170,-3.500,351.880,-85.5,0.200,-0.300,180.360,1000.0
2025-09-04T16:18:33.887543,-3.170,-3.500,351.880,-85.5,0.200,-0.300,180.360,1000.0
2025-09-04T16:18:33.888542,-3.170,-3.500,351.880,-85.5,0.200,-0.300,180.360,1000.0
2025-09-04T16:18:34.006545,-3.170,-3.500,351.880,-85.5,0.200,-0.300,180.360,1000.0
2025-09-04T16:18:34.008544,-3.170,-3.500,351.880,-85.5,0.200,-0.300,180.360,1000.0
2025-09-04T16:18:34.009544,-3.170,-3.500,351.880,-85.5,0.200,-0.300,180.360,1000.0
2025-09-04T16:18:34.010544,-3.170,-3.500,351.880,-85.5,0.200,-0.300,180.360,1000.0
2025-09-04T16:18:34.011543,-3.170,-3.500,351.880,-85.5,0.200,-0.300,180.360,1000.0
2025-09-04T16:18:34.128544,-3.170,-3.490,351.880,-85.5,0.200,-0.300,180.360,1000.0
2025-09-04T16:18:34.130541,-3.170,-3.490,351.880,-85.5,0.200,-0.300,180.360,1000.0
2025-09-04T16:18:34.132547,-3.170,-3.490,351.880,-85.5,0.200,-0.300,180.360,1000.0
2025-09-04T16:18:34.134546,-3.170,-3.490,351.890,-85.5,0.200,-0.300,180.360,1000.0
2025-09-04T16:18:34.135545,-3.170,-3.490,351.880,-85.5,0.200,-0.300,180.360,1000.0
2025-09-04T16:18:34.254544,-3.170,-3.490,351.890,-85.5,0.200,-0.300,180.360,1000.0
2025-09-04T16:18:34.256544,-3.170,-3.490,351.880,-85.4,0.200,-0.300,180.360,1000.0
2025-09-04T16:18:34.257543,-3.170,-3.480,351.880,-85.4,0.200,-0.300,180.360,1000.0
2025-09-04T16:18:34.259542,-3.170,-3.480,351.880,-85.4,0.200,-0.300,180.360,1000.0
2025-09-04T16:18:34.261543,-3.170,-3.470,351.890,-85.4,0.200,-0.300,180.360,1000.0
2025-09-04T16:18:34.377804,-3.180,-3.470,351.890,-85.4,0.200,-0.300,180.360,1000.0
2025-09-04T16:18:34.378803,-3.180,-3.470,351.890,-85.4,0.200,-0.300,180.360,1000.0
2025-09-04T16:18:34.379803,-3.180,-3.470,351.890,-85.4,0.200,-0.300,180.360,1000.0
2025-09-04T16:18:34.382230,-3.180,-3.460,351.890,-85.4,0.200,-0.300,180.360,1000.0
2025-09-04T16:18:34.382816,-3.180,-3.460,351.890,-85.4,0.200,-0.300,180.360,1000.0
2025-09-04T16:18:34.500384,-3.180,-3.450,351.890,-85.4,0.200,-0.300,180.360,1000.0
2025-09-04T16:18:34.503380,-3.180,-3.450,351.880,-85.4,0.200,-0.300,180.360,1000.0
2025-09-04T16:18:34.504379,-3.180,-3.450,351.880,-85.4,0.200,-0.300,180.360,1000.0
2025-09-04T16:18:34.506378,-3.180,-3.440,351.890,-85.4,0.200,-0.300,180.360,1000.0
2025-09-04T16:18:34.507380,-3.180,-3.440,351.890,-85.4,0.200,-0.300,180.360,1000.0
2025-09-04T16:18:34.623320,-3.180,-3.440,351.890,-85.4,0.200,-0.300,180.360,1000.0
2025-09-04T16:18:34.624319,-3.180,-3.440,351.890,-85.4,0.200,-0.300,180.360,1000.0
2025-09-04T16:18:34.625319,-3.180,-3.440,351.890,-85.4,0.200,-0.300,180.360,1000.0
2025-09-04T16:18:34.626319,-3.180,-3.440,351.890,-85.4,0.200,-0.300,180.360,1000.0
2025-09-04T16:18:34.627319,-3.180,-3.440,351.890,-85.4,0.200,-0.300,180.360,1000.0
2025-09-04T16:18:34.731936,-3.180,-3.440,351.890,-85.4,0.200,-0.300,180.360,1000.0
2025-09-04T16:18:34.734934,-3.180,-3.450,351.890,-85.4,0.200,-0.300,180.360,1000.0
2025-09-04T16:18:34.736932,-3.180,-3.440,351.890,-85.4,0.200,-0.300,180.360,1000.0
2025-09-04T16:18:34.737930,-3.180,-3.440,351.890,-85.4,0.200,-0.300,180.360,1000.0
2025-09-04T16:18:34.739929,-3.180,-3.440,351.890,-85.4,0.200,-0.300,180.360,1000.0
2025-09-04T16:18:34.853651,-3.180,-3.450,351.890,-85.4,0.200,-0.300,180.360,1000.0
2025-09-04T16:18:34.854650,-3.180,-3.450,351.890,-85.4,0.200,-0.300,180.360,1000.0
2025-09-04T16:18:34.856652,-3.180,-3.450,351.890,-85.4,0.200,-0.300,180.360,1000.0
2025-09-04T16:18:34.857651,-3.170,-3.450,351.890,-85.4,0.200,-0.300,180.360,1000.0
2025-09-04T16:18:34.858650,-3.180,-3.450,351.890,-85.4,0.200,-0.300,180.360,1000.0
2025-09-04T16:18:34.966714,-3.180,-3.440,351.880,-85.4,0.200,-0.300,180.360,1000.0
2025-09-04T16:18:34.968712,-3.180,-3.440,351.880,-85.4,0.200,-0.300,180.360,1000.0
2025-09-04T16:18:34.969712,-3.180,-3.440,351.890,-85.4,0.200,-0.300,180.360,1000.0
2025-09-04T16:18:34.971713,-3.180,-3.450,351.880,-85.4,0.200,-0.300,180.360,1000.0
2025-09-04T16:18:34.972713,-3.180,-3.450,351.880,-85.4,0.200,-0.300,180.360,1000.0
2025-09-04T16:18:35.089713,-3.180,-3.450,351.890,-85.4,0.200,-0.300,180.360,1000.0
2025-09-04T16:18:35.090713,-3.180,-3.440,351.890,-85.4,0.200,-0.300,180.360,1000.0
2025-09-04T16:18:35.091712,-3.180,-3.450,351.890,-85.4,0.200,-0.300,180.360,1000.0
2025-09-04T16:18:35.092713,-3.170,-3.450,351.890,-85.4,0.200,-0.300,180.360,1000.0
2025-09-04T16:18:35.093712,-3.170,-3.450,351.890,-85.4,0.200,-0.300,180.360,1000.0
2025-09-04T16:18:35.212713,-3.160,-3.450,351.890,-85.4,0.200,-0.300,180.360,1000.0
2025-09-04T16:18:35.213714,-3.160,-3.460,351.890,-85.4,0.200,-0.300,180.360,1000.0
2025-09-04T16:18:35.215715,-3.160,-3.460,351.890,-85.4,0.200,-0.300,180.360,1000.0
2025-09-04T16:18:35.217715,-3.160,-3.470,351.890,-85.4,0.200,-0.300,180.360,1000.0
2025-09-04T16:18:35.218714,-3.160,-3.470,351.890,-85.4,0.200,-0.300,180.360,1000.0
2025-09-04T16:18:35.324145,-3.160,-3.470,351.890,-85.4,0.200,-0.300,180.360,1000.0
2025-09-04T16:18:35.325146,-3.160,-3.470,351.890,-85.4,0.200,-0.300,180.360,1000.0
2025-09-04T16:18:35.326145,-3.160,-3.470,351.890,-85.4,0.200,-0.300,180.360,1000.0
2025-09-04T16:18:35.327146,-3.160,-3.470,351.890,-85.4,0.200,-0.300,180.360,1000.0
2025-09-04T16:18:35.328144,-3.160,-3.480,351.890,-85.4,0.200,-0.300,180.360,1000.0
2025-09-04T16:18:35.433467,-3.170,-3.480,351.890,-85.4,0.200,-0.300,180.360,1000.0
2025-09-04T16:18:35.435466,-3.170,-3.480,351.890,-85.4,0.200,-0.300,180.360,1000.0
2025-09-04T16:18:35.437467,-3.170,-3.480,351.890,-85.4,0.200,-0.300,180.360,1000.0
2025-09-04T16:18:35.438467,-3.170,-3.490,351.890,-85.4,0.200,-0.300,180.360,1000.0
2025-09-04T16:18:35.439466,-3.170,-3.480,351.890,-85.4,0.200,-0.300,180.360,1000.0
2025-09-04T16:18:35.557465,-3.180,-3.480,351.890,-85.4,0.200,-0.300,180.360,1000.0
2025-09-04T16:18:35.558465,-3.180,-3.470,351.880,-85.4,0.200,-0.300,180.360,1000.0
2025-09-04T16:18:35.559465,-3.180,-3.470,351.880,-85.4,0.200,-0.300,180.360,1000.0
2025-09-04T16:18:35.561466,-3.180,-3.470,351.880,-85.4,0.200,-0.300,180.360,1000.0
2025-09-04T16:18:35.562465,-3.180,-3.470,351.880,-85.4,0.200,-0.300,180.360,1000.0
2025-09-04T16:18:35.667923,-3.180,-3.470,351.880,-85.4,0.200,-0.300,180.360,1000.0
2025-09-04T16:18:35.668919,-3.180,-3.470,351.880,-85.4,0.200,-0.300,180.360,1000.0
2025-09-04T16:18:35.669920,-3.180,-3.470,351.880,-85.5,0.200,-0.300,180.360,1000.0
2025-09-04T16:18:35.670920,-3.180,-3.470,351.880,-85.5,0.200,-0.300,180.360,1000.0
2025-09-04T16:18:35.672920,-3.180,-3.470,351.880,-85.5,0.200,-0.300,180.360,1000.0
2025-09-04T16:18:35.777546,-3.180,-3.470,351.880,-85.5,0.200,-0.300,180.360,1000.0
2025-09-04T16:18:35.778527,-3.180,-3.470,351.880,-85.5,0.200,-0.300,180.360,1000.0
2025-09-04T16:18:35.779529,-3.180,-3.470,351.880,-85.5,0.200,-0.300,180.360,1000.0
2025-09-04T16:18:35.781527,-3.180,-3.470,351.880,-85.5,0.200,-0.300,180.360,1000.0
2025-09-04T16:18:35.782845,-3.180,-3.470,351.880,-85.5,0.200,-0.300,180.360,1000.0
2025-09-04T16:18:35.901632,-3.180,-3.470,351.880,-85.5,0.200,-0.300,180.360,1000.0
2025-09-04T16:18:35.902630,-3.180,-3.470,351.880,-85.5,0.200,-0.300,180.360,1000.0
2025-09-04T16:18:35.903630,-3.180,-3.470,351.880,-85.5,0.200,-0.300,180.360,1000.0
2025-09-04T16:18:35.905629,-3.180,-3.470,351.880,-85.5,0.200,-0.300,180.360,1000.0
2025-09-04T16:18:35.906628,-3.170,-3.480,351.880,-85.5,0.200,-0.300,180.360,1000.0
2025-09-04T16:18:36.024767,-3.170,-3.480,351.880,-85.5,0.200,-0.300,180.360,1000.0
2025-09-04T16:18:36.026762,-3.170,-3.480,351.880,-85.4,0.200,-0.300,180.360,1000.0
2025-09-04T16:18:36.027778,-3.170,-3.490,351.880,-85.4,0.200,-0.300,180.360,1000.0
2025-09-04T16:18:36.028760,-3.170,-3.490,351.880,-85.4,0.200,-0.300,180.360,1000.0
2025-09-04T16:18:36.029761,-3.170,-3.490,351.880,-85.4,0.200,-0.300,180.360,1000.0
2025-09-04T16:18:36.133760,-3.170,-3.490,351.880,-85.4,0.200,-0.300,180.360,1000.0
2025-09-04T16:18:36.135762,-3.170,-3.490,351.880,-85.4,0.200,-0.300,180.360,1000.0
2025-09-04T16:18:36.136764,-3.170,-3.490,351.880,-85.4,0.200,-0.300,180.360,1000.0
2025-09-04T16:18:36.137762,-3.170,-3.490,351.880,-85.4,0.200,-0.300,180.360,1000.0
2025-09-04T16:18:36.138761,-3.170,-3.490,351.880,-85.4,0.200,-0.300,180.360,1000.0
2025-09-04T16:18:36.256796,-3.180,-3.490,351.880,-85.4,0.200,-0.300,180.360,1000.0
2025-09-04T16:18:36.257798,-3.180,-3.480,351.880,-85.4,0.200,-0.300,180.360,1000.0
2025-09-04T16:18:36.259802,-3.180,-3.480,351.880,-85.4,0.200,-0.300,180.360,1000.0
2025-09-04T16:18:36.260762,-3.190,-3.480,351.890,-85.4,0.200,-0.300,180.360,1000.0
2025-09-04T16:18:36.261761,-3.190,-3.480,351.890,-85.4,0.200,-0.300,180.360,1000.0
2025-09-04T16:18:36.366652,-3.200,-3.490,351.890,-85.4,0.200,-0.300,180.360,1000.0
2025-09-04T16:18:36.367647,-3.200,-3.490,351.890,-85.4,0.200,-0.300,180.360,1000.0
2025-09-04T16:18:36.369646,-3.200,-3.490,351.890,-85.4,0.200,-0.300,180.360,1000.0
2025-09-04T16:18:36.370645,-3.210,-3.490,351.890,-85.4,0.200,-0.300,180.360,1000.0
2025-09-04T16:18:36.371646,-3.210,-3.490,351.890,-85.4,0.200,-0.300,180.360,1000.0
2025-09-04T16:18:36.478193,-3.210,-3.490,351.880,-85.4,0.200,-0.300,180.360,1000.0
2025-09-04T16:18:36.479186,-3.200,-3.500,351.880,-85.4,0.200,-0.300,180.360,1000.0
2025-09-04T16:18:36.480185,-3.200,-3.500,351.880,-85.4,0.200,-0.300,180.360,1000.0
2025-09-04T16:18:36.482188,-3.200,-3.490,351.880,-85.4,0.200,-0.300,180.360,1000.0
2025-09-04T16:18:36.483187,-3.190,-3.490,351.880,-85.4,0.200,-0.300,180.360,1000.0
2025-09-04T16:18:36.587142,-3.190,-3.490,351.880,-85.4,0.200,-0.300,180.360,1000.0
2025-09-04T16:18:36.588143,-3.190,-3.480,351.880,-85.4,0.200,-0.300,180.360,1000.0
2025-09-04T16:18:36.589146,-3.190,-3.490,351.880,-85.4,0.200,-0.300,180.360,1000.0
2025-09-04T16:18:36.591146,-3.190,-3.490,351.880,-85.3,0.200,-0.300,180.360,1000.0
2025-09-04T16:18:36.592145,-3.190,-3.490,351.880,-85.3,0.200,-0.300,180.360,1000.0
2025-09-04T16:18:36.710876,-3.190,-3.490,351.880,-85.4,0.200,-0.300,180.360,1000.0
2025-09-04T16:18:36.712876,-3.190,-3.490,351.880,-85.4,0.200,-0.300,180.360,1000.0
2025-09-04T16:18:36.713876,-3.190,-3.490,351.880,-85.4,0.200,-0.300,180.360,1000.0
2025-09-04T16:18:36.715878,-3.180,-3.490,351.880,-85.4,0.200,-0.300,180.360,1000.0
2025-09-04T16:18:36.716876,-3.180,-3.490,351.880,-85.4,0.200,-0.300,180.360,1000.0
2025-09-04T16:18:36.835925,-3.180,-3.490,351.880,-85.4,0.200,-0.300,180.360,1000.0
2025-09-04T16:18:36.837923,-3.180,-3.490,351.880,-85.4,0.200,-0.300,180.360,1000.0
2025-09-04T16:18:36.838924,-3.180,-3.490,351.880,-85.4,0.200,-0.300,180.360,1000.0
2025-09-04T16:18:36.839925,-3.180,-3.490,351.870,-85.4,0.200,-0.300,180.360,1000.0
2025-09-04T16:18:36.841924,-3.180,-3.490,351.870,-85.4,0.200,-0.300,180.360,1000.0
2025-09-04T16:18:36.959765,-3.180,-3.490,351.870,-85.4,0.200,-0.300,180.360,1000.0
2025-09-04T16:18:36.960752,-3.180,-3.490,351.880,-85.4,0.200,-0.300,180.360,1000.0
2025-09-04T16:18:36.961753,-3.180,-3.500,351.880,-85.4,0.200,-0.300,180.360,1000.0
2025-09-04T16:18:36.962754,-3.180,-3.500,351.880,-85.4,0.200,-0.300,180.360,1000.0
2025-09-04T16:18:36.963755,-3.180,-3.500,351.880,-85.4,0.200,-0.300,180.360,1000.0
2025-09-04T16:18:37.068754,-3.170,-3.490,351.890,-85.4,0.200,-0.300,180.360,1000.0
2025-09-04T16:18:37.070752,-3.170,-3.490,351.890,-85.4,0.200,-0.300,180.360,1000.0
2025-09-04T16:18:37.071752,-3.170,-3.490,351.890,-85.4,0.200,-0.300,180.360,1000.0
2025-09-04T16:18:37.072751,-3.170,-3.490,351.890,-85.4,0.200,-0.300,180.360,1000.0
2025-09-04T16:18:37.073756,-3.170,-3.490,351.890,-85.4,0.200,-0.300,180.360,1000.0
2025-09-04T16:18:37.190753,-3.170,-3.500,351.890,-85.4,0.200,-0.300,180.360,1000.0
2025-09-04T16:18:37.191754,-3.160,-3.500,351.900,-85.4,0.200,-0.300,180.360,1000.0
2025-09-04T16:18:37.193754,-3.170,-3.500,351.900,-85.4,0.200,-0.300,180.360,1000.0
2025-09-04T16:18:37.195754,-3.170,-3.500,351.900,-85.4,0.200,-0.300,180.360,1000.0
2025-09-04T16:18:37.197754,-3.170,-3.510,351.900,-85.4,0.200,-0.300,180.360,1000.0
2025-09-04T16:18:37.313974,-3.170,-3.500,351.900,-85.4,0.200,-0.300,180.360,1000.0
2025-09-04T16:18:37.315965,-3.170,-3.510,351.900,-85.4,0.200,-0.300,180.360,1000.0
2025-09-04T16:18:37.316966,-3.170,-3.510,351.900,-85.4,0.200,-0.300,180.360,1000.0
2025-09-04T16:18:37.318966,-3.170,-3.500,351.900,-85.4,0.200,-0.300,180.360,1000.0
2025-09-04T16:18:37.319965,-3.170,-3.500,351.900,-85.4,0.200,-0.300,180.360,1000.0
2025-09-04T16:18:37.438857,-3.160,-3.500,351.900,-85.4,0.200,-0.300,180.360,1000.0
2025-09-04T16:18:37.439854,-3.170,-3.500,351.900,-85.4,0.200,-0.300,180.360,1000.0
2025-09-04T16:18:37.441855,-3.170,-3.500,351.900,-85.4,0.200,-0.300,180.360,1000.0
2025-09-04T16:18:37.442861,-3.170,-3.500,351.900,-85.4,0.200,-0.300,180.360,1000.0
2025-09-04T16:18:37.443854,-3.170,-3.500,351.900,-85.4,0.200,-0.300,180.360,1000.0
2025-09-04T16:18:37.547859,-3.170,-3.500,351.900,-85.4,0.200,-0.300,180.360,1000.0
2025-09-04T16:18:37.549858,-3.170,-3.500,351.900,-85.4,0.200,-0.300,180.360,1000.0
2025-09-04T16:18:37.551856,-3.170,-3.500,351.900,-85.4,0.200,-0.300,180.360,1000.0
2025-09-04T16:18:37.552859,-3.170,-3.500,351.900,-85.4,0.200,-0.300,180.360,1000.0
2025-09-04T16:18:37.554856,-3.170,-3.500,351.900,-85.4,0.200,-0.300,180.360,1000.0
2025-09-04T16:18:37.670405,-3.170,-3.500,351.900,-85.4,0.200,-0.300,180.360,1000.0
2025-09-04T16:18:37.671403,-3.170,-3.500,351.900,-85.4,0.200,-0.300,180.360,1000.0
2025-09-04T16:18:37.672403,-3.170,-3.500,351.900,-85.4,0.200,-0.300,180.360,1000.0
2025-09-04T16:18:37.673401,-3.170,-3.500,351.900,-85.4,0.200,-0.300,180.360,1000.0
2025-09-04T16:18:37.674401,-3.170,-3.500,351.900,-85.4,0.200,-0.300,180.360,1000.0
2025-09-04T16:18:37.778929,-3.170,-3.500,351.900,-85.4,0.200,-0.300,180.360,1000.0
2025-09-04T16:18:37.780929,-3.170,-3.500,351.900,-85.4,0.200,-0.300,180.360,1000.0
2025-09-04T16:18:37.781933,-3.170,-3.500,351.900,-85.4,0.200,-0.300,180.360,1000.0
2025-09-04T16:18:37.783934,-3.170,-3.500,351.900,-85.4,0.200,-0.300,180.360,1000.0
2025-09-04T16:18:37.784937,-3.170,-3.500,351.900,-85.4,0.200,-0.300,180.360,1000.0
2025-09-04T16:18:37.901919,-3.170,-3.500,351.900,-85.4,0.200,-0.300,180.360,1000.0
2025-09-04T16:18:37.902919,-3.170,-3.500,351.900,-85.4,0.200,-0.300,180.360,1000.0
2025-09-04T16:18:37.904919,-3.170,-3.500,351.900,-85.4,0.200,-0.300,180.360,1000.0
2025-09-04T16:18:37.905919,-3.170,-3.500,351.900,-85.4,0.200,-0.300,180.360,1000.0
2025-09-04T16:18:37.906919,-3.170,-3.500,351.900,-85.4,0.200,-0.300,180.360,1000.0
2025-09-04T16:18:38.023919,-3.170,-3.500,351.900,-85.4,0.200,-0.300,180.360,1000.0
2025-09-04T16:18:38.024918,-3.170,-3.500,351.900,-85.4,0.200,-0.300,180.360,1000.0
2025-09-04T16:18:38.025919,-3.170,-3.500,351.900,-85.4,0.200,-0.300,180.360,1000.0
2025-09-04T16:18:38.026919,-3.170,-3.500,351.900,-85.4,0.200,-0.300,180.360,1000.0
2025-09-04T16:18:38.027919,-3.170,-3.500,351.900,-85.4,0.200,-0.300,180.360,1000.0
2025-09-04T16:18:38.131918,-3.170,-3.500,351.900,-85.4,0.200,-0.300,180.360,1000.0
2025-09-04T16:18:38.133923,-3.170,-3.500,351.900,-85.4,0.200,-0.300,180.360,1000.0
2025-09-04T16:18:38.135922,-3.170,-3.500,351.900,-85.4,0.200,-0.300,180.360,1000.0
2025-09-04T16:18:38.136922,-3.170,-3.500,351.900,-85.4,0.200,-0.300,180.360,1000.0
2025-09-04T16:18:38.138920,-3.170,-3.500,351.900,-85.4,0.200,-0.300,180.360,1000.0
2025-09-04T16:18:38.255449,-3.170,-3.500,351.900,-85.4,0.200,-0.300,180.360,1000.0
2025-09-04T16:18:38.256449,-3.170,-3.500,351.900,-85.4,0.200,-0.300,180.360,1000.0
2025-09-04T16:18:38.258449,-3.170,-3.500,351.900,-85.4,0.200,-0.300,180.360,1000.0
2025-09-04T16:18:38.259449,-3.170,-3.500,351.900,-85.4,0.200,-0.300,180.360,1000.0
2025-09-04T16:18:38.260448,-3.170,-3.500,351.900,-85.4,0.200,-0.300,180.360,1000.0
2025-09-04T16:18:38.365543,-3.170,-3.500,351.900,-85.4,0.200,-0.300,180.360,1000.0
2025-09-04T16:18:38.366545,-3.170,-3.500,351.900,-85.4,0.200,-0.300,180.360,1000.0
2025-09-04T16:18:38.368558,-3.170,-3.500,351.900,-85.4,0.200,-0.300,180.360,1000.0
2025-09-04T16:18:38.369544,-3.170,-3.500,351.900,-85.4,0.200,-0.300,180.360,1000.0
2025-09-04T16:18:38.370544,-3.170,-3.500,351.900,-85.4,0.200,-0.300,180.360,1000.0
