Timestamp,Roll_Angle,Pitch_Angle,Yaw_Angle,Altitude,Roll_Setpoint,Pitch_Setpoint,Yaw_Setpoint,Altitude_Setpoint
2025-09-03T15:05:18.693797,0.900,-2.830,18.370,-61.1,0.200,-0.300,180.000,1000.0
2025-09-03T15:05:18.739756,0.890,-2.840,18.380,-61.1,0.200,-0.300,180.360,1000.0
2025-09-03T15:05:18.742755,0.900,-2.840,18.370,-61.1,0.200,-0.300,180.000,1000.0
2025-09-03T15:05:18.769472,0.900,-2.850,18.370,-61.1,0.200,-0.300,180.000,1000.0
2025-09-03T15:05:18.877191,0.890,-2.850,18.370,-61.1,0.200,-0.300,180.000,1000.0
2025-09-03T15:05:18.879191,0.900,-2.850,18.370,-61.1,0.200,-0.300,180.000,1000.0
2025-09-03T15:05:18.880192,0.900,-2.850,18.370,-61.1,0.200,-0.300,180.000,1000.0
2025-09-03T15:05:18.882191,0.900,-2.850,18.370,-61.1,0.200,-0.300,180.360,1000.0
2025-09-03T15:05:18.884192,0.900,-2.850,18.370,-61.1,0.200,-0.300,180.000,1000.0
2025-09-03T15:05:19.003196,0.900,-2.850,18.370,-61.1,0.200,-0.300,180.000,1000.0
2025-09-03T15:05:19.005191,0.900,-2.850,18.370,-61.1,0.200,-0.300,180.360,1000.0
2025-09-03T15:05:19.007194,0.900,-2.850,18.370,-61.1,0.200,-0.300,180.360,1000.0
2025-09-03T15:05:19.009192,0.900,-2.850,18.380,-61.1,0.200,-0.300,180.360,1000.0
2025-09-03T15:05:19.011193,0.900,-2.860,18.380,-61.1,0.200,-0.300,180.000,1000.0
2025-09-03T15:05:19.129847,0.900,-2.860,18.380,-61.1,0.200,-0.300,180.000,1000.0
2025-09-03T15:05:19.131567,0.900,-2.860,18.380,-61.1,0.200,-0.300,180.000,1000.0
2025-09-03T15:05:19.133565,0.910,-2.870,18.380,-61.1,0.200,-0.300,180.000,1000.0
2025-09-03T15:05:19.135566,0.910,-2.870,18.380,-61.1,0.200,-0.300,180.000,1000.0
2025-09-03T15:05:19.136566,0.910,-2.870,18.380,-61.1,0.200,-0.300,180.000,1000.0
2025-09-03T15:05:19.254857,0.910,-2.870,18.380,-61.1,0.200,-0.300,180.000,1000.0
2025-09-03T15:05:19.257856,0.910,-2.870,18.380,-61.1,0.200,-0.300,180.000,1000.0
2025-09-03T15:05:19.260869,0.900,-2.870,18.380,-61.1,0.200,-0.300,180.000,1000.0
2025-09-03T15:05:19.262857,0.900,-2.870,18.380,-61.1,0.200,-0.300,180.360,1000.0
2025-09-03T15:05:19.263867,0.900,-2.870,18.380,-61.1,0.200,-0.300,180.000,1000.0
2025-09-03T15:05:19.377577,0.900,-2.870,18.380,-61.1,0.200,-0.300,180.360,1000.0
2025-09-03T15:05:19.379577,0.890,-2.860,18.380,-61.1,0.200,-0.300,180.000,1000.0
2025-09-03T15:05:19.380577,0.890,-2.860,18.380,-61.1,0.200,-0.300,180.000,1000.0
2025-09-03T15:05:19.382582,0.890,-2.860,18.380,-61.1,0.200,-0.300,180.000,1000.0
2025-09-03T15:05:19.384579,0.880,-2.860,18.380,-61.1,0.200,-0.300,180.000,1000.0
2025-09-03T15:05:19.500370,0.880,-2.860,18.380,-61.1,0.200,-0.300,180.000,1000.0
2025-09-03T15:05:19.502367,0.880,-2.860,18.380,-61.1,0.200,-0.300,180.360,1000.0
2025-09-03T15:05:19.503369,0.880,-2.860,18.380,-61.1,0.200,-0.300,180.000,1000.0
2025-09-03T15:05:19.505368,0.870,-2.860,18.380,-61.1,0.200,-0.300,180.000,1000.0
2025-09-03T15:05:19.506368,0.870,-2.860,18.380,-61.1,0.200,-0.300,180.000,1000.0
2025-09-03T15:05:19.624243,0.870,-2.860,18.380,-61.1,0.200,-0.300,180.000,1000.0
2025-09-03T15:05:19.626246,0.870,-2.860,18.380,-61.1,0.200,-0.300,180.360,1000.0
2025-09-03T15:05:19.627243,0.870,-2.860,18.380,-61.1,0.200,-0.300,180.000,1000.0
2025-09-03T15:05:19.629243,0.870,-2.860,18.380,-61.1,0.200,-0.300,180.000,1000.0
2025-09-03T15:05:19.630252,0.870,-2.860,18.380,-61.1,0.200,-0.300,180.000,1000.0
2025-09-03T15:05:19.734420,0.870,-2.860,18.380,-61.1,0.200,-0.300,180.000,1000.0
2025-09-03T15:05:19.736420,0.870,-2.860,18.380,-61.1,0.200,-0.300,180.000,1000.0
2025-09-03T15:05:19.738424,0.870,-2.860,18.380,-61.1,0.200,-0.300,180.360,1000.0
2025-09-03T15:05:19.740422,0.870,-2.860,18.380,-61.1,0.200,-0.300,180.360,1000.0
2025-09-03T15:05:19.741422,0.870,-2.860,18.380,-61.1,0.200,-0.300,180.000,1000.0
2025-09-03T15:05:19.846422,0.870,-2.860,18.380,-61.1,0.200,-0.300,180.000,1000.0
2025-09-03T15:05:19.848477,0.880,-2.870,18.380,-61.1,0.200,-0.300,180.000,1000.0
2025-09-03T15:05:19.850422,0.880,-2.870,18.380,-61.1,0.200,-0.300,180.360,1000.0
2025-09-03T15:05:19.852422,0.880,-2.880,18.380,-61.1,0.200,-0.300,180.000,1000.0
2025-09-03T15:05:19.853431,0.880,-2.880,18.380,-61.1,0.200,-0.300,180.360,1000.0
2025-09-03T15:05:19.969331,0.880,-2.880,18.380,-61.1,0.200,-0.300,180.000,1000.0
2025-09-03T15:05:19.971330,0.880,-2.880,18.380,-61.1,0.200,-0.300,180.000,1000.0
2025-09-03T15:05:19.973331,0.880,-2.880,18.380,-61.1,0.200,-0.300,180.000,1000.0
2025-09-03T15:05:19.974344,0.880,-2.880,18.380,-61.1,0.200,-0.300,180.360,1000.0
2025-09-03T15:05:19.976331,0.880,-2.870,18.380,-61.1,0.200,-0.300,180.360,1000.0
2025-09-03T15:05:20.091966,0.880,-2.870,18.380,-61.1,0.200,-0.300,180.360,1000.0
2025-09-03T15:05:20.093966,0.870,-2.870,18.380,-61.1,0.200,-0.300,180.000,1000.0
2025-09-03T15:05:20.094966,0.870,-2.870,18.380,-61.1,0.200,-0.300,180.000,1000.0
2025-09-03T15:05:20.096967,0.870,-2.870,18.380,-61.1,0.200,-0.300,180.360,1000.0
2025-09-03T15:05:20.097966,0.870,-2.870,18.380,-61.1,0.200,-0.300,180.360,1000.0
2025-09-03T15:05:20.215269,0.870,-2.860,18.380,-61.1,0.200,-0.300,180.360,1000.0
2025-09-03T15:05:20.217269,0.870,-2.860,18.380,-61.1,0.200,-0.300,180.360,1000.0
2025-09-03T15:05:20.219269,0.870,-2.860,18.380,-61.1,0.200,-0.300,180.000,1000.0
2025-09-03T15:05:20.220267,0.870,-2.860,18.380,-61.1,0.200,-0.300,180.360,1000.0
2025-09-03T15:05:20.221268,0.860,-2.870,18.380,-61.1,0.200,-0.300,180.360,1000.0
2025-09-03T15:05:20.338566,0.860,-2.870,18.380,-61.1,0.200,-0.300,180.360,1000.0
2025-09-03T15:05:20.340565,0.860,-2.870,18.380,-61.1,0.200,-0.300,180.000,1000.0
2025-09-03T15:05:20.341566,0.860,-2.870,18.380,-61.1,0.200,-0.300,180.000,1000.0
2025-09-03T15:05:20.342565,0.860,-2.870,18.380,-61.1,0.200,-0.300,180.360,1000.0
2025-09-03T15:05:20.344566,0.860,-2.860,18.380,-61.1,0.200,-0.300,180.000,1000.0
2025-09-03T15:05:20.462777,0.860,-2.860,18.380,-61.1,0.200,-0.300,180.000,1000.0
2025-09-03T15:05:20.463776,0.860,-2.860,18.380,-61.1,0.200,-0.300,180.000,1000.0
2025-09-03T15:05:20.465777,0.860,-2.860,18.380,-61.1,0.200,-0.300,180.000,1000.0
2025-09-03T15:05:20.466788,0.860,-2.860,18.380,-61.1,0.200,-0.300,180.360,1000.0
2025-09-03T15:05:20.468777,0.860,-2.860,18.380,-61.1,0.200,-0.300,180.360,1000.0
2025-09-03T15:05:20.585696,0.860,-2.860,18.380,-61.1,0.200,-0.300,180.360,1000.0
2025-09-03T15:05:20.587701,0.860,-2.860,18.380,-61.1,0.200,-0.300,180.000,1000.0
2025-09-03T15:05:20.588701,0.860,-2.860,18.380,-61.1,0.200,-0.300,180.000,1000.0
2025-09-03T15:05:20.589701,0.860,-2.860,18.380,-61.1,0.200,-0.300,180.360,1000.0
2025-09-03T15:05:20.591701,0.860,-2.860,18.380,-61.1,0.200,-0.300,180.000,1000.0
2025-09-03T15:05:20.710591,0.860,-2.860,18.380,-61.1,0.200,-0.300,180.000,1000.0
2025-09-03T15:05:20.711596,0.860,-2.860,18.380,-61.1,0.200,-0.300,180.000,1000.0
2025-09-03T15:05:20.712595,0.860,-2.860,18.380,-61.1,0.200,-0.300,180.360,1000.0
2025-09-03T15:05:20.714596,0.860,-2.860,18.380,-61.1,0.200,-0.300,180.000,1000.0
2025-09-03T15:05:20.715596,0.860,-2.860,18.380,-61.1,0.200,-0.300,180.000,1000.0
2025-09-03T15:05:20.819049,0.860,-2.860,18.380,-61.1,0.200,-0.300,180.360,1000.0
2025-09-03T15:05:20.821049,0.860,-2.860,18.380,-61.1,0.200,-0.300,180.360,1000.0
2025-09-03T15:05:20.822049,0.860,-2.860,18.380,-61.1,0.200,-0.300,180.360,1000.0
2025-09-03T15:05:20.823050,0.860,-2.860,18.380,-61.1,0.200,-0.300,180.000,1000.0
2025-09-03T15:05:20.825049,0.850,-2.860,18.380,-61.1,0.200,-0.300,180.360,1000.0
2025-09-03T15:05:20.929080,0.850,-2.860,18.380,-61.1,0.200,-0.300,180.000,1000.0
2025-09-03T15:05:20.931078,0.850,-2.860,18.380,-61.1,0.200,-0.300,180.360,1000.0
2025-09-03T15:05:20.933080,0.860,-2.860,18.380,-61.1,0.200,-0.300,180.000,1000.0
2025-09-03T15:05:20.935078,0.870,-2.850,18.390,-61.1,0.200,-0.300,180.000,1000.0
2025-09-03T15:05:20.936079,0.890,-2.850,18.390,-61.1,0.200,-0.300,180.360,1000.0
2025-09-03T15:05:21.054604,0.890,-2.850,18.390,-61.1,0.200,-0.300,180.000,1000.0
2025-09-03T15:05:21.056605,0.880,-2.850,18.390,-61.1,0.200,-0.300,180.000,1000.0
2025-09-03T15:05:21.058604,0.870,-2.850,18.390,-61.1,0.200,-0.300,180.360,1000.0
2025-09-03T15:05:21.059604,0.890,-2.850,18.380,-61.1,0.200,-0.300,180.360,1000.0
2025-09-03T15:05:21.061604,0.910,-2.850,18.380,-61.1,0.200,-0.300,180.360,1000.0
2025-09-03T15:05:21.178352,0.910,-2.850,18.380,-61.1,0.200,-0.300,180.000,1000.0
2025-09-03T15:05:21.180352,0.910,-2.860,18.390,-61.1,0.200,-0.300,180.360,1000.0
2025-09-03T15:05:21.182354,0.900,-2.860,18.390,-61.1,0.200,-0.300,180.000,1000.0
2025-09-03T15:05:21.183353,0.890,-2.870,18.390,-61.1,0.200,-0.300,180.360,1000.0
2025-09-03T15:05:21.185359,0.900,-2.870,18.390,-61.1,0.200,-0.300,180.360,1000.0
2025-09-03T15:05:21.304806,0.920,-2.870,18.380,-61.1,0.200,-0.300,180.360,1000.0
2025-09-03T15:05:21.305805,0.900,-2.870,18.380,-61.1,0.200,-0.300,180.360,1000.0
2025-09-03T15:05:21.307808,0.900,-2.870,18.380,-61.1,0.200,-0.300,180.000,1000.0
2025-09-03T15:05:21.308809,0.890,-2.850,18.390,-61.1,0.200,-0.300,180.000,1000.0
2025-09-03T15:05:21.310808,0.890,-2.850,18.390,-61.1,0.200,-0.300,180.000,1000.0
2025-09-03T15:05:21.431212,0.890,-2.850,18.380,-61.1,0.200,-0.300,180.360,1000.0
2025-09-03T15:05:21.432212,0.920,-2.860,18.380,-61.1,0.200,-0.300,180.000,1000.0
2025-09-03T15:05:21.434211,0.930,-2.850,18.380,-61.1,0.200,-0.300,180.000,1000.0
2025-09-03T15:05:21.435214,0.940,-2.850,18.380,-61.1,0.200,-0.300,180.360,1000.0
2025-09-03T15:05:21.437212,0.940,-2.840,18.380,-61.1,0.200,-0.300,180.000,1000.0
2025-09-03T15:05:21.555977,0.950,-2.840,18.380,-61.1,0.200,-0.300,180.000,1000.0
2025-09-03T15:05:21.557978,0.960,-2.840,18.370,-61.1,0.200,-0.300,180.000,1000.0
2025-09-03T15:05:21.559976,0.960,-2.840,18.370,-61.1,0.200,-0.300,180.000,1000.0
2025-09-03T15:05:21.560978,0.950,-2.840,18.370,-61.1,0.200,-0.300,180.000,1000.0
2025-09-03T15:05:21.562978,0.940,-2.850,18.370,-61.1,0.200,-0.300,180.360,1000.0
2025-09-03T15:05:21.680863,0.920,-2.860,18.370,-61.1,0.200,-0.300,180.000,1000.0
2025-09-03T15:05:21.682829,0.940,-2.860,18.370,-61.1,0.200,-0.300,180.000,1000.0
2025-09-03T15:05:21.684828,0.940,-2.860,18.370,-61.1,0.200,-0.300,180.000,1000.0
2025-09-03T15:05:21.685828,0.940,-2.860,18.380,-61.1,0.200,-0.300,180.360,1000.0
2025-09-03T15:05:21.687828,0.940,-2.850,18.380,-61.1,0.200,-0.300,180.360,1000.0
2025-09-03T15:05:21.803943,0.930,-2.860,18.380,-61.1,0.200,-0.300,180.000,1000.0
2025-09-03T15:05:21.804944,0.930,-2.860,18.390,-61.1,0.200,-0.300,180.360,1000.0
2025-09-03T15:05:21.806943,0.950,-2.870,18.390,-61.1,0.200,-0.300,180.000,1000.0
2025-09-03T15:05:21.807945,0.980,-2.850,18.390,-61.1,0.200,-0.300,180.000,1000.0
2025-09-03T15:05:21.809944,0.990,-2.850,18.400,-61.1,0.200,-0.300,180.000,1000.0
2025-09-03T15:05:21.927986,0.980,-2.840,18.410,-61.1,0.200,-0.300,180.000,1000.0
2025-09-03T15:05:21.929987,0.960,-2.840,18.410,-61.1,0.200,-0.300,180.000,1000.0
2025-09-03T15:05:21.930987,0.960,-2.840,18.410,-61.1,0.200,-0.300,180.360,1000.0
2025-09-03T15:05:21.932987,0.960,-2.840,18.410,-61.1,0.200,-0.300,180.000,1000.0
2025-09-03T15:05:21.934030,0.970,-2.860,18.410,-61.2,0.200,-0.300,180.360,1000.0
2025-09-03T15:05:22.037985,0.960,-2.870,18.400,-61.2,0.200,-0.300,180.000,1000.0
2025-09-03T15:05:22.039985,0.950,-2.870,18.400,-61.2,0.200,-0.300,180.000,1000.0
2025-09-03T15:05:22.040989,0.920,-2.860,18.400,-61.2,0.200,-0.300,180.360,1000.0
2025-09-03T15:05:22.042986,0.920,-2.850,18.410,-61.1,0.200,-0.300,180.000,1000.0
2025-09-03T15:05:22.043986,0.930,-2.850,18.410,-61.1,0.200,-0.300,180.000,1000.0
2025-09-03T15:05:22.161574,0.950,-2.860,18.400,-61.1,0.200,-0.300,180.000,1000.0
2025-09-03T15:05:22.162594,0.950,-2.860,18.400,-61.1,0.200,-0.300,180.000,1000.0
2025-09-03T15:05:22.164584,0.950,-2.860,18.400,-61.1,0.200,-0.300,180.360,1000.0
2025-09-03T15:05:22.165585,0.940,-2.850,18.400,-61.1,0.200,-0.300,180.000,1000.0
2025-09-03T15:05:22.166586,0.940,-2.840,18.400,-61.1,0.200,-0.300,180.000,1000.0
2025-09-03T15:05:22.284908,0.950,-2.820,18.400,-61.1,0.200,-0.300,180.000,1000.0
2025-09-03T15:05:22.286907,0.950,-2.820,18.390,-61.1,0.200,-0.300,180.360,1000.0
2025-09-03T15:05:22.287907,0.940,-2.830,18.390,-61.1,0.200,-0.300,180.360,1000.0
2025-09-03T15:05:22.289909,0.940,-2.850,18.400,-61.1,0.200,-0.300,180.360,1000.0
2025-09-03T15:05:22.290908,0.920,-2.850,18.400,-61.1,0.200,-0.300,180.000,1000.0
2025-09-03T15:05:22.408523,0.930,-2.850,18.400,-61.1,0.200,-0.300,180.000,1000.0
2025-09-03T15:05:22.410523,0.940,-2.850,18.400,-61.1,0.200,-0.300,180.000,1000.0
2025-09-03T15:05:22.412524,0.940,-2.860,18.400,-61.2,0.200,-0.300,180.000,1000.0
2025-09-03T15:05:22.414524,0.940,-2.860,18.400,-61.2,0.200,-0.300,180.000,1000.0
2025-09-03T15:05:22.415523,0.940,-2.860,18.400,-61.2,0.200,-0.300,180.000,1000.0
2025-09-03T15:05:22.533522,0.940,-2.860,18.400,-61.2,0.200,-0.300,180.360,1000.0
2025-09-03T15:05:22.534522,0.940,-2.860,18.400,-61.2,0.200,-0.300,180.360,1000.0
2025-09-03T15:05:22.536524,0.950,-2.860,18.400,-61.2,0.200,-0.300,180.360,1000.0
2025-09-03T15:05:22.538523,0.950,-2.860,18.400,-61.2,0.200,-0.300,180.000,1000.0
2025-09-03T15:05:22.539524,0.940,-2.860,18.400,-61.2,0.200,-0.300,180.000,1000.0
2025-09-03T15:05:22.658941,0.940,-2.860,18.400,-61.2,0.200,-0.300,180.000,1000.0
2025-09-03T15:05:22.659941,0.950,-2.860,18.410,-61.2,0.200,-0.300,180.360,1000.0
2025-09-03T15:05:22.661940,0.950,-2.860,18.410,-61.2,0.200,-0.300,180.000,1000.0
2025-09-03T15:05:22.662940,0.940,-2.860,18.400,-61.2,0.200,-0.300,180.000,1000.0
2025-09-03T15:05:22.664943,0.940,-2.860,18.410,-61.1,0.200,-0.300,180.360,1000.0
2025-09-03T15:05:22.780688,0.940,-2.860,18.410,-61.1,0.200,-0.300,180.000,1000.0
2025-09-03T15:05:22.781687,0.940,-2.860,18.410,-61.2,0.200,-0.300,180.000,1000.0
2025-09-03T15:05:22.783688,0.950,-2.870,18.400,-61.2,0.200,-0.300,180.000,1000.0
2025-09-03T15:05:22.784688,0.970,-2.870,18.390,-61.2,0.200,-0.300,180.360,1000.0
2025-09-03T15:05:22.786688,0.970,-2.840,18.370,-61.2,0.200,-0.300,180.360,1000.0
2025-09-03T15:05:22.903559,0.940,-2.810,18.370,-61.2,0.200,-0.300,180.000,1000.0
2025-09-03T15:05:22.905559,0.910,-2.800,18.390,-61.2,0.200,-0.300,180.360,1000.0
2025-09-03T15:05:22.907559,0.890,-2.800,18.400,-61.2,0.200,-0.300,180.000,1000.0
2025-09-03T15:05:22.908568,0.850,-2.790,18.420,-61.1,0.200,-0.300,180.000,1000.0
2025-09-03T15:05:22.910559,0.820,-2.770,18.460,-61.2,0.200,-0.300,180.000,1000.0
2025-09-03T15:05:23.027754,0.790,-2.720,18.530,-61.2,0.200,-0.300,180.000,1000.0
2025-09-03T15:05:23.028753,0.770,-2.680,18.590,-61.2,0.200,-0.300,180.000,1000.0
2025-09-03T15:05:23.030754,0.760,-2.580,18.650,-61.2,0.200,-0.300,180.000,1000.0
2025-09-03T15:05:23.031753,0.770,-2.410,18.760,-61.2,0.200,-0.300,180.360,1000.0
2025-09-03T15:05:23.033756,0.780,-2.130,18.950,-61.2,0.200,-0.300,180.360,1000.0
2025-09-03T15:05:23.150785,0.790,-1.670,19.180,-61.2,0.200,-0.300,180.000,1000.0
2025-09-03T15:05:23.152786,0.740,-1.040,19.460,-61.1,0.200,-0.300,180.360,1000.0
2025-09-03T15:05:23.154786,0.610,-0.390,19.770,-61.1,0.200,-0.300,180.360,1000.0
2025-09-03T15:05:23.156787,0.410,0.230,20.070,-61.1,0.200,-0.300,180.360,1000.0
2025-09-03T15:05:23.159789,0.050,0.740,20.330,-61.1,0.200,-0.300,180.360,1000.0
2025-09-03T15:05:23.274151,-0.580,0.980,20.480,-61.1,0.200,-0.300,180.000,1000.0
2025-09-03T15:05:23.275156,-1.500,0.960,20.560,-61.1,0.200,-0.300,180.000,1000.0
2025-09-03T15:05:23.277159,-2.660,0.770,20.650,-61.1,0.200,-0.300,180.000,1000.0
2025-09-03T15:05:23.279155,-4.060,0.420,20.800,-61.1,0.200,-0.300,180.360,1000.0
2025-09-03T15:05:23.281156,-5.720,-0.030,21.080,-61.1,0.200,-0.300,180.000,1000.0
2025-09-03T15:05:23.400160,-7.540,-0.490,21.560,-61.1,0.200,-0.300,180.000,1000.0
2025-09-03T15:05:23.402167,-9.630,-0.860,22.270,-61.1,0.200,-0.300,180.000,1000.0
2025-09-03T15:05:23.404167,-12.140,-1.210,23.210,-61.1,0.200,-0.300,180.360,1000.0
2025-09-03T15:05:23.406167,-14.720,-1.510,24.090,-61.1,0.200,-0.300,180.360,1000.0
2025-09-03T15:05:23.407165,-17.660,-1.730,25.000,-61.1,0.200,-0.300,180.000,1000.0
2025-09-03T15:05:23.523958,-20.470,-1.890,25.850,-61.1,0.200,-0.300,180.360,1000.0
2025-09-03T15:05:23.525956,-24.210,-2.210,27.050,-61.1,0.200,-0.300,180.360,1000.0
2025-09-03T15:05:23.527958,-27.470,-2.580,28.120,-61.1,0.200,-0.300,180.000,1000.0
2025-09-03T15:05:23.529957,-30.690,-2.910,29.170,-61.1,0.200,-0.300,180.000,1000.0
2025-09-03T15:05:23.531956,-33.590,-3.230,30.180,-61.1,0.200,-0.300,180.000,1000.0
2025-09-03T15:05:23.649550,-36.140,-3.740,31.290,-61.1,0.200,-0.300,180.000,1000.0
2025-09-03T15:05:23.652599,-38.090,-4.380,32.430,-61.1,0.200,-0.300,180.360,1000.0
2025-09-03T15:05:23.655600,-39.510,-5.140,33.570,-61.1,0.200,-0.300,180.000,1000.0
2025-09-03T15:05:23.657598,-40.380,-6.090,34.640,-61.1,0.200,-0.300,180.000,1000.0
2025-09-03T15:05:23.658597,-40.610,-7.060,35.490,-61.1,0.200,-0.300,180.000,1000.0
2025-09-03T15:05:23.772734,-40.200,-7.820,36.010,-61.1,0.200,-0.300,180.360,1000.0
2025-09-03T15:05:23.774732,-39.130,-8.270,36.100,-61.1,0.200,-0.300,180.360,1000.0
2025-09-03T15:05:23.775732,-37.540,-8.350,35.830,-61.2,0.200,-0.300,180.000,1000.0
2025-09-03T15:05:23.776732,-35.290,-8.260,35.340,-61.2,0.200,-0.300,180.360,1000.0
2025-09-03T15:05:23.777733,-32.370,-8.080,34.740,-61.2,0.200,-0.300,180.000,1000.0
2025-09-03T15:05:23.883139,-29.040,-7.900,34.060,-61.2,0.200,-0.300,180.360,1000.0
2025-09-03T15:05:23.884143,-25.420,-7.620,33.300,-61.2,0.200,-0.300,180.360,1000.0
2025-09-03T15:05:23.886145,-21.620,-7.230,32.450,-61.2,0.200,-0.300,180.360,1000.0
2025-09-03T15:05:23.887143,-17.720,-6.930,31.540,-61.2,0.200,-0.300,180.000,1000.0
2025-09-03T15:05:23.889144,-14.040,-6.660,30.620,-61.2,0.200,-0.300,180.000,1000.0
2025-09-03T15:05:24.007213,-10.630,-6.570,29.700,-61.2,0.200,-0.300,180.360,1000.0
2025-09-03T15:05:24.008200,-7.440,-6.450,28.850,-61.2,0.200,-0.300,180.360,1000.0
2025-09-03T15:05:24.010201,-4.620,-6.360,28.150,-61.2,0.200,-0.300,180.000,1000.0
2025-09-03T15:05:24.012204,-2.050,-6.280,27.600,-61.2,0.200,-0.300,180.000,1000.0
2025-09-03T15:05:24.013201,0.270,-6.190,27.190,-61.2,0.200,-0.300,180.000,1000.0
2025-09-03T15:05:24.117729,2.370,-6.000,26.940,-61.2,0.200,-0.300,180.360,1000.0
2025-09-03T15:05:24.119734,4.310,-5.660,26.890,-61.2,0.200,-0.300,180.000,1000.0
2025-09-03T15:05:24.121735,5.990,-5.190,26.920,-61.2,0.200,-0.300,180.360,1000.0
2025-09-03T15:05:24.122735,7.310,-4.680,27.000,-61.2,0.200,-0.300,180.360,1000.0
2025-09-03T15:05:24.123735,8.300,-4.020,27.130,-61.2,0.200,-0.300,180.360,1000.0
2025-09-03T15:05:24.241241,9.000,-3.290,27.330,-61.2,0.200,-0.300,180.000,1000.0
2025-09-03T15:05:24.243251,9.310,-2.540,27.610,-61.2,0.200,-0.300,180.000,1000.0
2025-09-03T15:05:24.245241,9.060,-1.630,28.080,-61.2,0.200,-0.300,180.360,1000.0
2025-09-03T15:05:24.247239,8.270,-0.570,28.730,-61.2,0.200,-0.300,180.000,1000.0
2025-09-03T15:05:24.248239,6.970,0.660,29.500,-61.2,0.200,-0.300,180.000,1000.0
2025-09-03T15:05:24.365680,5.120,1.960,30.250,-61.2,0.200,-0.300,180.360,1000.0
2025-09-03T15:05:24.367678,2.810,3.090,30.750,-61.2,0.200,-0.300,180.360,1000.0
2025-09-03T15:05:24.370679,0.340,3.960,30.900,-61.2,0.200,-0.300,180.360,1000.0
2025-09-03T15:05:24.372681,-2.120,4.680,30.860,-61.2,0.200,-0.300,180.000,1000.0
2025-09-03T15:05:24.373679,-5.030,5.520,30.880,-61.2,0.200,-0.300,180.000,1000.0
2025-09-03T15:05:24.490861,-7.400,6.260,31.140,-61.2,0.200,-0.300,180.000,1000.0
2025-09-03T15:05:24.492865,-9.670,6.960,31.600,-61.2,0.200,-0.300,180.360,1000.0
2025-09-03T15:05:24.494866,-12.320,7.810,32.190,-61.2,0.200,-0.300,180.000,1000.0
2025-09-03T15:05:24.495866,-14.580,8.670,32.460,-61.2,0.200,-0.300,180.000,1000.0
2025-09-03T15:05:24.496870,-17.040,9.730,32.540,-61.2,0.200,-0.300,180.000,1000.0
2025-09-03T15:05:24.614017,-18.750,10.430,32.640,-61.2,0.200,-0.300,180.000,1000.0
2025-09-03T15:05:24.616017,-20.460,11.060,32.830,-61.2,0.200,-0.300,180.000,1000.0
2025-09-03T15:05:24.618018,-22.020,11.630,32.970,-61.2,0.200,-0.300,180.000,1000.0
2025-09-03T15:05:24.620017,-23.280,12.050,33.060,-61.2,0.200,-0.300,180.360,1000.0
2025-09-03T15:05:24.621017,-24.280,12.320,33.230,-61.2,0.200,-0.300,180.360,1000.0
2025-09-03T15:05:24.739022,-24.920,12.450,33.460,-61.2,0.200,-0.300,180.360,1000.0
2025-09-03T15:05:24.741022,-25.510,12.490,33.730,-61.2,0.200,-0.300,180.000,1000.0
2025-09-03T15:05:24.743023,-25.770,12.520,33.840,-61.2,0.200,-0.300,180.360,1000.0
2025-09-03T15:05:24.744023,-25.700,12.450,33.890,-61.2,0.200,-0.300,180.360,1000.0
2025-09-03T15:05:24.746024,-25.150,12.130,33.890,-61.2,0.200,-0.300,180.000,1000.0
2025-09-03T15:05:24.863024,-24.170,11.570,33.890,-61.2,0.200,-0.300,180.000,1000.0
2025-09-03T15:05:24.864022,-22.940,10.950,33.930,-61.2,0.200,-0.300,180.000,1000.0
2025-09-03T15:05:24.866021,-21.280,10.180,34.020,-61.2,0.200,-0.300,180.000,1000.0
2025-09-03T15:05:24.867022,-18.980,9.220,34.040,-61.2,0.200,-0.300,180.360,1000.0
2025-09-03T15:05:24.868028,-16.740,8.350,33.900,-61.2,0.200,-0.300,180.000,1000.0
2025-09-03T15:05:24.986443,-14.440,7.540,33.560,-61.2,0.200,-0.300,180.000,1000.0
2025-09-03T15:05:24.988441,-12.530,6.830,33.100,-61.2,0.200,-0.300,180.000,1000.0
2025-09-03T15:05:24.990443,-10.420,5.940,32.450,-61.2,0.200,-0.300,180.360,1000.0
2025-09-03T15:05:24.992444,-8.250,4.810,31.700,-61.2,0.200,-0.300,180.000,1000.0
2025-09-03T15:05:24.994442,-6.530,3.760,31.090,-61.2,0.200,-0.300,180.000,1000.0
2025-09-03T15:05:25.112443,-5.170,2.790,30.570,-61.2,0.200,-0.300,180.000,1000.0
2025-09-03T15:05:25.114441,-4.140,1.890,30.090,-61.2,0.200,-0.300,180.360,1000.0
2025-09-03T15:05:25.116442,-3.120,0.790,29.470,-61.2,0.200,-0.300,180.360,1000.0
2025-09-03T15:05:25.117443,-2.390,-0.240,28.840,-61.2,0.200,-0.300,180.000,1000.0
2025-09-03T15:05:25.119441,-1.760,-1.310,28.170,-61.2,0.200,-0.300,180.000,1000.0
2025-09-03T15:05:25.239123,-1.280,-2.290,27.600,-61.2,0.200,-0.300,180.360,1000.0
2025-09-03T15:05:25.241128,-0.680,-3.580,26.900,-61.2,0.200,-0.300,180.000,1000.0
2025-09-03T15:05:25.242127,-0.120,-4.660,26.250,-61.2,0.200,-0.300,180.000,1000.0
2025-09-03T15:05:25.244127,0.480,-5.620,25.560,-61.2,0.200,-0.300,180.000,1000.0
2025-09-03T15:05:25.245127,1.110,-6.460,24.840,-61.2,0.200,-0.300,180.000,1000.0
2025-09-03T15:05:25.359602,1.710,-7.110,24.180,-61.2,0.200,-0.300,180.360,1000.0
2025-09-03T15:05:25.361602,2.300,-7.570,23.570,-61.2,0.200,-0.300,180.360,1000.0
2025-09-03T15:05:25.362602,2.850,-7.850,23.020,-61.2,0.200,-0.300,180.360,1000.0
2025-09-03T15:05:25.363602,3.270,-7.970,22.560,-61.2,0.200,-0.300,180.000,1000.0
2025-09-03T15:05:25.365603,3.590,-7.860,22.240,-61.2,0.200,-0.300,180.000,1000.0
2025-09-03T15:05:25.484786,3.760,-7.530,22.100,-61.2,0.200,-0.300,180.360,1000.0
2025-09-03T15:05:25.486784,3.760,-7.000,22.070,-61.2,0.200,-0.300,180.000,1000.0
2025-09-03T15:05:25.488785,3.590,-6.320,22.140,-61.2,0.200,-0.300,180.000,1000.0
2025-09-03T15:05:25.489785,3.250,-5.520,22.320,-61.2,0.200,-0.300,180.000,1000.0
2025-09-03T15:05:25.491785,2.750,-4.640,22.630,-61.2,0.200,-0.300,180.000,1000.0
2025-09-03T15:05:25.607253,2.080,-3.680,23.060,-61.2,0.200,-0.300,180.000,1000.0
2025-09-03T15:05:25.609258,1.230,-2.520,23.660,-61.2,0.200,-0.300,180.000,1000.0
2025-09-03T15:05:25.611257,0.130,-1.180,24.490,-61.2,0.200,-0.300,180.360,1000.0
2025-09-03T15:05:25.612258,-1.300,0.390,25.550,-61.1,0.200,-0.300,180.360,1000.0
2025-09-03T15:05:25.614257,-2.610,1.700,26.430,-61.1,0.200,-0.300,180.360,1000.0
2025-09-03T15:05:25.731634,-5.210,3.970,27.920,-61.1,0.200,-0.300,180.360,1000.0
2025-09-03T15:05:25.733650,-7.550,5.640,29.020,-61.1,0.200,-0.300,180.360,1000.0
2025-09-03T15:05:25.734652,-9.970,7.180,30.060,-61.1,0.200,-0.300,180.000,1000.0
2025-09-03T15:05:25.736650,-12.460,8.570,31.140,-61.1,0.200,-0.300,180.000,1000.0
2025-09-03T15:05:25.737662,-15.080,9.800,32.320,-61.1,0.200,-0.300,180.000,1000.0
2025-09-03T15:05:25.857447,-17.620,10.780,33.500,-61.2,0.200,-0.300,180.360,1000.0
2025-09-03T15:05:25.859446,-20.030,11.550,34.570,-61.2,0.200,-0.300,180.000,1000.0
2025-09-03T15:05:25.861452,-22.360,12.230,35.460,-61.2,0.200,-0.300,180.360,1000.0
2025-09-03T15:05:25.863446,-24.510,12.840,36.150,-61.2,0.200,-0.300,180.000,1000.0
2025-09-03T15:05:25.864447,-25.960,13.240,36.570,-61.2,0.200,-0.300,180.360,1000.0
2025-09-03T15:05:25.979662,-28.110,13.730,37.220,-61.2,0.200,-0.300,180.000,1000.0
2025-09-03T15:05:25.980662,-29.580,13.970,37.700,-61.2,0.200,-0.300,180.000,1000.0
2025-09-03T15:05:25.982698,-30.860,14.060,38.130,-61.2,0.200,-0.300,180.360,1000.0
2025-09-03T15:05:25.983663,-31.960,14.020,38.500,-61.2,0.200,-0.300,180.360,1000.0
2025-09-03T15:05:25.985711,-32.890,13.820,38.830,-61.2,0.200,-0.300,180.000,1000.0
2025-09-03T15:05:26.089961,-33.610,13.500,39.090,-61.2,0.200,-0.300,180.000,1000.0
2025-09-03T15:05:26.091959,-34.150,13.060,39.290,-61.2,0.200,-0.300,180.360,1000.0
2025-09-03T15:05:26.093961,-34.510,12.520,39.480,-61.2,0.200,-0.300,180.360,1000.0
2025-09-03T15:05:26.095962,-34.670,11.850,39.670,-61.2,0.200,-0.300,180.000,1000.0
2025-09-03T15:05:26.096961,-34.600,11.130,39.810,-61.2,0.200,-0.300,180.360,1000.0
2025-09-03T15:05:26.215558,-34.340,10.420,39.880,-61.2,0.200,-0.300,180.000,1000.0
2025-09-03T15:05:26.217556,-33.690,9.440,39.860,-61.2,0.200,-0.300,180.000,1000.0
2025-09-03T15:05:26.219557,-32.780,8.530,39.760,-61.2,0.200,-0.300,180.360,1000.0
2025-09-03T15:05:26.221557,-31.560,7.550,39.560,-61.2,0.200,-0.300,180.000,1000.0
2025-09-03T15:05:26.223556,-30.010,6.470,39.210,-61.2,0.200,-0.300,180.000,1000.0
2025-09-03T15:05:26.337424,-28.020,5.270,38.580,-61.2,0.200,-0.300,180.000,1000.0
2025-09-03T15:05:26.339423,-25.620,4.060,37.590,-61.2,0.200,-0.300,180.000,1000.0
2025-09-03T15:05:26.341423,-22.970,2.910,36.420,-61.2,0.200,-0.300,180.360,1000.0
2025-09-03T15:05:26.343423,-19.860,1.680,35.100,-61.2,0.200,-0.300,180.360,1000.0
2025-09-03T15:05:26.344424,-16.880,0.610,33.880,-61.2,0.200,-0.300,180.000,1000.0
2025-09-03T15:05:26.461068,-12.850,-0.790,32.210,-61.2,0.200,-0.300,180.360,1000.0
2025-09-03T15:05:26.463074,-9.270,-2.050,30.620,-61.2,0.200,-0.300,180.000,1000.0
2025-09-03T15:05:26.466073,-6.280,-3.090,29.220,-61.2,0.200,-0.300,180.360,1000.0
2025-09-03T15:05:26.467073,-2.640,-4.320,27.450,-61.2,0.200,-0.300,180.000,1000.0
2025-09-03T15:05:26.469074,0.280,-5.270,25.960,-61.2,0.200,-0.300,180.000,1000.0
2025-09-03T15:05:26.585694,2.940,-6.050,24.600,-61.2,0.200,-0.300,180.000,1000.0
2025-09-03T15:05:26.587692,5.240,-6.680,23.420,-61.2,0.200,-0.300,180.000,1000.0
2025-09-03T15:05:26.589698,7.120,-7.170,22.510,-61.2,0.200,-0.300,180.360,1000.0
2025-09-03T15:05:26.591693,8.770,-7.420,21.790,-61.2,0.200,-0.300,180.000,1000.0
2025-09-03T15:05:26.593692,10.030,-7.430,21.280,-61.2,0.200,-0.300,180.360,1000.0
2025-09-03T15:05:26.710749,11.410,-7.220,20.730,-61.2,0.200,-0.300,180.360,1000.0
2025-09-03T15:05:26.712748,12.550,-6.810,20.310,-61.2,0.200,-0.300,180.360,1000.0
2025-09-03T15:05:26.714749,13.420,-6.330,20.080,-61.2,0.200,-0.300,180.000,1000.0
2025-09-03T15:05:26.715746,14.080,-5.900,20.050,-61.2,0.200,-0.300,180.000,1000.0
2025-09-03T15:05:26.716746,14.700,-5.440,20.210,-61.2,0.200,-0.300,180.000,1000.0
2025-09-03T15:05:26.834452,15.120,-4.970,20.550,-61.2,0.200,-0.300,180.000,1000.0
2025-09-03T15:05:26.836453,15.320,-4.420,21.150,-61.2,0.200,-0.300,180.000,1000.0
2025-09-03T15:05:26.837452,15.120,-3.830,21.970,-61.2,0.200,-0.300,180.360,1000.0
2025-09-03T15:05:26.839453,14.390,-3.120,23.030,-61.2,0.200,-0.300,180.000,1000.0
2025-09-03T15:05:26.840454,13.060,-2.210,24.400,-61.2,0.200,-0.300,180.360,1000.0
2025-09-03T15:05:26.957491,11.360,-1.220,25.800,-61.2,0.200,-0.300,180.000,1000.0
2025-09-03T15:05:26.959491,8.180,0.310,27.820,-61.2,0.200,-0.300,180.360,1000.0
2025-09-03T15:05:26.960492,5.460,1.380,29.140,-61.2,0.200,-0.300,180.360,1000.0
2025-09-03T15:05:26.962492,2.050,2.640,30.580,-61.1,0.200,-0.300,180.360,1000.0
2025-09-03T15:05:26.964491,-1.090,3.670,31.800,-61.1,0.200,-0.300,180.000,1000.0
2025-09-03T15:05:27.082551,-5.180,4.750,33.260,-61.2,0.200,-0.300,180.360,1000.0
2025-09-03T15:05:27.084550,-9.280,5.610,34.640,-61.2,0.200,-0.300,180.000,1000.0
2025-09-03T15:05:27.086553,-12.470,6.210,35.660,-61.2,0.200,-0.300,180.000,1000.0
2025-09-03T15:05:27.088551,-16.080,6.860,36.790,-61.2,0.200,-0.300,180.000,1000.0
2025-09-03T15:05:27.089550,-19.130,7.350,37.720,-61.2,0.200,-0.300,180.000,1000.0
2025-09-03T15:05:27.207033,-23.200,7.980,38.890,-61.2,0.200,-0.300,180.360,1000.0
2025-09-03T15:05:27.209031,-26.300,8.310,39.720,-61.2,0.200,-0.300,180.360,1000.0
2025-09-03T15:05:27.210030,-29.280,8.500,40.510,-61.2,0.200,-0.300,180.000,1000.0
2025-09-03T15:05:27.212040,-31.360,8.590,41.100,-61.2,0.200,-0.300,180.000,1000.0
2025-09-03T15:05:27.214032,-34.480,8.660,42.100,-61.2,0.200,-0.300,180.360,1000.0
2025-09-03T15:05:27.330800,-36.400,8.720,42.760,-61.2,0.200,-0.300,180.000,1000.0
2025-09-03T15:05:27.332785,-38.410,8.960,43.460,-61.2,0.200,-0.300,180.000,1000.0
2025-09-03T15:05:27.334785,-40.310,9.290,44.100,-61.2,0.200,-0.300,180.000,1000.0
2025-09-03T15:05:27.336788,-41.920,9.450,44.690,-61.2,0.200,-0.300,180.360,1000.0
2025-09-03T15:05:27.338796,-43.280,9.380,45.340,-61.2,0.200,-0.300,180.000,1000.0
2025-09-03T15:05:27.453287,-44.510,9.080,45.970,-61.2,0.200,-0.300,180.000,1000.0
2025-09-03T15:05:27.455289,-45.320,8.700,46.410,-61.2,0.200,-0.300,180.360,1000.0
2025-09-03T15:05:27.458295,-46.370,7.830,47.090,-61.2,0.200,-0.300,180.360,1000.0
2025-09-03T15:05:27.459291,-46.880,6.970,47.520,-61.3,0.200,-0.300,180.360,1000.0
2025-09-03T15:05:27.461288,-47.070,6.070,47.760,-61.3,0.200,-0.300,180.000,1000.0
2025-09-03T15:05:27.578288,-46.890,5.210,47.810,-61.3,0.200,-0.300,180.360,1000.0
2025-09-03T15:05:27.579294,-46.350,4.450,47.710,-61.3,0.200,-0.300,180.000,1000.0
2025-09-03T15:05:27.581287,-45.440,3.770,47.490,-61.3,0.200,-0.300,180.360,1000.0
2025-09-03T15:05:27.582289,-44.300,3.220,47.220,-61.3,0.200,-0.300,180.000,1000.0
2025-09-03T15:05:27.584287,-42.950,2.760,46.850,-61.3,0.200,-0.300,180.360,1000.0
2025-09-03T15:05:27.688286,-41.490,2.400,46.430,-61.3,0.200,-0.300,180.000,1000.0
2025-09-03T15:05:27.690287,-40.040,2.170,45.940,-61.3,0.200,-0.300,180.360,1000.0
2025-09-03T15:05:27.691288,-38.630,2.010,45.430,-61.3,0.200,-0.300,180.000,1000.0
2025-09-03T15:05:27.693289,-37.640,1.920,45.060,-61.3,0.200,-0.300,180.360,1000.0
2025-09-03T15:05:27.695291,-36.230,1.840,44.550,-61.3,0.200,-0.300,180.000,1000.0
2025-09-03T15:05:27.800368,-35.350,1.800,44.240,-61.3,0.200,-0.300,180.360,1000.0
2025-09-03T15:05:27.802370,-34.700,1.840,43.990,-61.3,0.200,-0.300,180.360,1000.0
2025-09-03T15:05:27.803370,-34.230,1.980,43.780,-61.3,0.200,-0.300,180.000,1000.0
2025-09-03T15:05:27.805370,-33.980,2.200,43.600,-61.3,0.200,-0.300,180.000,1000.0
2025-09-03T15:05:27.806369,-33.900,2.510,43.440,-61.3,0.200,-0.300,180.360,1000.0
2025-09-03T15:05:27.924039,-33.920,2.790,43.330,-61.3,0.200,-0.300,180.360,1000.0
2025-09-03T15:05:27.926039,-34.020,3.030,43.240,-61.3,0.200,-0.300,180.360,1000.0
2025-09-03T15:05:27.928040,-34.140,3.220,43.180,-61.3,0.200,-0.300,180.000,1000.0
2025-09-03T15:05:27.929041,-34.250,3.380,43.110,-61.3,0.200,-0.300,180.000,1000.0
2025-09-03T15:05:27.931039,-34.330,3.500,43.050,-61.3,0.200,-0.300,180.000,1000.0
2025-09-03T15:05:28.048519,-34.400,3.600,42.990,-61.2,0.200,-0.300,180.000,1000.0
2025-09-03T15:05:28.050520,-34.470,3.670,42.940,-61.2,0.200,-0.300,180.360,1000.0
2025-09-03T15:05:28.052520,-34.530,3.730,42.900,-61.2,0.200,-0.300,180.360,1000.0
2025-09-03T15:05:28.054520,-34.610,3.770,42.880,-61.2,0.200,-0.300,180.000,1000.0
2025-09-03T15:05:28.056522,-34.710,3.760,42.910,-61.2,0.200,-0.300,180.360,1000.0
2025-09-03T15:05:28.172870,-34.840,3.710,42.960,-61.2,0.200,-0.300,180.000,1000.0
2025-09-03T15:05:28.174870,-34.990,3.650,43.040,-61.2,0.200,-0.300,180.000,1000.0
2025-09-03T15:05:28.176871,-35.160,3.560,43.110,-61.2,0.200,-0.300,180.360,1000.0
2025-09-03T15:05:28.177869,-35.330,3.490,43.150,-61.2,0.200,-0.300,180.000,1000.0
2025-09-03T15:05:28.179869,-35.470,3.430,43.210,-61.2,0.200,-0.300,180.360,1000.0
2025-09-03T15:05:28.295371,-35.610,3.390,43.260,-61.2,0.200,-0.300,180.360,1000.0
2025-09-03T15:05:28.297370,-35.710,3.360,43.320,-61.2,0.200,-0.300,180.360,1000.0
2025-09-03T15:05:28.299372,-35.780,3.350,43.380,-61.2,0.200,-0.300,180.000,1000.0
2025-09-03T15:05:28.301371,-35.810,3.370,43.440,-61.2,0.200,-0.300,180.360,1000.0
2025-09-03T15:05:28.302372,-35.820,3.440,43.440,-61.2,0.200,-0.300,180.000,1000.0
2025-09-03T15:05:28.418699,-35.820,3.530,43.440,-61.2,0.200,-0.300,180.360,1000.0
2025-09-03T15:05:28.419698,-35.820,3.620,43.420,-61.2,0.200,-0.300,180.000,1000.0
2025-09-03T15:05:28.421698,-35.830,3.710,43.390,-61.2,0.200,-0.300,180.000,1000.0
2025-09-03T15:05:28.422698,-35.830,3.800,43.330,-61.3,0.200,-0.300,180.000,1000.0
2025-09-03T15:05:28.424699,-35.830,3.870,43.300,-61.2,0.200,-0.300,180.360,1000.0
2025-09-03T15:05:28.542017,-35.820,3.910,43.280,-61.2,0.200,-0.300,180.000,1000.0
2025-09-03T15:05:28.543017,-35.790,3.960,43.270,-61.2,0.200,-0.300,180.000,1000.0
2025-09-03T15:05:28.544016,-35.780,4.020,43.250,-61.2,0.200,-0.300,180.000,1000.0
2025-09-03T15:05:28.546017,-35.770,4.090,43.210,-61.2,0.200,-0.300,180.000,1000.0
2025-09-03T15:05:28.547017,-35.800,4.140,43.170,-61.2,0.200,-0.300,180.000,1000.0
2025-09-03T15:05:28.665154,-35.840,4.180,43.170,-61.2,0.200,-0.300,180.360,1000.0
2025-09-03T15:05:28.667189,-35.890,4.220,43.180,-61.3,0.200,-0.300,180.360,1000.0
2025-09-03T15:05:28.670170,-35.930,4.290,43.180,-61.3,0.200,-0.300,180.000,1000.0
2025-09-03T15:05:28.671162,-35.950,4.370,43.170,-61.3,0.200,-0.300,180.360,1000.0
2025-09-03T15:05:28.673163,-35.960,4.480,43.160,-61.3,0.200,-0.300,180.000,1000.0
2025-09-03T15:05:28.788523,-35.960,4.550,43.150,-61.3,0.200,-0.300,180.000,1000.0
2025-09-03T15:05:28.790522,-35.960,4.600,43.170,-61.3,0.200,-0.300,180.360,1000.0
2025-09-03T15:05:28.792523,-35.950,4.600,43.190,-61.3,0.200,-0.300,180.000,1000.0
2025-09-03T15:05:28.793521,-35.960,4.590,43.200,-61.3,0.200,-0.300,180.360,1000.0
2025-09-03T15:05:28.795520,-35.960,4.600,43.190,-61.3,0.200,-0.300,180.360,1000.0
2025-09-03T15:05:28.911522,-35.970,4.600,43.190,-61.3,0.200,-0.300,180.000,1000.0
2025-09-03T15:05:28.912530,-36.000,4.590,43.210,-61.3,0.200,-0.300,180.360,1000.0
2025-09-03T15:05:28.914523,-36.050,4.540,43.270,-61.3,0.200,-0.300,180.000,1000.0
2025-09-03T15:05:28.915523,-36.130,4.470,43.330,-61.3,0.200,-0.300,180.360,1000.0
2025-09-03T15:05:28.917521,-36.240,4.400,43.400,-61.3,0.200,-0.300,180.000,1000.0
2025-09-03T15:05:29.034522,-36.370,4.340,43.450,-61.3,0.200,-0.300,180.000,1000.0
2025-09-03T15:05:29.036522,-36.490,4.290,43.510,-61.3,0.200,-0.300,180.360,1000.0
2025-09-03T15:05:29.037523,-36.620,4.260,43.560,-61.3,0.200,-0.300,180.000,1000.0
2025-09-03T15:05:29.040524,-36.730,4.250,43.600,-61.3,0.200,-0.300,180.000,1000.0
2025-09-03T15:05:29.041524,-36.830,4.230,43.640,-61.3,0.200,-0.300,180.360,1000.0
2025-09-03T15:05:29.159786,-36.930,4.190,43.680,-61.3,0.200,-0.300,180.000,1000.0
2025-09-03T15:05:29.162788,-37.000,4.140,43.750,-61.3,0.200,-0.300,180.360,1000.0
2025-09-03T15:05:29.165789,-37.050,4.110,43.800,-61.3,0.200,-0.300,180.360,1000.0
2025-09-03T15:05:29.167789,-37.050,4.120,43.820,-61.3,0.200,-0.300,180.000,1000.0
2025-09-03T15:05:29.168819,-37.030,4.180,43.800,-61.3,0.200,-0.300,180.000,1000.0
2025-09-03T15:05:29.283734,-36.970,4.280,43.760,-61.3,0.200,-0.300,180.000,1000.0
2025-09-03T15:05:29.285732,-36.890,4.370,43.720,-61.3,0.200,-0.300,180.360,1000.0
2025-09-03T15:05:29.287735,-36.810,4.460,43.680,-61.3,0.200,-0.300,180.360,1000.0
2025-09-03T15:05:29.289736,-36.750,4.550,43.650,-61.3,0.200,-0.300,180.000,1000.0
2025-09-03T15:05:29.290742,-36.710,4.610,43.630,-61.3,0.200,-0.300,180.360,1000.0
2025-09-03T15:05:29.408613,-36.700,4.680,43.590,-61.3,0.200,-0.300,180.000,1000.0
2025-09-03T15:05:29.410609,-36.720,4.740,43.570,-61.3,0.200,-0.300,180.360,1000.0
2025-09-03T15:05:29.412612,-36.770,4.790,43.570,-61.3,0.200,-0.300,180.000,1000.0
2025-09-03T15:05:29.414610,-36.850,4.840,43.590,-61.3,0.200,-0.300,180.000,1000.0
2025-09-03T15:05:29.415611,-36.920,4.880,43.600,-61.3,0.200,-0.300,180.000,1000.0
2025-09-03T15:05:29.531593,-37.000,4.890,43.600,-61.3,0.200,-0.300,180.360,1000.0
2025-09-03T15:05:29.532586,-37.070,4.900,43.600,-61.3,0.200,-0.300,180.360,1000.0
2025-09-03T15:05:29.534585,-37.130,4.910,43.600,-61.3,0.200,-0.300,180.000,1000.0
2025-09-03T15:05:29.535555,-37.170,4.900,43.610,-61.3,0.200,-0.300,180.360,1000.0
2025-09-03T15:05:29.536552,-37.190,4.890,43.620,-61.3,0.200,-0.300,180.360,1000.0
2025-09-03T15:05:29.654863,-37.200,4.870,43.640,-61.3,0.200,-0.300,180.360,1000.0
2025-09-03T15:05:29.657861,-37.200,4.860,43.650,-61.3,0.200,-0.300,180.360,1000.0
2025-09-03T15:05:29.659861,-37.170,4.860,43.650,-61.3,0.200,-0.300,180.000,1000.0
2025-09-03T15:05:29.660861,-37.150,4.840,43.660,-61.3,0.200,-0.300,180.360,1000.0
2025-09-03T15:05:29.662859,-37.120,4.800,43.680,-61.3,0.200,-0.300,180.360,1000.0
2025-09-03T15:05:29.776662,-37.110,4.760,43.710,-61.3,0.200,-0.300,180.360,1000.0
2025-09-03T15:05:29.778664,-37.140,4.700,43.750,-61.3,0.200,-0.300,180.000,1000.0
2025-09-03T15:05:29.779663,-37.180,4.680,43.770,-61.3,0.200,-0.300,180.360,1000.0
2025-09-03T15:05:29.781666,-37.250,4.670,43.780,-61.3,0.200,-0.300,180.000,1000.0
2025-09-03T15:05:29.783662,-37.340,4.680,43.790,-61.3,0.200,-0.300,180.000,1000.0
2025-09-03T15:05:29.900898,-37.430,4.660,43.800,-61.3,0.200,-0.300,180.360,1000.0
2025-09-03T15:05:29.902898,-37.500,4.650,43.800,-61.3,0.200,-0.300,180.360,1000.0
2025-09-03T15:05:29.903899,-37.590,4.640,43.790,-61.3,0.200,-0.300,180.360,1000.0
2025-09-03T15:05:29.905898,-37.660,4.630,43.790,-61.3,0.200,-0.300,180.360,1000.0
2025-09-03T15:05:29.907905,-37.700,4.630,43.800,-61.3,0.200,-0.300,180.000,1000.0
2025-09-03T15:05:30.024903,-37.720,4.630,43.800,-61.3,0.200,-0.300,180.000,1000.0
2025-09-03T15:05:30.026896,-37.750,4.640,43.800,-61.3,0.200,-0.300,180.000,1000.0
2025-09-03T15:05:30.028898,-37.770,4.650,43.790,-61.3,0.200,-0.300,180.360,1000.0
2025-09-03T15:05:30.030900,-37.780,4.670,43.770,-61.3,0.200,-0.300,180.000,1000.0
2025-09-03T15:05:30.031899,-37.800,4.680,43.780,-61.3,0.200,-0.300,180.360,1000.0
2025-09-03T15:05:30.148320,-37.820,4.690,43.780,-61.3,0.200,-0.300,180.360,1000.0
2025-09-03T15:05:30.150319,-37.830,4.720,43.790,-61.3,0.200,-0.300,180.360,1000.0
2025-09-03T15:05:30.152319,-37.860,4.730,43.780,-61.3,0.200,-0.300,180.000,1000.0
2025-09-03T15:05:30.154319,-37.880,4.750,43.780,-61.3,0.200,-0.300,180.360,1000.0
2025-09-03T15:05:30.156322,-37.900,4.780,43.780,-61.3,0.200,-0.300,180.360,1000.0
2025-09-03T15:05:30.272830,-37.910,4.800,43.770,-61.3,0.200,-0.300,180.000,1000.0
2025-09-03T15:05:30.274632,-37.930,4.820,43.760,-61.3,0.200,-0.300,180.000,1000.0
2025-09-03T15:05:30.275633,-37.930,4.840,43.750,-61.3,0.200,-0.300,180.360,1000.0
2025-09-03T15:05:30.277634,-37.920,4.860,43.750,-61.3,0.200,-0.300,180.000,1000.0
2025-09-03T15:05:30.278633,-37.900,4.890,43.740,-61.3,0.200,-0.300,180.360,1000.0
2025-09-03T15:05:30.397851,-37.880,4.900,43.750,-61.3,0.200,-0.300,180.360,1000.0
2025-09-03T15:05:30.399796,-37.870,4.920,43.760,-61.3,0.200,-0.300,180.000,1000.0
2025-09-03T15:05:30.401797,-37.900,4.920,43.770,-61.3,0.200,-0.300,180.360,1000.0
2025-09-03T15:05:30.403796,-37.940,4.900,43.790,-61.3,0.200,-0.300,180.360,1000.0
2025-09-03T15:05:30.404810,-37.990,4.890,43.790,-61.3,0.200,-0.300,180.000,1000.0
2025-09-03T15:05:30.521709,-38.050,4.880,43.790,-61.3,0.200,-0.300,180.360,1000.0
2025-09-03T15:05:30.523708,-38.100,4.860,43.800,-61.3,0.200,-0.300,180.000,1000.0
2025-09-03T15:05:30.525706,-38.160,4.850,43.810,-61.3,0.200,-0.300,180.360,1000.0
2025-09-03T15:05:30.526706,-38.210,4.860,43.810,-61.3,0.200,-0.300,180.000,1000.0
2025-09-03T15:05:30.527708,-38.230,4.870,43.790,-61.3,0.200,-0.300,180.000,1000.0
2025-09-03T15:05:30.646176,-38.230,4.900,43.780,-61.3,0.200,-0.300,180.360,1000.0
2025-09-03T15:05:30.647174,-38.200,4.930,43.770,-61.3,0.200,-0.300,180.000,1000.0
2025-09-03T15:05:30.649175,-38.160,4.950,43.770,-61.3,0.200,-0.300,180.360,1000.0
2025-09-03T15:05:30.650175,-38.120,4.950,43.770,-61.3,0.200,-0.300,180.360,1000.0
2025-09-03T15:05:30.652175,-38.090,4.940,43.790,-61.3,0.200,-0.300,180.360,1000.0
2025-09-03T15:05:30.769844,-38.080,4.910,43.810,-61.3,0.200,-0.300,180.360,1000.0
2025-09-03T15:05:30.771844,-38.070,4.860,43.860,-61.3,0.200,-0.300,180.360,1000.0
2025-09-03T15:05:30.773843,-38.080,4.840,43.880,-61.3,0.200,-0.300,180.360,1000.0
2025-09-03T15:05:30.775846,-38.110,4.820,43.880,-61.3,0.200,-0.300,180.000,1000.0
2025-09-03T15:05:30.776851,-38.130,4.830,43.860,-61.3,0.200,-0.300,180.360,1000.0
2025-09-03T15:05:30.892881,-38.150,4.830,43.840,-61.3,0.200,-0.300,180.360,1000.0
2025-09-03T15:05:30.895279,-38.170,4.830,43.850,-61.2,0.200,-0.300,180.000,1000.0
2025-09-03T15:05:30.897280,-38.200,4.800,43.880,-61.2,0.200,-0.300,180.000,1000.0
2025-09-03T15:05:30.898278,-38.210,4.780,43.900,-61.2,0.200,-0.300,180.360,1000.0
2025-09-03T15:05:30.899277,-38.180,4.790,43.890,-61.2,0.200,-0.300,180.360,1000.0
2025-09-03T15:05:31.017713,-38.140,4.820,43.870,-61.2,0.200,-0.300,180.000,1000.0
2025-09-03T15:05:31.018712,-38.070,4.870,43.850,-61.2,0.200,-0.300,180.000,1000.0
2025-09-03T15:05:31.020713,-38.010,4.930,43.820,-61.2,0.200,-0.300,180.000,1000.0
2025-09-03T15:05:31.022715,-37.960,5.020,43.780,-61.2,0.200,-0.300,180.000,1000.0
2025-09-03T15:05:31.024714,-37.920,5.080,43.770,-61.2,0.200,-0.300,180.360,1000.0
2025-09-03T15:05:31.141793,-37.910,5.150,43.750,-61.2,0.200,-0.300,180.360,1000.0
2025-09-03T15:05:31.143792,-37.910,5.190,43.750,-61.2,0.200,-0.300,180.360,1000.0
2025-09-03T15:05:31.145795,-37.930,5.230,43.750,-61.3,0.200,-0.300,180.000,1000.0
2025-09-03T15:05:31.146794,-37.970,5.240,43.750,-61.3,0.200,-0.300,180.000,1000.0
2025-09-03T15:05:31.148793,-37.990,5.220,43.770,-61.3,0.200,-0.300,180.360,1000.0
2025-09-03T15:05:31.265313,-38.020,5.180,43.800,-61.2,0.200,-0.300,180.360,1000.0
2025-09-03T15:05:31.267381,-38.070,5.150,43.820,-61.2,0.200,-0.300,180.000,1000.0
2025-09-03T15:05:31.270369,-38.120,5.110,43.820,-61.2,0.200,-0.300,180.000,1000.0
2025-09-03T15:05:31.272370,-38.170,5.050,43.830,-61.2,0.200,-0.300,180.000,1000.0
2025-09-03T15:05:31.273368,-38.230,5.020,43.840,-61.2,0.200,-0.300,180.360,1000.0
2025-09-03T15:05:31.389161,-38.260,4.990,43.840,-61.2,0.200,-0.300,180.000,1000.0
2025-09-03T15:05:31.391160,-38.290,4.930,43.870,-61.2,0.200,-0.300,180.000,1000.0
2025-09-03T15:05:31.394164,-38.310,4.880,43.880,-61.2,0.200,-0.300,180.360,1000.0
2025-09-03T15:05:31.395161,-38.320,4.840,43.880,-61.2,0.200,-0.300,180.360,1000.0
2025-09-03T15:05:31.396159,-38.310,4.810,43.870,-61.2,0.200,-0.300,180.360,1000.0
2025-09-03T15:05:31.511947,-38.280,4.810,43.870,-61.2,0.200,-0.300,180.000,1000.0
2025-09-03T15:05:31.513947,-38.240,4.820,43.870,-61.3,0.200,-0.300,180.360,1000.0
2025-09-03T15:05:31.514947,-38.180,4.830,43.870,-61.3,0.200,-0.300,180.000,1000.0
2025-09-03T15:05:31.516948,-38.130,4.830,43.870,-61.3,0.200,-0.300,180.360,1000.0
2025-09-03T15:05:31.517948,-38.100,4.810,43.880,-61.3,0.200,-0.300,180.360,1000.0
2025-09-03T15:05:31.622651,-38.090,4.800,43.910,-61.3,0.200,-0.300,180.000,1000.0
2025-09-03T15:05:31.624650,-38.110,4.790,43.940,-61.3,0.200,-0.300,180.360,1000.0
2025-09-03T15:05:31.625652,-38.140,4.820,43.950,-61.3,0.200,-0.300,180.000,1000.0
2025-09-03T15:05:31.627655,-38.170,4.920,43.910,-61.3,0.200,-0.300,180.360,1000.0
2025-09-03T15:05:31.629660,-38.190,4.990,43.880,-61.3,0.200,-0.300,180.000,1000.0
2025-09-03T15:05:31.734406,-38.220,5.070,43.860,-61.3,0.200,-0.300,180.000,1000.0
2025-09-03T15:05:31.736405,-38.210,5.170,43.830,-61.3,0.200,-0.300,180.000,1000.0
2025-09-03T15:05:31.738404,-38.180,5.290,43.780,-61.3,0.200,-0.300,180.360,1000.0
2025-09-03T15:05:31.739403,-38.110,5.450,43.710,-61.3,0.200,-0.300,180.000,1000.0
2025-09-03T15:05:31.741415,-38.020,5.620,43.640,-61.3,0.200,-0.300,180.360,1000.0
2025-09-03T15:05:31.856370,-37.950,5.780,43.580,-61.3,0.200,-0.300,180.000,1000.0
2025-09-03T15:05:31.860376,-37.910,5.880,43.540,-61.3,0.200,-0.300,180.360,1000.0
2025-09-03T15:05:31.864378,-37.900,5.980,43.500,-61.3,0.200,-0.300,180.000,1000.0
2025-09-03T15:05:31.865377,-37.940,6.030,43.490,-61.3,0.200,-0.300,180.360,1000.0
2025-09-03T15:05:31.866377,-38.000,6.050,43.510,-61.3,0.200,-0.300,180.000,1000.0
2025-09-03T15:05:31.979550,-38.070,6.050,43.540,-61.3,0.200,-0.300,180.000,1000.0
2025-09-03T15:05:31.981493,-38.140,6.060,43.540,-61.3,0.200,-0.300,180.000,1000.0
2025-09-03T15:05:31.983495,-38.180,6.040,43.540,-61.3,0.200,-0.300,180.360,1000.0
2025-09-03T15:05:31.984495,-38.210,6.020,43.550,-61.3,0.200,-0.300,180.000,1000.0
2025-09-03T15:05:31.986494,-38.220,5.940,43.580,-61.3,0.200,-0.300,180.000,1000.0
2025-09-03T15:05:32.103543,-38.220,5.880,43.600,-61.3,0.200,-0.300,180.360,1000.0
2025-09-03T15:05:32.105493,-38.200,5.790,43.630,-61.3,0.200,-0.300,180.000,1000.0
2025-09-03T15:05:32.107494,-38.180,5.730,43.640,-61.3,0.200,-0.300,180.360,1000.0
2025-09-03T15:05:32.109494,-38.160,5.670,43.650,-61.3,0.200,-0.300,180.360,1000.0
2025-09-03T15:05:32.110494,-38.160,5.630,43.660,-61.3,0.200,-0.300,180.000,1000.0
2025-09-03T15:05:32.227823,-38.150,5.610,43.670,-61.3,0.200,-0.300,180.360,1000.0
2025-09-03T15:05:32.228827,-38.140,5.620,43.670,-61.3,0.200,-0.300,180.360,1000.0
2025-09-03T15:05:32.230828,-38.120,5.660,43.660,-61.3,0.200,-0.300,180.360,1000.0
2025-09-03T15:05:32.231828,-38.110,5.680,43.650,-61.3,0.200,-0.300,180.000,1000.0
2025-09-03T15:05:32.232827,-38.120,5.680,43.650,-61.3,0.200,-0.300,180.000,1000.0
2025-09-03T15:05:32.337411,-38.140,5.670,43.650,-61.3,0.200,-0.300,180.360,1000.0
2025-09-03T15:05:32.339410,-38.150,5.650,43.660,-61.3,0.200,-0.300,180.360,1000.0
2025-09-03T15:05:32.341413,-38.150,5.660,43.670,-61.3,0.200,-0.300,180.000,1000.0
2025-09-03T15:05:32.342421,-38.140,5.690,43.670,-61.3,0.200,-0.300,180.000,1000.0
2025-09-03T15:05:32.344411,-38.130,5.700,43.670,-61.3,0.200,-0.300,180.000,1000.0
2025-09-03T15:05:32.462412,-38.140,5.700,43.670,-61.3,0.200,-0.300,180.360,1000.0
2025-09-03T15:05:32.464412,-38.150,5.670,43.670,-61.2,0.200,-0.300,180.360,1000.0
2025-09-03T15:05:32.467414,-38.150,5.650,43.680,-61.2,0.200,-0.300,180.000,1000.0
2025-09-03T15:05:32.468410,-38.160,5.600,43.690,-61.2,0.200,-0.300,180.000,1000.0
2025-09-03T15:05:32.470410,-38.170,5.550,43.730,-61.2,0.200,-0.300,180.000,1000.0
2025-09-03T15:05:32.583625,-38.190,5.500,43.760,-61.2,0.200,-0.300,180.000,1000.0
2025-09-03T15:05:32.585618,-38.210,5.430,43.780,-61.2,0.200,-0.300,180.000,1000.0
2025-09-03T15:05:32.586625,-38.260,5.350,43.800,-61.2,0.200,-0.300,180.360,1000.0
2025-09-03T15:05:32.587618,-38.320,5.270,43.830,-61.3,0.200,-0.300,180.000,1000.0
2025-09-03T15:05:32.589618,-38.380,5.190,43.870,-61.3,0.200,-0.300,180.360,1000.0
2025-09-03T15:05:32.694618,-38.420,5.110,43.910,-61.3,0.200,-0.300,180.000,1000.0
2025-09-03T15:05:32.696617,-38.450,5.080,43.930,-61.3,0.200,-0.300,180.000,1000.0
2025-09-03T15:05:32.697629,-38.470,5.070,43.930,-61.3,0.200,-0.300,180.000,1000.0
2025-09-03T15:05:32.699618,-38.490,5.070,43.940,-61.3,0.200,-0.300,180.360,1000.0
2025-09-03T15:05:32.700617,-38.490,5.080,43.960,-61.3,0.200,-0.300,180.000,1000.0
2025-09-03T15:05:32.818951,-38.490,5.100,43.950,-61.2,0.200,-0.300,180.000,1000.0
2025-09-03T15:05:32.819953,-38.470,5.150,43.930,-61.2,0.200,-0.300,180.000,1000.0
2025-09-03T15:05:32.821954,-38.450,5.190,43.920,-61.2,0.200,-0.300,180.000,1000.0
2025-09-03T15:05:32.822953,-38.430,5.190,43.920,-61.2,0.200,-0.300,180.360,1000.0
2025-09-03T15:05:32.824956,-38.410,5.210,43.930,-61.2,0.200,-0.300,180.000,1000.0
2025-09-03T15:05:32.943328,-38.400,5.200,43.930,-61.2,0.200,-0.300,180.360,1000.0
2025-09-03T15:05:32.945328,-38.400,5.220,43.930,-61.2,0.200,-0.300,180.360,1000.0
2025-09-03T15:05:32.946330,-38.420,5.230,43.940,-61.3,0.200,-0.300,180.000,1000.0
2025-09-03T15:05:32.948329,-38.440,5.240,43.950,-61.2,0.200,-0.300,180.360,1000.0
2025-09-03T15:05:32.950338,-38.480,5.200,43.980,-61.2,0.200,-0.300,180.360,1000.0
2025-09-03T15:05:33.068325,-38.510,5.110,43.990,-61.2,0.200,-0.300,180.000,1000.0
2025-09-03T15:05:33.069326,-38.560,5.020,44.000,-61.2,0.200,-0.300,180.000,1000.0
2025-09-03T15:05:33.071326,-38.610,4.910,44.010,-61.2,0.200,-0.300,180.000,1000.0
2025-09-03T15:05:33.072324,-38.650,4.810,44.020,-61.2,0.200,-0.300,180.360,1000.0
2025-09-03T15:05:33.073326,-38.700,4.720,44.060,-61.3,0.200,-0.300,180.000,1000.0
2025-09-03T15:05:33.178275,-38.770,4.670,44.100,-61.3,0.200,-0.300,180.000,1000.0
2025-09-03T15:05:33.180276,-38.920,4.560,44.220,-61.3,0.200,-0.300,180.000,1000.0
2025-09-03T15:05:33.181277,-38.940,4.530,44.280,-61.3,0.200,-0.300,180.360,1000.0
2025-09-03T15:05:33.286309,-38.930,4.530,44.310,-61.3,0.200,-0.300,180.000,1000.0
2025-09-03T15:05:33.288307,-38.910,4.550,44.290,-61.3,0.200,-0.300,180.000,1000.0
2025-09-03T15:05:33.290309,-38.870,4.610,44.260,-61.2,0.200,-0.300,180.000,1000.0
2025-09-03T15:05:33.292312,-38.810,4.650,44.220,-61.3,0.200,-0.300,180.000,1000.0
2025-09-03T15:05:33.293308,-38.720,4.700,44.190,-61.3,0.200,-0.300,180.360,1000.0
2025-09-03T15:05:33.410692,-38.610,4.760,44.160,-61.3,0.200,-0.300,180.000,1000.0
2025-09-03T15:05:33.412696,-38.500,4.810,44.110,-61.3,0.200,-0.300,180.000,1000.0
2025-09-03T15:05:33.414693,-38.370,4.890,44.050,-61.2,0.200,-0.300,180.360,1000.0
2025-09-03T15:05:33.416691,-38.220,4.970,43.970,-61.2,0.200,-0.300,180.360,1000.0
2025-09-03T15:05:33.418691,-38.030,5.060,43.880,-61.2,0.200,-0.300,180.360,1000.0
2025-09-03T15:05:33.535100,-37.750,5.130,43.790,-61.2,0.200,-0.300,180.000,1000.0
2025-09-03T15:05:33.537260,-37.350,5.200,43.690,-61.2,0.200,-0.300,180.360,1000.0
2025-09-03T15:05:33.539262,-36.860,5.220,43.630,-61.2,0.200,-0.300,180.000,1000.0
2025-09-03T15:05:33.541263,-36.280,5.190,43.580,-61.3,0.200,-0.300,180.000,1000.0
2025-09-03T15:05:33.542261,-35.640,5.120,43.530,-61.3,0.200,-0.300,180.360,1000.0
2025-09-03T15:05:33.659125,-34.950,5.020,43.450,-61.3,0.200,-0.300,180.360,1000.0
2025-09-03T15:05:33.661123,-34.170,4.840,43.330,-61.3,0.200,-0.300,180.360,1000.0
2025-09-03T15:05:33.664124,-33.360,4.660,43.170,-61.3,0.200,-0.300,180.000,1000.0
2025-09-03T15:05:33.666123,-32.400,4.420,42.920,-61.3,0.200,-0.300,180.360,1000.0
2025-09-03T15:05:33.668126,-31.290,4.160,42.640,-61.2,0.200,-0.300,180.360,1000.0
2025-09-03T15:05:33.783023,-30.040,3.890,42.360,-61.2,0.200,-0.300,180.360,1000.0
2025-09-03T15:05:33.785022,-28.630,3.680,42.100,-61.2,0.200,-0.300,180.000,1000.0
2025-09-03T15:05:33.787025,-27.110,3.450,41.820,-61.2,0.200,-0.300,180.000,1000.0
2025-09-03T15:05:33.789023,-25.220,3.130,41.340,-61.2,0.200,-0.300,180.000,1000.0
2025-09-03T15:05:33.791022,-22.930,2.810,40.580,-61.2,0.200,-0.300,180.360,1000.0
2025-09-03T15:05:33.907224,-20.930,2.620,39.920,-61.2,0.200,-0.300,180.360,1000.0
2025-09-03T15:05:33.909192,-17.290,2.260,38.930,-61.2,0.200,-0.300,180.360,1000.0
2025-09-03T15:05:33.911193,-14.200,1.990,38.310,-61.2,0.200,-0.300,180.360,1000.0
2025-09-03T15:05:33.913192,-11.110,1.780,37.690,-61.2,0.200,-0.300,180.000,1000.0
2025-09-03T15:05:33.915191,-7.790,1.710,36.910,-61.3,0.200,-0.300,180.360,1000.0
2025-09-03T15:05:34.033101,-5.780,1.720,36.360,-61.3,0.200,-0.300,180.000,1000.0
2025-09-03T15:05:34.034102,-3.070,1.700,35.660,-61.3,0.200,-0.300,180.000,1000.0
2025-09-03T15:05:34.036102,-0.860,1.730,35.230,-61.3,0.200,-0.300,180.360,1000.0
2025-09-03T15:05:34.037102,0.730,1.820,34.990,-61.3,0.200,-0.300,180.360,1000.0
2025-09-03T15:05:34.039102,2.470,2.080,34.740,-61.3,0.200,-0.300,180.000,1000.0
2025-09-03T15:05:34.156025,4.080,2.330,34.500,-61.3,0.200,-0.300,180.360,1000.0
2025-09-03T15:05:34.158025,5.790,2.590,34.360,-61.3,0.200,-0.300,180.000,1000.0
2025-09-03T15:05:34.161025,7.110,2.720,34.340,-61.3,0.200,-0.300,180.000,1000.0
2025-09-03T15:05:34.162025,8.780,2.860,34.350,-61.2,0.200,-0.300,180.360,1000.0
2025-09-03T15:05:34.164025,9.910,2.990,34.320,-61.2,0.200,-0.300,180.000,1000.0
2025-09-03T15:05:34.279108,11.640,3.270,34.240,-61.2,0.200,-0.300,180.000,1000.0
2025-09-03T15:05:34.280109,13.210,3.520,34.200,-61.2,0.200,-0.300,180.000,1000.0
2025-09-03T15:05:34.282111,14.870,3.700,34.180,-61.2,0.200,-0.300,180.360,1000.0
2025-09-03T15:05:34.284109,16.320,3.850,34.200,-61.2,0.200,-0.300,180.000,1000.0
2025-09-03T15:05:34.285109,17.550,4.010,34.260,-61.2,0.200,-0.300,180.000,1000.0
2025-09-03T15:05:34.401248,18.880,4.280,34.420,-61.2,0.200,-0.300,180.000,1000.0
2025-09-03T15:05:34.403247,20.090,4.590,34.650,-61.2,0.200,-0.300,180.000,1000.0
2025-09-03T15:05:34.405245,21.170,4.940,34.890,-61.2,0.200,-0.300,180.360,1000.0
2025-09-03T15:05:34.407245,22.150,5.280,35.190,-61.2,0.200,-0.300,180.360,1000.0
2025-09-03T15:05:34.408244,23.060,5.650,35.550,-61.3,0.200,-0.300,180.360,1000.0
2025-09-03T15:05:34.524153,23.830,6.060,35.980,-61.3,0.200,-0.300,180.000,1000.0
2025-09-03T15:05:34.526151,24.440,6.450,36.400,-61.3,0.200,-0.300,180.000,1000.0
2025-09-03T15:05:34.527165,25.010,6.810,36.800,-61.3,0.200,-0.300,180.000,1000.0
2025-09-03T15:05:34.528152,25.630,7.130,37.200,-61.3,0.200,-0.300,180.360,1000.0
2025-09-03T15:05:34.530152,26.110,7.380,37.570,-61.3,0.200,-0.300,180.000,1000.0
2025-09-03T15:05:34.645505,26.440,7.560,37.910,-61.3,0.200,-0.300,180.000,1000.0
2025-09-03T15:05:34.647507,26.680,7.680,38.180,-61.3,0.200,-0.300,180.360,1000.0
2025-09-03T15:05:34.648507,26.820,7.770,38.400,-61.3,0.200,-0.300,180.000,1000.0
2025-09-03T15:05:34.650508,26.830,7.850,38.560,-61.3,0.200,-0.300,180.360,1000.0
2025-09-03T15:05:34.651507,26.710,7.920,38.680,-61.3,0.200,-0.300,180.000,1000.0
2025-09-03T15:05:34.769450,26.450,7.910,38.740,-61.3,0.200,-0.300,180.000,1000.0
2025-09-03T15:05:34.771452,26.120,7.810,38.740,-61.3,0.200,-0.300,180.000,1000.0
2025-09-03T15:05:34.772449,25.780,7.660,38.740,-61.3,0.200,-0.300,180.360,1000.0
2025-09-03T15:05:34.774450,25.440,7.510,38.760,-61.3,0.200,-0.300,180.000,1000.0
2025-09-03T15:05:34.776453,25.100,7.330,38.790,-61.3,0.200,-0.300,180.360,1000.0
2025-09-03T15:05:34.894865,24.800,7.110,38.750,-61.3,0.200,-0.300,180.360,1000.0
2025-09-03T15:05:34.895865,24.590,6.900,38.660,-61.3,0.200,-0.300,180.000,1000.0
2025-09-03T15:05:34.897864,24.430,6.520,38.430,-61.3,0.200,-0.300,180.000,1000.0
2025-09-03T15:05:34.899864,24.410,6.400,38.380,-61.3,0.200,-0.300,180.000,1000.0
2025-09-03T15:05:35.018653,24.420,6.360,38.360,-61.3,0.200,-0.300,180.000,1000.0
2025-09-03T15:05:35.020652,24.460,6.390,38.340,-61.3,0.200,-0.300,180.360,1000.0
2025-09-03T15:05:35.022653,24.510,6.470,38.360,-61.3,0.200,-0.300,180.000,1000.0
2025-09-03T15:05:35.024653,24.540,6.630,38.450,-61.3,0.200,-0.300,180.000,1000.0
2025-09-03T15:05:35.025654,24.570,6.770,38.570,-61.3,0.200,-0.300,180.360,1000.0
2025-09-03T15:05:35.143863,24.620,6.920,38.690,-61.3,0.200,-0.300,180.000,1000.0
2025-09-03T15:05:35.145862,24.680,7.070,38.800,-61.3,0.200,-0.300,180.360,1000.0
2025-09-03T15:05:35.147861,24.760,7.420,39.090,-61.3,0.200,-0.300,180.000,1000.0
2025-09-03T15:05:35.149861,24.760,7.560,39.200,-61.3,0.200,-0.300,180.360,1000.0
2025-09-03T15:05:35.266622,24.670,7.480,39.190,-61.3,0.200,-0.300,180.360,1000.0
2025-09-03T15:05:35.268621,24.620,7.480,39.240,-61.3,0.200,-0.300,180.360,1000.0
2025-09-03T15:05:35.270619,24.550,7.460,39.320,-61.4,0.200,-0.300,180.360,1000.0
2025-09-03T15:05:35.272621,24.280,7.450,39.600,-61.3,0.200,-0.300,180.360,1000.0
2025-09-03T15:05:35.274621,24.190,7.440,39.630,-61.3,0.200,-0.300,180.000,1000.0
2025-09-03T15:05:35.276623,24.130,7.400,39.650,-61.3,0.200,-0.300,180.360,1000.0
2025-09-03T15:05:35.278622,24.100,7.370,39.690,-61.3,0.200,-0.300,180.360,1000.0
2025-09-03T15:05:35.279620,24.120,7.370,39.740,-61.3,0.200,-0.300,180.360,1000.0
2025-09-03T15:05:35.390919,24.180,7.350,39.780,-61.3,0.200,-0.300,180.000,1000.0
2025-09-03T15:05:35.392919,24.270,7.290,39.770,-61.3,0.200,-0.300,180.360,1000.0
2025-09-03T15:05:35.393925,24.380,7.250,39.750,-61.3,0.200,-0.300,180.000,1000.0
2025-09-03T15:05:35.395920,24.500,7.210,39.740,-61.3,0.200,-0.300,180.000,1000.0
2025-09-03T15:05:35.397920,24.590,7.210,39.760,-61.3,0.200,-0.300,180.360,1000.0
2025-09-03T15:05:35.516666,24.690,7.220,39.770,-61.3,0.200,-0.300,180.000,1000.0
2025-09-03T15:05:35.518336,24.790,7.230,39.780,-61.3,0.200,-0.300,180.000,1000.0
2025-09-03T15:05:35.520330,24.920,7.270,39.790,-61.3,0.200,-0.300,180.360,1000.0
2025-09-03T15:05:35.522332,25.040,7.320,39.810,-61.3,0.200,-0.300,180.000,1000.0
2025-09-03T15:05:35.523330,25.160,7.370,39.840,-61.3,0.200,-0.300,180.000,1000.0
2025-09-03T15:05:35.640384,25.690,7.520,39.920,-61.3,0.200,-0.300,180.000,1000.0
2025-09-03T15:05:35.641385,25.880,7.560,39.970,-61.3,0.200,-0.300,180.000,1000.0
2025-09-03T15:05:35.643383,26.050,7.600,40.000,-61.3,0.200,-0.300,180.360,1000.0
2025-09-03T15:05:35.749109,26.220,7.650,39.980,-61.3,0.200,-0.300,180.000,1000.0
2025-09-03T15:05:35.750116,26.350,7.680,39.960,-61.3,0.200,-0.300,180.360,1000.0
2025-09-03T15:05:35.752117,26.450,7.730,39.950,-61.3,0.200,-0.300,180.000,1000.0
2025-09-03T15:05:35.755114,26.520,7.820,39.990,-61.3,0.200,-0.300,180.000,1000.0
2025-09-03T15:05:35.756113,26.540,7.870,40.030,-61.3,0.200,-0.300,180.000,1000.0
2025-09-03T15:05:35.873809,26.420,7.880,40.030,-61.3,0.200,-0.300,180.000,1000.0
2025-09-03T15:05:35.874876,26.340,7.910,40.070,-61.3,0.200,-0.300,180.360,1000.0
2025-09-03T15:05:35.876882,26.230,7.950,40.120,-61.3,0.200,-0.300,180.000,1000.0
2025-09-03T15:05:35.983886,26.160,7.970,40.140,-61.3,0.200,-0.300,180.360,1000.0
2025-09-03T15:05:35.985887,26.100,7.980,40.150,-61.3,0.200,-0.300,180.360,1000.0
2025-09-03T15:05:35.987886,26.090,7.920,40.220,-61.3,26.090,7.920,40.220,-61.3
2025-09-03T15:05:37.087948,26.120,7.900,40.240,-61.3,26.120,7.900,40.240,-61.3
2025-09-03T15:05:37.088942,26.160,7.900,40.240,-61.3,26.160,7.900,40.240,-61.3
2025-09-03T15:05:37.090942,26.200,7.940,40.260,-61.3,26.200,7.940,40.260,-61.3
2025-09-03T15:05:37.092943,26.240,8.020,40.320,-61.3,26.240,8.020,40.320,-61.3
2025-09-03T15:05:37.093943,26.270,8.110,40.410,-61.3,26.270,8.110,40.410,-61.3
2025-09-03T15:05:38.184052,26.280,8.220,40.500,-61.3,26.280,8.220,40.500,-61.3
2025-09-03T15:05:38.185063,26.290,8.330,40.610,-61.3,26.290,8.330,40.610,-61.3
2025-09-03T15:05:38.187056,26.230,8.650,40.910,-61.3,26.230,8.650,40.910,-61.3
2025-09-03T15:05:39.273940,26.240,8.710,40.960,-61.3,26.240,8.710,40.960,-61.3
2025-09-03T15:05:39.275940,26.260,8.730,40.990,-61.3,26.260,8.730,40.990,-61.3
2025-09-03T15:05:39.276939,26.330,8.740,41.010,-61.3,26.330,8.740,41.010,-61.3
2025-09-03T15:05:39.278941,26.420,8.750,41.040,-61.3,26.420,8.750,41.040,-61.3
2025-09-03T15:05:39.279942,26.620,8.780,41.100,-61.3,26.620,8.780,41.100,-61.3
2025-09-03T15:05:39.281941,26.690,8.770,41.100,-61.3,26.690,8.770,41.100,-61.3
2025-09-03T15:05:39.282943,26.780,8.770,41.100,-61.3,26.780,8.770,41.100,-61.3
2025-09-03T15:05:39.283942,26.850,8.750,41.100,-61.3,26.850,8.750,41.100,-61.3
2025-09-03T15:05:39.284942,26.900,8.730,41.110,-61.3,26.900,8.730,41.110,-61.3
2025-09-03T15:05:40.375309,26.910,8.720,41.130,-61.3,26.910,8.720,41.130,-61.3
2025-09-03T15:05:40.377307,26.900,8.710,41.150,-61.3,26.900,8.710,41.150,-61.3
2025-09-03T15:05:40.378307,26.870,8.720,41.150,-61.3,26.870,8.720,41.150,-61.3
2025-09-03T15:05:40.380307,26.820,8.750,41.160,-61.3,26.820,8.750,41.160,-61.3
2025-09-03T15:05:40.382307,26.750,8.780,41.190,-61.3,26.750,8.780,41.190,-61.3
2025-09-03T15:05:41.473599,26.680,8.810,41.190,-61.3,26.680,8.810,41.190,-61.3
2025-09-03T15:05:41.475598,26.630,8.820,41.160,-61.3,26.630,8.820,41.160,-61.3
2025-09-03T15:05:41.477600,26.600,8.820,41.130,-61.3,26.600,8.820,41.130,-61.3
2025-09-03T15:05:41.478599,26.620,8.850,41.130,-61.3,26.620,8.850,41.130,-61.3
2025-09-03T15:05:41.480600,26.670,8.920,41.170,-61.3,26.670,8.920,41.170,-61.3
