Timestamp,Roll_Angle,Pitch_Angle,Yaw_Angle,Altitude,Roll_Setpoint,Pitch_Setpoint,Yaw_Setpoint,Altitude_Setpoint
2025-09-08T18:27:07.404309,0.000,0.000,0.000,0.0,0.400,-0.400,181.080,1000.0
2025-09-08T18:27:07.410308,0.000,180.000,360.000,-5.4,0.400,-0.400,181.080,1000.0
2025-09-08T18:27:07.412306,5.070,-1.540,297.490,-10.3,0.400,-0.400,181.080,1000.0
2025-09-08T18:27:07.413307,5.070,-1.540,297.550,-14.7,0.400,-0.400,181.080,1000.0
2025-09-08T18:27:07.449305,5.080,-1.530,297.590,-18.7,0.400,-0.400,181.080,1000.0
2025-09-08T18:27:07.463313,5.080,-1.520,297.590,-22.3,0.400,-0.400,181.080,1000.0
2025-09-08T18:27:07.479381,5.080,-1.520,297.590,-25.5,0.400,-0.400,181.080,1000.0
2025-09-08T18:27:07.480383,5.080,-1.520,297.590,-28.4,0.400,-0.400,181.080,1000.0
2025-09-08T18:27:07.508102,5.080,-1.510,297.590,-31.0,0.400,-0.400,181.080,1000.0
2025-09-08T18:27:07.568364,5.080,-1.510,297.600,-33.3,0.400,-0.400,181.080,1000.0
2025-09-08T18:27:07.570365,5.080,-1.500,297.590,-35.4,0.400,-0.400,181.080,1000.0
2025-09-08T18:27:07.599229,5.080,-1.500,297.590,-37.3,0.400,-0.400,181.080,1000.0
2025-09-08T18:27:07.600234,5.080,-1.490,297.600,-39.0,0.400,-0.400,181.080,1000.0
2025-09-08T18:27:07.628111,5.080,-1.490,297.600,-40.6,0.400,-0.400,181.080,1000.0
2025-09-08T18:27:07.659342,5.080,-1.470,297.610,-41.9,0.400,-0.400,181.080,1000.0
2025-09-08T18:27:07.660342,5.080,-1.430,297.610,-43.2,0.400,-0.400,181.080,1000.0
2025-09-08T18:27:07.688408,5.080,-1.410,297.610,-44.3,0.400,-0.400,181.080,1000.0
2025-09-08T18:27:07.690398,5.080,-1.380,297.610,-45.3,0.400,-0.400,181.080,1000.0
2025-09-08T18:27:07.718405,5.080,-1.340,297.610,-46.2,0.400,-0.400,181.080,1000.0
2025-09-08T18:27:07.720399,5.080,-1.320,297.610,-47.1,0.400,-0.400,181.080,1000.0
2025-09-08T18:27:07.749402,5.080,-1.290,297.610,-47.8,0.400,-0.400,181.080,1000.0
2025-09-08T18:27:07.794399,5.080,-1.260,297.620,-48.4,0.400,-0.400,181.080,1000.0
2025-09-08T18:27:07.795398,5.080,-1.240,297.620,-49.0,0.400,-0.400,181.080,1000.0
2025-09-08T18:27:07.824429,5.080,-1.220,297.630,-49.6,0.400,-0.400,181.080,1000.0
2025-09-08T18:27:07.825429,5.080,-1.190,297.630,-50.0,0.400,-0.400,181.080,1000.0
2025-09-08T18:27:07.854730,5.080,-1.180,297.630,-50.5,0.400,-0.400,181.080,1000.0
2025-09-08T18:27:07.885731,5.080,-1.150,297.630,-50.9,0.400,-0.400,181.080,1000.0
2025-09-08T18:27:07.901317,5.070,-1.140,297.630,-51.2,0.400,-0.400,181.080,1000.0
2025-09-08T18:27:07.931770,5.080,-1.130,297.630,-51.5,0.400,-0.400,181.080,1000.0
2025-09-08T18:27:07.933771,5.080,-1.120,297.640,-51.8,0.400,-0.400,181.080,1000.0
2025-09-08T18:27:07.961440,5.080,-1.110,297.640,-52.1,0.400,-0.400,181.080,1000.0
2025-09-08T18:27:07.991779,5.080,-1.090,297.640,-52.3,0.400,-0.400,181.080,1000.0
2025-09-08T18:27:07.992774,5.080,-1.080,297.640,-52.5,0.400,-0.400,181.080,1000.0
2025-09-08T18:27:08.021775,5.080,-1.070,297.640,-52.7,0.400,-0.400,181.080,1000.0
2025-09-08T18:27:08.022776,5.070,-1.060,297.640,-52.9,0.400,-0.400,181.080,1000.0
2025-09-08T18:27:08.066775,5.080,-1.050,297.640,-53.0,0.400,-0.400,181.080,1000.0
2025-09-08T18:27:08.096785,5.080,-1.040,297.650,-53.1,0.400,-0.400,181.080,1000.0
2025-09-08T18:27:08.099776,5.080,-1.040,297.650,-53.3,0.400,-0.400,181.080,1000.0
2025-09-08T18:27:08.126800,5.080,-1.030,297.650,-53.4,0.400,-0.400,181.080,1000.0
2025-09-08T18:27:08.127799,5.080,-1.020,297.650,-53.5,0.400,-0.400,181.080,1000.0
2025-09-08T18:27:08.155762,5.080,-1.010,297.650,-53.5,0.400,-0.400,181.080,1000.0
2025-09-08T18:27:08.186671,5.080,-1.010,297.650,-53.6,0.400,-0.400,181.080,1000.0
2025-09-08T18:27:08.200670,5.070,-1.010,297.650,-53.7,0.400,-0.400,181.080,1000.0
2025-09-08T18:27:08.216734,5.080,-1.000,297.650,-53.8,0.400,-0.400,181.080,1000.0
2025-09-08T18:27:08.230736,5.080,-1.000,297.650,-53.8,0.400,-0.400,181.080,1000.0
2025-09-08T18:27:08.260772,5.080,-1.000,297.650,-53.9,0.400,-0.400,181.080,1000.0
2025-09-08T18:27:08.306763,5.070,-0.990,297.650,-53.9,0.400,-0.400,181.080,1000.0
2025-09-08T18:27:08.307763,5.070,-0.990,297.650,-54.0,0.400,-0.400,181.080,1000.0
2025-09-08T18:27:08.335762,5.070,-0.990,297.650,-54.0,0.400,-0.400,181.080,1000.0
2025-09-08T18:27:08.337762,5.070,-0.990,297.650,-54.1,0.400,-0.400,181.080,1000.0
2025-09-08T18:27:08.366763,5.070,-0.990,297.650,-54.1,0.400,-0.400,181.080,1000.0
2025-09-08T18:27:08.395769,5.060,-0.990,297.660,-54.1,0.400,-0.400,181.080,1000.0
2025-09-08T18:27:08.397763,5.070,-0.990,297.650,-54.2,0.400,-0.400,181.080,1000.0
2025-09-08T18:27:08.426764,5.060,-0.990,297.650,-54.2,0.400,-0.400,181.080,1000.0
2025-09-08T18:27:08.427764,5.070,-0.980,297.660,-54.2,0.400,-0.400,181.080,1000.0
2025-09-08T18:27:08.456763,5.060,-0.980,297.660,-54.2,0.400,-0.400,181.080,1000.0
2025-09-08T18:27:08.486764,5.060,-0.980,297.660,-54.2,0.400,-0.400,181.080,1000.0
2025-09-08T18:27:08.487763,5.050,-0.970,297.660,-54.3,0.400,-0.400,181.080,1000.0
2025-09-08T18:27:08.516763,5.050,-0.970,297.660,-54.3,0.400,-0.400,181.080,1000.0
2025-09-08T18:27:08.519763,5.050,-0.970,297.660,-54.3,0.400,-0.400,181.080,1000.0
2025-09-08T18:27:08.560769,5.050,-0.970,297.660,-54.3,0.400,-0.400,181.080,1000.0
2025-09-08T18:27:08.606765,5.060,-0.980,297.660,-54.3,0.400,-0.400,181.080,1000.0
2025-09-08T18:27:08.608768,5.060,-0.980,297.660,-54.3,0.400,-0.400,181.080,1000.0
2025-09-08T18:27:08.635914,5.060,-0.980,297.660,-54.3,0.400,-0.400,181.080,1000.0
2025-09-08T18:27:08.637920,5.060,-0.970,297.660,-54.3,0.400,-0.400,181.080,1000.0
2025-09-08T18:27:08.666813,5.060,-0.970,297.660,-54.3,0.400,-0.400,181.080,1000.0
2025-09-08T18:27:08.670329,5.060,-0.970,297.660,-54.3,0.400,-0.400,181.080,1000.0
2025-09-08T18:27:08.697976,5.060,-0.970,297.670,-54.3,0.400,-0.400,181.080,1000.0
2025-09-08T18:27:08.728093,5.060,-0.970,297.670,-54.3,0.400,-0.400,181.080,1000.0
2025-09-08T18:27:08.730093,5.060,-0.970,297.670,-54.4,0.400,-0.400,181.080,1000.0
2025-09-08T18:27:08.758399,5.060,-0.970,297.670,-54.4,0.400,-0.400,181.080,1000.0
2025-09-08T18:27:08.762400,5.060,-0.970,297.660,-54.4,0.400,-0.400,181.080,1000.0
2025-09-08T18:27:08.803389,5.060,-0.970,297.660,-54.4,0.400,-0.400,181.080,1000.0
2025-09-08T18:27:08.833451,5.050,-0.970,297.660,-54.4,0.400,-0.400,181.080,1000.0
2025-09-08T18:27:08.834452,5.050,-0.970,297.660,-54.4,0.400,-0.400,181.080,1000.0
2025-09-08T18:27:08.863767,5.060,-0.970,297.660,-54.4,0.400,-0.400,181.080,1000.0
2025-09-08T18:27:08.881455,5.060,-0.970,297.660,-54.4,0.400,-0.400,181.080,1000.0
2025-09-08T18:27:08.893123,5.060,-0.970,297.660,-54.4,0.400,-0.400,181.080,1000.0
2025-09-08T18:27:08.938967,5.060,-0.970,297.650,-54.4,0.400,-0.400,181.080,1000.0
2025-09-08T18:27:08.940964,5.060,-0.970,297.650,-54.4,0.400,-0.400,181.080,1000.0
2025-09-08T18:27:08.970262,5.060,-0.960,297.640,-54.4,0.400,-0.400,181.080,1000.0
2025-09-08T18:27:08.973272,5.060,-0.960,297.640,-54.5,0.400,-0.400,181.080,1000.0
2025-09-08T18:27:08.999926,5.060,-0.960,297.630,-54.5,0.400,-0.400,181.080,1000.0
2025-09-08T18:27:09.030032,5.060,-0.960,297.630,-54.5,0.400,-0.400,181.080,1000.0
2025-09-08T18:27:09.032032,5.060,-0.960,297.630,-54.5,0.400,-0.400,181.080,1000.0
2025-09-08T18:27:09.075507,5.070,-0.970,297.630,-54.5,0.400,-0.400,181.080,1000.0
2025-09-08T18:27:09.079507,5.070,-0.960,297.630,-54.5,0.400,-0.400,181.080,1000.0
2025-09-08T18:27:09.105788,5.070,-0.960,297.630,-54.5,0.400,-0.400,181.080,1000.0
2025-09-08T18:27:09.134621,5.070,-0.960,297.630,-54.5,0.400,-0.400,181.080,1000.0
2025-09-08T18:27:09.136619,5.070,-0.950,297.630,-54.5,0.400,-0.400,181.080,1000.0
2025-09-08T18:27:09.165693,5.070,-0.960,297.630,-54.5,0.400,-0.400,181.080,1000.0
2025-09-08T18:27:09.169693,5.080,-0.960,297.630,-54.5,0.400,-0.400,181.080,1000.0
2025-09-08T18:27:09.195695,5.070,-0.950,297.630,-54.5,0.400,-0.400,181.080,1000.0
2025-09-08T18:27:09.225975,5.080,-0.960,297.630,-54.5,0.400,-0.400,181.080,1000.0
2025-09-08T18:27:09.227967,5.080,-0.960,297.620,-54.5,0.400,-0.400,181.080,1000.0
2025-09-08T18:27:09.272516,5.080,-0.960,297.630,-54.5,0.400,-0.400,181.080,1000.0
2025-09-08T18:27:09.281520,5.070,-0.950,297.630,-54.5,0.400,-0.400,181.080,1000.0
2025-09-08T18:27:09.285518,5.080,-0.960,297.630,-54.5,0.400,-0.400,181.080,1000.0
2025-09-08T18:27:09.345516,5.080,-0.960,297.630,-54.4,0.400,-0.400,181.080,1000.0
2025-09-08T18:27:09.346515,5.080,-0.950,297.620,-54.4,0.400,-0.400,181.080,1000.0
2025-09-08T18:27:09.375520,5.080,-0.950,297.630,-54.4,0.400,-0.400,181.080,1000.0
2025-09-08T18:27:09.379520,5.080,-0.950,297.630,-54.4,0.400,-0.400,181.080,1000.0
2025-09-08T18:27:09.405983,5.080,-0.950,297.630,-54.4,0.400,-0.400,181.080,1000.0
2025-09-08T18:27:09.436842,5.080,-0.950,297.630,-54.4,0.400,-0.400,181.080,1000.0
2025-09-08T18:27:09.437841,5.070,-0.950,297.630,-54.4,0.400,-0.400,181.080,1000.0
2025-09-08T18:27:09.465950,5.080,-0.950,297.630,-54.4,0.400,-0.400,181.080,1000.0
2025-09-08T18:27:09.469955,5.080,-0.950,297.630,-54.4,0.400,-0.400,181.080,1000.0
2025-09-08T18:27:09.497532,5.080,-0.950,297.630,-54.4,0.400,-0.400,181.080,1000.0
2025-09-08T18:27:09.527574,5.080,-0.950,297.630,-54.4,0.400,-0.400,181.080,1000.0
2025-09-08T18:27:09.528576,5.080,-0.950,297.630,-54.4,0.400,-0.400,181.080,1000.0
2025-09-08T18:27:09.572365,5.080,-0.950,297.630,-54.4,0.400,-0.400,181.080,1000.0
2025-09-08T18:27:09.577368,5.080,-0.940,297.630,-54.4,0.400,-0.400,181.080,1000.0
2025-09-08T18:27:09.602367,5.080,-0.950,297.630,-54.4,0.400,-0.400,181.080,1000.0
2025-09-08T18:27:09.632368,5.080,-0.950,297.630,-54.4,0.400,-0.400,181.080,1000.0
2025-09-08T18:27:09.647368,5.080,-0.950,297.630,-54.4,0.400,-0.400,181.080,1000.0
2025-09-08T18:27:09.677366,5.080,-0.950,297.630,-54.4,0.400,-0.400,181.080,1000.0
2025-09-08T18:27:09.681366,5.080,-0.950,297.620,-54.5,0.400,-0.400,181.080,1000.0
2025-09-08T18:27:09.707797,5.080,-0.950,297.620,-54.5,0.400,-0.400,181.080,1000.0
2025-09-08T18:27:09.737797,5.080,-0.960,297.620,-54.5,0.400,-0.400,181.080,1000.0
2025-09-08T18:27:09.738798,5.080,-0.950,297.620,-54.5,0.400,-0.400,181.080,1000.0
2025-09-08T18:27:09.767805,5.080,-0.950,297.620,-54.5,0.400,-0.400,181.080,1000.0
2025-09-08T18:27:09.771848,5.090,-0.960,297.620,-54.5,0.400,-0.400,181.080,1000.0
2025-09-08T18:27:09.797798,5.080,-0.950,297.610,-54.5,0.400,-0.400,181.080,1000.0
2025-09-08T18:27:09.798798,5.080,-0.950,297.620,-54.5,0.400,-0.400,181.080,1000.0
2025-09-08T18:27:09.842799,5.080,-0.950,297.620,-54.5,0.400,-0.400,181.080,1000.0
2025-09-08T18:27:09.872861,5.080,-0.950,297.620,-54.5,0.400,-0.400,181.080,1000.0
2025-09-08T18:27:09.877861,5.090,-0.960,297.620,-54.5,0.400,-0.400,181.080,1000.0
2025-09-08T18:27:09.902862,5.090,-0.960,297.620,-54.5,0.400,-0.400,181.080,1000.0
2025-09-08T18:27:09.904861,5.090,-0.960,297.620,-54.4,0.400,-0.400,181.080,1000.0
2025-09-08T18:27:09.932862,5.080,-0.950,297.610,-54.5,0.400,-0.400,181.080,1000.0
2025-09-08T18:27:09.962862,5.090,-0.960,297.610,-54.5,0.400,-0.400,181.080,1000.0
2025-09-08T18:27:09.978860,5.090,-0.960,297.610,-54.5,0.400,-0.400,181.080,1000.0
2025-09-08T18:27:09.991860,5.090,-0.960,297.610,-54.5,0.400,-0.400,181.080,1000.0
2025-09-08T18:27:10.007860,5.090,-0.960,297.610,-54.5,0.400,-0.400,181.080,1000.0
2025-09-08T18:27:10.037860,5.090,-0.960,297.610,-54.5,0.400,-0.400,181.080,1000.0
2025-09-08T18:27:10.082861,5.080,-0.960,297.610,-54.5,0.400,-0.400,181.080,1000.0
2025-09-08T18:27:10.085862,5.080,-0.960,297.610,-54.5,0.400,-0.400,181.080,1000.0
2025-09-08T18:27:10.112861,5.080,-0.960,297.610,-54.5,0.400,-0.400,181.080,1000.0
2025-09-08T18:27:10.115860,5.080,-0.960,297.610,-54.5,0.400,-0.400,181.080,1000.0
2025-09-08T18:27:10.142862,5.080,-0.950,297.610,-54.5,0.400,-0.400,181.080,1000.0
2025-09-08T18:27:10.172860,5.080,-0.950,297.610,-54.5,0.400,-0.400,181.080,1000.0
2025-09-08T18:27:10.175860,5.080,-0.960,297.610,-54.5,0.400,-0.400,181.080,1000.0
2025-09-08T18:27:10.201859,5.080,-0.960,297.610,-54.5,0.400,-0.400,181.080,1000.0
2025-09-08T18:27:10.203860,5.080,-0.960,297.620,-54.5,0.400,-0.400,181.080,1000.0
2025-09-08T18:27:10.232861,5.080,-0.960,297.620,-54.5,0.400,-0.400,181.080,1000.0
2025-09-08T18:27:10.262862,5.080,-0.960,297.620,-54.5,0.400,-0.400,181.080,1000.0
2025-09-08T18:27:10.292860,5.080,-0.960,297.620,-54.5,0.400,-0.400,181.080,1000.0
2025-09-08T18:27:10.293861,5.080,-0.960,297.620,-54.5,0.400,-0.400,181.080,1000.0
2025-09-08T18:27:10.295860,5.080,-0.960,297.620,-54.5,0.400,-0.400,181.080,1000.0
2025-09-08T18:27:10.337641,5.080,-0.960,297.610,-54.5,0.400,-0.400,181.080,1000.0
2025-09-08T18:27:10.381515,5.080,-0.960,297.620,-54.5,0.400,-0.400,181.080,1000.0
2025-09-08T18:27:10.385506,5.080,-0.960,297.620,-54.5,0.400,-0.400,181.080,1000.0
2025-09-08T18:27:10.412518,5.080,-0.960,297.620,-54.5,0.400,-0.400,181.080,1000.0
2025-09-08T18:27:10.414510,5.080,-0.970,297.620,-54.5,0.400,-0.400,181.080,1000.0
2025-09-08T18:27:10.442510,5.080,-0.970,297.620,-54.5,0.400,-0.400,181.080,1000.0
2025-09-08T18:27:10.472507,5.080,-0.970,297.620,-54.5,0.400,-0.400,181.080,1000.0
2025-09-08T18:27:10.476508,5.080,-0.970,297.620,-54.5,0.400,-0.400,181.080,1000.0
2025-09-08T18:27:10.502445,5.080,-0.970,297.620,-54.5,0.400,-0.400,181.080,1000.0
2025-09-08T18:27:10.503451,5.080,-0.970,297.620,-54.5,0.400,-0.400,181.080,1000.0
2025-09-08T18:27:10.548636,5.080,-0.970,297.630,-54.5,0.400,-0.400,181.080,1000.0
2025-09-08T18:27:10.579538,5.080,-0.970,297.630,-54.5,0.400,-0.400,181.080,1000.0
2025-09-08T18:27:10.583543,5.080,-0.970,297.620,-54.5,0.400,-0.400,181.080,1000.0
2025-09-08T18:27:10.609544,5.080,-0.960,297.620,-54.5,0.400,-0.400,181.080,1000.0
2025-09-08T18:27:10.611555,5.080,-0.950,297.620,-54.5,0.400,-0.400,181.080,1000.0
2025-09-08T18:27:10.639543,5.080,-0.950,297.620,-54.5,0.400,-0.400,181.080,1000.0
2025-09-08T18:27:10.684222,5.080,-0.950,297.620,-54.5,0.400,-0.400,181.080,1000.0
2025-09-08T18:27:10.688228,5.080,-0.940,297.620,-54.5,0.400,-0.400,181.080,1000.0
2025-09-08T18:27:10.700230,5.080,-0.940,297.620,-54.5,0.400,-0.400,181.080,1000.0
2025-09-08T18:27:10.715230,5.080,-0.940,297.620,-54.5,0.400,-0.400,181.080,1000.0
2025-09-08T18:27:10.745106,5.080,-0.940,297.630,-54.5,0.400,-0.400,181.080,1000.0
2025-09-08T18:27:10.775361,5.080,-0.940,297.630,-54.5,0.400,-0.400,181.080,1000.0
2025-09-08T18:27:10.779360,5.080,-0.930,297.650,-54.5,0.400,-0.400,181.080,1000.0
2025-09-08T18:27:10.820765,5.080,-0.930,297.650,-54.5,0.400,-0.400,181.080,1000.0
2025-09-08T18:27:10.822765,5.090,-0.930,297.650,-54.5,0.400,-0.400,181.080,1000.0
2025-09-08T18:27:10.850897,5.090,-0.930,297.650,-54.5,0.400,-0.400,181.080,1000.0
2025-09-08T18:27:10.881508,5.090,-0.930,297.660,-54.5,0.400,-0.400,181.080,1000.0
2025-09-08T18:27:10.886507,5.090,-0.930,297.670,-54.5,0.400,-0.400,181.080,1000.0
2025-09-08T18:27:10.911327,5.090,-0.930,297.670,-54.5,0.400,-0.400,181.080,1000.0
2025-09-08T18:27:10.914323,5.080,-0.920,297.670,-54.5,0.400,-0.400,181.080,1000.0
2025-09-08T18:27:10.941403,5.080,-0.920,297.680,-54.5,0.400,-0.400,181.080,1000.0
2025-09-08T18:27:10.942410,5.080,-0.920,297.690,-54.5,0.400,-0.400,181.080,1000.0
2025-09-08T18:27:10.971409,5.080,-0.920,297.690,-54.5,0.400,-0.400,181.080,1000.0
2025-09-08T18:27:11.001411,5.080,-0.920,297.690,-54.5,0.400,-0.400,181.080,1000.0
2025-09-08T18:27:11.016420,5.080,-0.920,297.690,-54.5,0.400,-0.400,181.080,1000.0
2025-09-08T18:27:11.031410,5.080,-0.920,297.700,-54.5,0.400,-0.400,181.080,1000.0
2025-09-08T18:27:11.046409,5.080,-0.920,297.710,-54.5,0.400,-0.400,181.080,1000.0
2025-09-08T18:27:11.091407,5.080,-0.920,297.710,-54.5,0.400,-0.400,181.080,1000.0
2025-09-08T18:27:11.121407,5.080,-0.920,297.710,-54.5,0.400,-0.400,181.080,1000.0
2025-09-08T18:27:11.122407,5.080,-0.920,297.710,-54.5,0.400,-0.400,181.080,1000.0
2025-09-08T18:27:11.151409,5.070,-0.920,297.710,-54.5,0.400,-0.400,181.080,1000.0
2025-09-08T18:27:11.152410,5.070,-0.920,297.710,-54.5,0.400,-0.400,181.080,1000.0
2025-09-08T18:27:11.181277,5.070,-0.920,297.710,-54.5,0.400,-0.400,181.080,1000.0
2025-09-08T18:27:11.210754,5.070,-0.910,297.710,-54.5,0.400,-0.400,181.080,1000.0
2025-09-08T18:27:11.213762,5.070,-0.910,297.710,-54.5,0.400,-0.400,181.080,1000.0
2025-09-08T18:27:11.241345,5.060,-0.920,297.710,-54.5,0.400,-0.400,181.080,1000.0
2025-09-08T18:27:11.242343,5.060,-0.920,297.720,-54.5,0.400,-0.400,181.080,1000.0
2025-09-08T18:27:11.271539,5.060,-0.910,297.730,-54.5,0.400,-0.400,181.080,1000.0
2025-09-08T18:27:11.316539,5.060,-0.910,297.730,-54.5,0.400,-0.400,181.080,1000.0
2025-09-08T18:27:11.318539,5.060,-0.910,297.730,-54.5,0.400,-0.400,181.080,1000.0
2025-09-08T18:27:11.346539,5.060,-0.910,297.730,-54.5,0.400,-0.400,181.080,1000.0
2025-09-08T18:27:11.347539,5.060,-0.910,297.730,-54.5,0.400,-0.400,181.080,1000.0
2025-09-08T18:27:11.376538,5.050,-0.910,297.730,-54.5,0.400,-0.400,181.080,1000.0
2025-09-08T18:27:11.421539,5.050,-0.910,297.730,-54.5,0.400,-0.400,181.080,1000.0
2025-09-08T18:27:11.424542,5.050,-0.910,297.730,-54.5,0.400,-0.400,181.080,1000.0
2025-09-08T18:27:11.451540,5.050,-0.910,297.730,-54.5,0.400,-0.400,181.080,1000.0
2025-09-08T18:27:11.452539,5.050,-0.910,297.740,-54.5,0.400,-0.400,181.080,1000.0
2025-09-08T18:27:11.480537,5.050,-0.910,297.740,-54.5,0.400,-0.400,181.080,1000.0
2025-09-08T18:27:11.511893,5.050,-0.910,297.740,-54.5,0.400,-0.400,181.080,1000.0
2025-09-08T18:27:11.513892,5.050,-0.910,297.740,-54.5,0.400,-0.400,181.080,1000.0
2025-09-08T18:27:11.555851,5.040,-0.910,297.740,-54.5,0.400,-0.400,181.080,1000.0
2025-09-08T18:27:11.557840,5.040,-0.910,297.740,-54.5,0.400,-0.400,181.080,1000.0
2025-09-08T18:27:11.586093,5.040,-0.910,297.740,-54.5,0.400,-0.400,181.080,1000.0
2025-09-08T18:27:11.617692,5.040,-0.910,297.740,-54.5,0.400,-0.400,181.080,1000.0
2025-09-08T18:27:11.619690,5.040,-0.910,297.740,-54.5,0.400,-0.400,181.080,1000.0
2025-09-08T18:27:11.647700,5.040,-0.910,297.740,-54.5,0.400,-0.400,181.080,1000.0
2025-09-08T18:27:11.648690,5.040,-0.910,297.740,-54.5,0.400,-0.400,181.080,1000.0
2025-09-08T18:27:11.677694,5.040,-0.910,297.750,-54.5,0.400,-0.400,181.080,1000.0
2025-09-08T18:27:11.707689,5.040,-0.910,297.770,-54.5,0.400,-0.400,181.080,1000.0
2025-09-08T18:27:11.708690,5.040,-0.910,297.800,-54.5,0.400,-0.400,181.080,1000.0
2025-09-08T18:27:11.751724,5.040,-0.910,297.810,-54.5,0.400,-0.400,181.080,1000.0
2025-09-08T18:27:11.753715,5.040,-0.910,297.810,-54.6,0.400,-0.400,181.080,1000.0
2025-09-08T18:27:11.767690,5.040,-0.910,297.810,-54.6,0.400,-0.400,181.080,1000.0
2025-09-08T18:27:11.826696,5.040,-0.910,297.820,-54.6,0.400,-0.400,181.080,1000.0
2025-09-08T18:27:11.828700,5.040,-0.910,297.820,-54.6,0.400,-0.400,181.080,1000.0
2025-09-08T18:27:11.857735,5.040,-0.910,297.830,-54.6,0.400,-0.400,181.080,1000.0
2025-09-08T18:27:11.858691,5.040,-0.910,297.850,-54.6,0.400,-0.400,181.080,1000.0
2025-09-08T18:27:11.886724,5.040,-0.910,297.850,-54.6,0.400,-0.400,181.080,1000.0
2025-09-08T18:27:11.888690,5.040,-0.910,297.860,-54.6,0.400,-0.400,181.080,1000.0
2025-09-08T18:27:11.917691,5.040,-0.910,297.860,-54.6,0.400,-0.400,181.080,1000.0
2025-09-08T18:27:11.946696,5.040,-0.910,297.860,-54.6,0.400,-0.400,181.080,1000.0
2025-09-08T18:27:11.948691,5.040,-0.920,297.860,-54.6,0.400,-0.400,181.080,1000.0
2025-09-08T18:27:11.976723,5.040,-0.920,297.860,-54.6,0.400,-0.400,181.080,1000.0
2025-09-08T18:27:12.007736,5.050,-0.920,297.860,-54.6,0.400,-0.400,181.080,1000.0
2025-09-08T18:27:12.009692,5.050,-0.920,297.860,-54.6,0.400,-0.400,181.080,1000.0
2025-09-08T18:27:12.052691,5.050,-0.930,297.860,-54.6,0.400,-0.400,181.080,1000.0
2025-09-08T18:27:12.053730,5.060,-0.920,297.850,-54.6,0.400,-0.400,181.080,1000.0
2025-09-08T18:27:12.082691,5.060,-0.920,297.850,-54.6,0.400,-0.400,181.080,1000.0
2025-09-08T18:27:12.097693,5.060,-0.920,297.850,-54.6,0.400,-0.400,181.080,1000.0
2025-09-08T18:27:12.112690,5.060,-0.920,297.860,-54.7,0.400,-0.400,181.080,1000.0
2025-09-08T18:27:12.156724,5.060,-0.920,297.870,-54.7,0.400,-0.400,181.080,1000.0
2025-09-08T18:27:12.158691,5.060,-0.920,297.880,-54.7,0.400,-0.400,181.080,1000.0
2025-09-08T18:27:12.187597,5.060,-0.920,297.880,-54.7,0.400,-0.400,181.080,1000.0
2025-09-08T18:27:12.189600,5.060,-0.920,297.880,-54.6,0.400,-0.400,181.080,1000.0
2025-09-08T18:27:12.217421,5.060,-0.920,297.880,-54.6,0.400,-0.400,181.080,1000.0
2025-09-08T18:27:12.261866,5.050,-0.920,297.880,-54.6,0.400,-0.400,181.080,1000.0
2025-09-08T18:27:12.263868,5.050,-0.920,297.880,-54.6,0.400,-0.400,181.080,1000.0
2025-09-08T18:27:12.291644,5.050,-0.920,297.880,-54.6,0.400,-0.400,181.080,1000.0
2025-09-08T18:27:12.293632,5.050,-0.920,297.880,-54.6,0.400,-0.400,181.080,1000.0
2025-09-08T18:27:12.321641,5.050,-0.920,297.880,-54.6,0.400,-0.400,181.080,1000.0
2025-09-08T18:27:12.352245,5.050,-0.920,297.880,-54.6,0.400,-0.400,181.080,1000.0
2025-09-08T18:27:12.354247,5.050,-0.920,297.880,-54.6,0.400,-0.400,181.080,1000.0
2025-09-08T18:27:12.382592,5.050,-0.920,297.880,-54.6,0.400,-0.400,181.080,1000.0
2025-09-08T18:27:12.384594,5.050,-0.920,297.880,-54.6,0.400,-0.400,181.080,1000.0
2025-09-08T18:27:12.412550,5.050,-0.920,297.880,-54.6,0.400,-0.400,181.080,1000.0
2025-09-08T18:27:12.442775,5.050,-0.930,297.880,-54.6,0.400,-0.400,181.080,1000.0
2025-09-08T18:27:12.457782,5.040,-0.930,297.880,-54.6,0.400,-0.400,181.080,1000.0
2025-09-08T18:27:12.488775,5.040,-0.930,297.880,-54.6,0.400,-0.400,181.080,1000.0
2025-09-08T18:27:12.489776,5.040,-0.930,297.890,-54.6,0.400,-0.400,181.080,1000.0
2025-09-08T18:27:12.533927,5.050,-0.920,297.890,-54.6,0.400,-0.400,181.080,1000.0
2025-09-08T18:27:12.564000,5.050,-0.920,297.890,-54.6,0.400,-0.400,181.080,1000.0
2025-09-08T18:27:12.565964,5.050,-0.920,297.890,-54.6,0.400,-0.400,181.080,1000.0
2025-09-08T18:27:12.593828,5.050,-0.920,297.890,-54.6,0.400,-0.400,181.080,1000.0
2025-09-08T18:27:12.594833,5.040,-0.920,297.890,-54.6,0.400,-0.400,181.080,1000.0
2025-09-08T18:27:12.623787,5.080,-0.910,297.910,-54.6,0.400,-0.400,181.080,1000.0
2025-09-08T18:27:12.653787,5.070,-0.910,297.930,-54.6,0.400,-0.400,181.080,1000.0
2025-09-08T18:27:12.654798,5.080,-0.900,297.920,-54.6,0.400,-0.400,181.080,1000.0
2025-09-08T18:27:12.683498,5.060,-0.870,297.920,-54.6,0.400,-0.400,181.080,1000.0
2025-09-08T18:27:12.684498,5.050,-0.830,297.960,-54.6,0.400,-0.400,181.080,1000.0
2025-09-08T18:27:12.713499,5.060,-0.800,298.040,-54.6,0.400,-0.400,181.080,1000.0
2025-09-08T18:27:12.758367,5.120,-0.770,298.150,-54.6,0.400,-0.400,181.080,1000.0
2025-09-08T18:27:12.759831,5.150,-0.840,298.280,-54.6,0.400,-0.400,181.080,1000.0
2025-09-08T18:27:12.788829,5.190,-1.070,298.490,-54.6,0.400,-0.400,181.080,1000.0
2025-09-08T18:27:12.790829,5.330,-1.210,298.700,-54.6,0.400,-0.400,181.080,1000.0
2025-09-08T18:27:12.818940,5.520,-1.410,298.970,-54.6,0.400,-0.400,181.080,1000.0
2025-09-08T18:27:12.863749,5.700,-1.560,299.230,-54.6,0.400,-0.400,181.080,1000.0
2025-09-08T18:27:12.865749,5.770,-1.790,299.550,-54.6,0.400,-0.400,181.080,1000.0
2025-09-08T18:27:12.893752,5.800,-2.140,299.980,-54.6,0.400,-0.400,181.080,1000.0
2025-09-08T18:27:12.896753,6.190,-2.530,300.400,-54.6,0.400,-0.400,181.080,1000.0
2025-09-08T18:27:12.923751,6.910,-2.900,300.730,-54.6,0.400,-0.400,181.080,1000.0
2025-09-08T18:27:12.953751,7.990,-3.320,300.890,-54.6,0.400,-0.400,181.080,1000.0
2025-09-08T18:27:12.955754,9.470,-3.790,300.790,-54.6,0.400,-0.400,181.080,1000.0
2025-09-08T18:27:12.983752,11.450,-4.180,300.510,-54.6,0.400,-0.400,181.080,1000.0
2025-09-08T18:27:12.984750,13.900,-4.580,300.060,-54.6,0.400,-0.400,181.080,1000.0
2025-09-08T18:27:13.028750,16.610,-5.080,299.390,-54.6,0.400,-0.400,181.080,1000.0
2025-09-08T18:27:13.030752,18.930,-5.480,298.710,-54.6,0.400,-0.400,181.080,1000.0
2025-09-08T18:27:13.059392,22.160,-5.960,297.910,-54.6,0.400,-0.400,181.080,1000.0
2025-09-08T18:27:13.089839,25.230,-6.420,297.110,-54.6,0.400,-0.400,181.080,1000.0
2025-09-08T18:27:13.090838,27.810,-6.900,296.330,-54.6,0.400,-0.400,181.080,1000.0
2025-09-08T18:27:13.120839,29.920,-7.440,295.630,-54.6,0.400,-0.400,181.080,1000.0
2025-09-08T18:27:13.122840,31.750,-7.940,294.940,-54.6,0.400,-0.400,181.080,1000.0
2025-09-08T18:27:13.149854,33.110,-8.230,294.310,-54.6,0.400,-0.400,181.080,1000.0
2025-09-08T18:27:13.194762,33.770,-8.360,293.900,-54.6,0.400,-0.400,181.080,1000.0
2025-09-08T18:27:13.196762,33.840,-8.140,293.710,-54.6,0.400,-0.400,181.080,1000.0
2025-09-08T18:27:13.225333,33.310,-7.580,293.890,-54.6,0.400,-0.400,181.080,1000.0
2025-09-08T18:27:13.227333,32.330,-6.700,294.340,-54.7,0.400,-0.400,181.080,1000.0
2025-09-08T18:27:13.270547,31.010,-5.560,295.050,-54.7,0.400,-0.400,181.080,1000.0
2025-09-08T18:27:13.300621,29.360,-4.190,295.990,-54.7,0.400,-0.400,181.080,1000.0
2025-09-08T18:27:13.302613,27.610,-2.740,296.980,-54.7,0.400,-0.400,181.080,1000.0
2025-09-08T18:27:13.330608,25.680,-1.160,297.990,-54.7,0.400,-0.400,181.080,1000.0
2025-09-08T18:27:13.331608,23.670,0.410,298.860,-54.7,0.400,-0.400,181.080,1000.0
2025-09-08T18:27:13.360791,21.560,1.990,299.660,-54.7,0.400,-0.400,181.080,1000.0
2025-09-08T18:27:13.390765,19.330,3.530,300.450,-54.7,0.400,-0.400,181.080,1000.0
2025-09-08T18:27:13.392777,17.130,4.920,301.030,-54.7,0.400,-0.400,181.080,1000.0
2025-09-08T18:27:13.421775,15.090,6.130,301.460,-54.8,0.400,-0.400,181.080,1000.0
2025-09-08T18:27:13.423785,13.110,7.130,301.860,-54.8,0.400,-0.400,181.080,1000.0
2025-09-08T18:27:13.450768,11.480,7.850,302.040,-54.8,0.400,-0.400,181.080,1000.0
2025-09-08T18:27:13.480517,9.720,8.610,302.210,-54.8,0.400,-0.400,181.080,1000.0
2025-09-08T18:27:13.511037,8.480,9.130,302.330,-54.8,0.400,-0.400,181.080,1000.0
2025-09-08T18:27:13.514041,7.420,9.450,302.340,-54.8,0.400,-0.400,181.080,1000.0
2025-09-08T18:27:13.541038,6.570,9.530,302.290,-54.8,0.400,-0.400,181.080,1000.0
2025-09-08T18:27:13.570782,6.060,9.550,302.280,-54.8,0.400,-0.400,181.080,1000.0
2025-09-08T18:27:13.600775,5.830,9.600,302.280,-54.8,0.400,-0.400,181.080,1000.0
2025-09-08T18:27:13.603776,5.630,9.610,302.260,-54.8,0.400,-0.400,181.080,1000.0
2025-09-08T18:27:13.630805,5.290,9.580,302.200,-54.8,0.400,-0.400,181.080,1000.0
2025-09-08T18:27:13.632825,4.960,9.600,302.280,-54.8,0.400,-0.400,181.080,1000.0
2025-09-08T18:27:13.660775,4.720,9.630,302.530,-54.8,0.400,-0.400,181.080,1000.0
2025-09-08T18:27:13.690775,4.610,9.600,302.820,-54.8,0.400,-0.400,181.080,1000.0
2025-09-08T18:27:13.691775,4.820,9.590,303.280,-54.8,0.400,-0.400,181.080,1000.0
2025-09-08T18:27:13.720775,5.520,9.530,304.080,-54.8,0.400,-0.400,181.080,1000.0
2025-09-08T18:27:13.723774,6.520,9.410,305.090,-54.8,0.400,-0.400,181.080,1000.0
2025-09-08T18:27:13.765774,7.820,9.210,306.260,-54.8,0.400,-0.400,181.080,1000.0
2025-09-08T18:27:13.796178,9.450,8.850,307.500,-54.8,0.400,-0.400,181.080,1000.0
2025-09-08T18:27:13.797444,11.460,8.350,308.620,-54.8,0.400,-0.400,181.080,1000.0
2025-09-08T18:27:13.826485,13.530,7.820,309.500,-54.8,0.400,-0.400,181.080,1000.0
2025-09-08T18:27:13.827484,16.410,6.950,310.550,-54.8,0.400,-0.400,181.080,1000.0
2025-09-08T18:27:13.856519,19.160,5.950,311.870,-54.8,0.400,-0.400,181.080,1000.0
2025-09-08T18:27:13.901777,22.010,4.800,312.600,-54.8,0.400,-0.400,181.080,1000.0
2025-09-08T18:27:13.902779,25.040,3.490,313.420,-54.8,0.400,-0.400,181.080,1000.0
2025-09-08T18:27:13.932255,27.490,2.350,313.750,-54.8,0.400,-0.400,181.080,1000.0
2025-09-08T18:27:13.934257,30.620,0.660,314.640,-54.8,0.400,-0.400,181.080,1000.0
2025-09-08T18:27:13.962109,33.060,-0.790,315.690,-54.8,0.400,-0.400,181.080,1000.0
2025-09-08T18:27:13.966109,35.380,-2.320,316.540,-54.8,0.400,-0.400,181.080,1000.0
2025-09-08T18:27:14.007108,37.300,-3.900,316.800,-54.8,0.400,-0.400,181.080,1000.0
2025-09-08T18:27:14.037696,38.680,-5.520,316.970,-54.8,0.400,-0.400,181.080,1000.0
2025-09-08T18:27:14.038695,39.500,-7.040,317.600,-54.8,0.400,-0.400,181.080,1000.0
2025-09-08T18:27:14.068355,39.660,-8.320,317.960,-54.8,0.400,-0.400,181.080,1000.0
2025-09-08T18:27:14.071354,39.000,-9.300,318.650,-54.8,0.400,-0.400,181.080,1000.0
2025-09-08T18:27:14.098777,37.720,-9.730,319.320,-54.8,0.400,-0.400,181.080,1000.0
2025-09-08T18:27:14.128777,36.110,-9.790,320.030,-54.8,0.400,-0.400,181.080,1000.0
2025-09-08T18:27:14.130778,33.720,-9.450,321.160,-54.8,0.400,-0.400,181.080,1000.0
2025-09-08T18:27:14.158404,31.000,-8.680,322.650,-54.8,0.400,-0.400,181.080,1000.0
2025-09-08T18:27:14.173405,27.940,-7.510,324.320,-54.8,0.400,-0.400,181.080,1000.0
2025-09-08T18:27:14.188403,24.260,-5.850,326.720,-54.8,0.400,-0.400,181.080,1000.0
2025-09-08T18:27:14.233406,21.260,-4.470,328.860,-54.8,0.400,-0.400,181.080,1000.0
2025-09-08T18:27:14.235408,17.700,-2.890,330.620,-54.8,0.400,-0.400,181.080,1000.0
2025-09-08T18:27:14.278454,14.210,-1.410,332.110,-54.8,0.400,-0.400,181.080,1000.0
2025-09-08T18:27:14.281453,10.560,0.060,333.620,-54.8,0.400,-0.400,181.080,1000.0
2025-09-08T18:27:14.307239,7.540,1.280,334.860,-54.8,0.400,-0.400,181.080,1000.0
2025-09-08T18:27:14.338066,5.110,2.220,335.470,-54.8,0.400,-0.400,181.080,1000.0
2025-09-08T18:27:14.339065,2.370,3.320,335.600,-54.8,0.400,-0.400,181.080,1000.0
2025-09-08T18:27:14.368128,0.460,4.090,336.090,-54.8,0.400,-0.400,181.080,1000.0
2025-09-08T18:27:14.372133,-1.270,4.790,336.310,-54.8,0.400,-0.400,181.080,1000.0
2025-09-08T18:27:14.397942,-2.850,5.430,336.310,-54.8,0.400,-0.400,181.080,1000.0
2025-09-08T18:27:14.428648,-4.410,5.980,336.310,-54.8,0.400,-0.400,181.080,1000.0
2025-09-08T18:27:14.429649,-5.370,6.260,336.370,-54.8,0.400,-0.400,181.080,1000.0
2025-09-08T18:27:14.458650,-6.330,6.580,336.760,-54.8,0.400,-0.400,181.080,1000.0
2025-09-08T18:27:14.461649,-6.950,6.790,337.350,-54.8,0.400,-0.400,181.080,1000.0
2025-09-08T18:27:14.487648,-7.450,6.970,338.080,-54.8,0.400,-0.400,181.080,1000.0
2025-09-08T18:27:14.533937,-7.900,7.180,338.610,-54.9,0.400,-0.400,181.080,1000.0
2025-09-08T18:27:14.535927,-8.200,7.410,338.940,-54.9,0.400,-0.400,181.080,1000.0
2025-09-08T18:27:14.579280,-8.310,7.630,339.450,-54.9,0.400,-0.400,181.080,1000.0
2025-09-08T18:27:14.584279,-8.130,7.760,340.410,-54.9,0.400,-0.400,181.080,1000.0
2025-09-08T18:27:14.585280,-7.440,7.730,342.230,-54.9,0.400,-0.400,181.080,1000.0
2025-09-08T18:27:14.639783,-6.100,7.520,344.400,-54.9,0.400,-0.400,181.080,1000.0
2025-09-08T18:27:14.641787,-4.370,7.080,346.860,-54.9,0.400,-0.400,181.080,1000.0
2025-09-08T18:27:14.670031,-2.320,6.400,349.430,-54.9,0.400,-0.400,181.080,1000.0
2025-09-08T18:27:14.673032,0.090,5.540,351.440,-54.9,0.400,-0.400,181.080,1000.0
2025-09-08T18:27:14.700045,2.860,4.550,353.630,-54.9,0.400,-0.400,181.080,1000.0
2025-09-08T18:27:14.730041,5.980,3.450,355.450,-54.9,0.400,-0.400,181.080,1000.0
2025-09-08T18:27:14.731046,9.260,2.180,356.600,-54.9,0.400,-0.400,181.080,1000.0
2025-09-08T18:27:14.775086,12.480,0.720,357.610,-54.9,0.400,-0.400,181.080,1000.0
2025-09-08T18:27:14.778084,15.230,-0.640,358.210,-54.9,0.400,-0.400,181.080,1000.0
2025-09-08T18:27:14.805049,18.730,-2.320,359.460,-54.9,0.400,-0.400,181.080,1000.0
2025-09-08T18:27:14.835773,21.530,-3.660,0.470,-54.9,0.400,-0.400,181.080,1000.0
2025-09-08T18:27:14.837778,23.800,-4.870,1.690,-54.9,0.400,-0.400,181.080,1000.0
2025-09-08T18:27:14.866209,25.180,-5.750,2.040,-54.9,0.400,-0.400,181.080,1000.0
2025-09-08T18:27:14.880214,26.260,-6.570,2.470,-54.9,0.400,-0.400,181.080,1000.0
2025-09-08T18:27:14.896209,26.580,-6.860,3.250,-54.9,0.400,-0.400,181.080,1000.0
2025-09-08T18:27:14.926436,26.370,-6.710,4.190,-54.9,0.400,-0.400,181.080,1000.0
2025-09-08T18:27:14.940438,25.800,-6.010,5.580,-54.9,0.400,-0.400,181.080,1000.0
2025-09-08T18:27:14.971742,25.030,-4.770,7.230,-54.9,0.400,-0.400,181.080,1000.0
2025-09-08T18:27:14.975745,24.150,-3.140,8.880,-54.9,0.400,-0.400,181.080,1000.0
2025-09-08T18:27:15.001743,23.260,-1.210,10.570,-54.9,0.400,-0.400,181.080,1000.0
2025-09-08T18:27:15.046269,22.490,0.920,12.220,-54.9,0.400,-0.400,181.080,1000.0
2025-09-08T18:27:15.048268,21.800,3.100,13.710,-54.9,0.400,-0.400,181.080,1000.0
2025-09-08T18:27:15.077268,21.250,5.200,14.870,-54.9,0.400,-0.400,181.080,1000.0
2025-09-08T18:27:15.080270,20.870,7.070,15.810,-54.9,0.400,-0.400,181.080,1000.0
2025-09-08T18:27:15.107267,20.680,8.570,16.730,-54.9,0.400,-0.400,181.080,1000.0
2025-09-08T18:27:15.108271,20.590,9.820,17.410,-54.9,0.400,-0.400,181.080,1000.0
2025-09-08T18:27:15.137269,20.700,10.710,18.080,-54.9,0.400,-0.400,181.080,1000.0
2025-09-08T18:27:15.167267,20.940,11.190,18.250,-54.9,0.400,-0.400,181.080,1000.0
2025-09-08T18:27:15.171272,21.580,11.670,18.500,-54.9,0.400,-0.400,181.080,1000.0
2025-09-08T18:27:15.196267,22.160,11.670,19.010,-54.9,0.400,-0.400,181.080,1000.0
2025-09-08T18:27:15.198268,22.800,11.520,19.500,-54.9,0.400,-0.400,181.080,1000.0
2025-09-08T18:27:15.226275,23.360,11.210,19.890,-54.9,0.400,-0.400,181.080,1000.0
2025-09-08T18:27:15.257268,23.740,10.800,20.080,-54.9,0.400,-0.400,181.080,1000.0
2025-09-08T18:27:15.288278,23.790,10.360,20.060,-54.9,0.400,-0.400,181.080,1000.0
2025-09-08T18:27:15.317267,23.430,10.030,19.810,-54.9,0.400,-0.400,181.080,1000.0
2025-09-08T18:27:15.320267,22.670,9.810,19.530,-54.9,0.400,-0.400,181.080,1000.0
2025-09-08T18:27:15.346268,21.610,9.780,19.250,-54.9,0.400,-0.400,181.080,1000.0
2025-09-08T18:27:15.377268,20.350,9.980,19.260,-54.9,0.400,-0.400,181.080,1000.0
2025-09-08T18:27:15.380269,18.890,10.250,19.360,-54.9,0.400,-0.400,181.080,1000.0
2025-09-08T18:27:15.407269,17.350,10.580,19.720,-54.9,0.400,-0.400,181.080,1000.0
2025-09-08T18:27:15.408269,15.850,10.960,20.040,-54.9,0.400,-0.400,181.080,1000.0
2025-09-08T18:27:15.437267,14.340,11.340,20.250,-54.9,0.400,-0.400,181.080,1000.0
2025-09-08T18:27:15.467268,12.950,11.610,20.210,-54.9,0.400,-0.400,181.080,1000.0
2025-09-08T18:27:15.471267,11.180,11.860,20.200,-54.9,0.400,-0.400,181.080,1000.0
2025-09-08T18:27:15.497428,9.590,11.940,20.210,-54.9,0.400,-0.400,181.080,1000.0
2025-09-08T18:27:15.498430,8.130,11.930,20.100,-54.9,0.400,-0.400,181.080,1000.0
2025-09-08T18:27:15.542976,7.010,11.890,20.240,-54.9,0.400,-0.400,181.080,1000.0
2025-09-08T18:27:15.572703,6.230,11.790,20.360,-54.9,0.400,-0.400,181.080,1000.0
2025-09-08T18:27:15.589704,5.530,11.480,20.490,-54.9,0.400,-0.400,181.080,1000.0
2025-09-08T18:27:15.602381,4.870,10.830,20.430,-54.9,0.400,-0.400,181.080,1000.0
2025-09-08T18:27:15.603383,4.430,10.070,20.420,-54.9,0.400,-0.400,181.080,1000.0
2025-09-08T18:27:15.632513,4.200,9.430,20.610,-54.9,0.400,-0.400,181.080,1000.0
2025-09-08T18:27:15.677750,3.870,8.440,20.670,-54.9,0.400,-0.400,181.080,1000.0
2025-09-08T18:27:15.680755,3.490,7.430,20.880,-54.9,0.400,-0.400,181.080,1000.0
2025-09-08T18:27:15.707821,3.100,6.300,21.130,-54.9,0.400,-0.400,181.080,1000.0
2025-09-08T18:27:15.708820,3.010,5.360,21.530,-54.9,0.400,-0.400,181.080,1000.0
2025-09-08T18:27:15.737107,3.130,4.510,22.210,-54.9,0.400,-0.400,181.080,1000.0
2025-09-08T18:27:15.783306,3.440,3.620,23.090,-54.9,0.400,-0.400,181.080,1000.0
2025-09-08T18:27:15.789305,3.950,2.760,24.210,-54.9,0.400,-0.400,181.080,1000.0
2025-09-08T18:27:15.813901,4.860,2.020,25.490,-54.9,0.400,-0.400,181.080,1000.0
2025-09-08T18:27:15.815900,6.150,1.390,26.880,-54.9,0.400,-0.400,181.080,1000.0
2025-09-08T18:27:15.843901,7.370,0.830,27.970,-54.9,0.400,-0.400,181.080,1000.0
2025-09-08T18:27:15.874358,9.030,0.000,29.370,-54.9,0.400,-0.400,181.080,1000.0
2025-09-08T18:27:15.878356,10.610,-0.780,30.630,-54.9,0.400,-0.400,181.080,1000.0
2025-09-08T18:27:15.904045,12.290,-1.580,31.510,-54.9,0.400,-0.400,181.080,1000.0
2025-09-08T18:27:15.905044,14.070,-2.430,32.190,-55.0,0.400,-0.400,181.080,1000.0
2025-09-08T18:27:15.934360,15.880,-3.220,32.640,-55.0,0.400,-0.400,181.080,1000.0
2025-09-08T18:27:15.980175,17.250,-3.700,32.810,-54.9,0.400,-0.400,181.080,1000.0
2025-09-08T18:27:15.983177,19.470,-4.360,32.650,-54.9,0.400,-0.400,181.080,1000.0
2025-09-08T18:27:15.995178,21.130,-4.840,32.240,-54.9,0.400,-0.400,181.080,1000.0
2025-09-08T18:27:16.009182,22.080,-5.100,31.750,-54.9,0.400,-0.400,181.080,1000.0
2025-09-08T18:27:16.041337,22.730,-5.320,31.140,-54.9,0.400,-0.400,181.080,1000.0
2025-09-08T18:27:16.085845,22.900,-5.460,30.440,-55.0,0.400,-0.400,181.080,1000.0
2025-09-08T18:27:16.090841,22.590,-5.470,29.680,-55.0,0.400,-0.400,181.080,1000.0
2025-09-08T18:27:16.116621,22.050,-5.240,28.940,-55.0,0.400,-0.400,181.080,1000.0
2025-09-08T18:27:16.118621,21.390,-4.720,28.190,-55.0,0.400,-0.400,181.080,1000.0
2025-09-08T18:27:16.145617,20.360,-3.890,27.220,-55.0,0.400,-0.400,181.080,1000.0
2025-09-08T18:27:16.176850,19.120,-2.980,26.320,-54.9,0.400,-0.400,181.080,1000.0
2025-09-08T18:27:16.180852,17.780,-1.820,25.520,-54.9,0.400,-0.400,181.080,1000.0
2025-09-08T18:27:16.206715,16.390,-0.520,24.650,-54.9,0.400,-0.400,181.080,1000.0
2025-09-08T18:27:16.207714,15.100,0.580,23.840,-54.9,0.400,-0.400,181.080,1000.0
2025-09-08T18:27:16.236715,13.770,1.580,23.160,-54.9,0.400,-0.400,181.080,1000.0
2025-09-08T18:27:16.238717,12.640,2.440,22.580,-54.9,0.400,-0.400,181.080,1000.0
2025-09-08T18:27:16.266828,11.350,3.570,21.700,-54.9,0.400,-0.400,181.080,1000.0
2025-09-08T18:27:16.311734,10.340,4.520,20.810,-54.9,0.400,-0.400,181.080,1000.0
2025-09-08T18:27:16.313735,9.370,5.310,19.890,-54.9,0.400,-0.400,181.080,1000.0
2025-09-08T18:27:16.340732,8.620,5.830,19.170,-54.9,0.400,-0.400,181.080,1000.0
2025-09-08T18:27:16.355768,8.300,6.220,18.760,-54.9,0.400,-0.400,181.080,1000.0
2025-09-08T18:27:16.416738,8.440,6.470,18.580,-54.9,0.400,-0.400,181.080,1000.0
2025-09-08T18:27:16.419735,9.070,6.460,18.630,-54.9,0.400,-0.400,181.080,1000.0
2025-09-08T18:27:16.421733,10.120,6.160,19.000,-54.9,0.400,-0.400,181.080,1000.0
2025-09-08T18:27:16.446734,11.490,5.560,19.690,-54.9,0.400,-0.400,181.080,1000.0
2025-09-08T18:27:16.447733,13.160,4.660,20.610,-54.9,0.400,-0.400,181.080,1000.0
2025-09-08T18:27:16.476768,15.080,3.360,21.590,-54.9,0.400,-0.400,181.080,1000.0
2025-09-08T18:27:16.506454,16.480,2.080,22.100,-54.9,0.400,-0.400,181.080,1000.0
2025-09-08T18:27:16.507453,18.610,-0.500,22.330,-54.9,0.400,-0.400,181.080,1000.0
2025-09-08T18:27:16.551454,20.200,-2.740,22.070,-54.9,0.400,-0.400,181.080,1000.0
2025-09-08T18:27:16.553455,21.600,-5.030,21.500,-54.9,0.400,-0.400,181.080,1000.0
2025-09-08T18:27:16.581453,22.660,-7.300,20.770,-54.9,0.400,-0.400,181.080,1000.0
2025-09-08T18:27:16.611453,23.290,-9.150,20.180,-54.9,0.400,-0.400,181.080,1000.0
2025-09-08T18:27:16.614467,24.070,-11.260,19.620,-54.9,0.400,-0.400,181.080,1000.0
2025-09-08T18:27:16.640459,24.590,-12.720,19.340,-54.8,0.400,-0.400,181.080,1000.0
2025-09-08T18:27:16.642454,24.710,-14.030,19.040,-54.8,0.400,-0.400,181.080,1000.0
2025-09-08T18:27:16.671454,24.330,-15.230,18.490,-54.8,0.400,-0.400,181.080,1000.0
2025-09-08T18:27:16.716263,23.530,-16.240,17.360,-54.8,0.400,-0.400,181.080,1000.0
2025-09-08T18:27:16.719943,22.360,-17.000,15.570,-54.9,0.400,-0.400,181.080,1000.0
2025-09-08T18:27:16.746951,21.140,-17.350,13.960,-54.9,0.400,-0.400,181.080,1000.0
2025-09-08T18:27:16.747945,18.800,-17.710,11.550,-54.9,0.400,-0.400,181.080,1000.0
2025-09-08T18:27:16.791187,17.110,-17.670,10.320,-54.9,0.400,-0.400,181.080,1000.0
2025-09-08T18:27:16.822804,15.620,-17.400,9.560,-54.9,0.400,-0.400,181.080,1000.0
2025-09-08T18:27:16.824818,14.010,-17.240,9.030,-54.9,0.400,-0.400,181.080,1000.0
2025-09-08T18:27:16.852958,12.060,-17.230,8.450,-54.9,0.400,-0.400,181.080,1000.0
2025-09-08T18:27:16.853959,10.380,-17.130,7.920,-54.9,0.400,-0.400,181.080,1000.0
2025-09-08T18:27:16.883563,8.400,-16.820,7.090,-54.9,0.400,-0.400,181.080,1000.0
2025-09-08T18:27:16.913065,6.940,-16.310,6.350,-54.9,0.400,-0.400,181.080,1000.0
2025-09-08T18:27:16.916066,5.570,-15.580,5.680,-54.9,0.400,-0.400,181.080,1000.0
2025-09-08T18:27:16.943730,4.270,-14.720,5.030,-54.9,0.400,-0.400,181.080,1000.0
2025-09-08T18:27:16.944859,3.010,-13.790,4.330,-54.8,0.400,-0.400,181.080,1000.0
2025-09-08T18:27:16.972863,1.800,-12.810,3.610,-54.8,0.400,-0.400,181.080,1000.0
2025-09-08T18:27:17.003857,0.840,-11.910,3.010,-54.8,0.400,-0.400,181.080,1000.0
2025-09-08T18:27:17.004857,-0.250,-10.680,2.270,-54.8,0.400,-0.400,181.080,1000.0
2025-09-08T18:27:17.063801,-1.020,-9.610,1.650,-54.9,0.400,-0.400,181.080,1000.0
2025-09-08T18:27:17.065798,-1.560,-8.440,1.040,-54.9,0.400,-0.400,181.080,1000.0
2025-09-08T18:27:17.070798,-1.900,-7.120,0.380,-54.9,0.400,-0.400,181.080,1000.0
2025-09-08T18:27:17.123010,-2.130,-5.790,359.720,-54.9,0.400,-0.400,181.080,1000.0
2025-09-08T18:27:17.125010,-2.320,-4.400,359.140,-54.9,0.400,-0.400,181.080,1000.0
2025-09-08T18:27:17.153718,-2.540,-3.010,358.770,-54.9,0.400,-0.400,181.080,1000.0
2025-09-08T18:27:17.154718,-2.730,-1.960,358.650,-54.9,0.400,-0.400,181.080,1000.0
2025-09-08T18:27:17.183802,-3.090,-0.220,358.670,-54.9,0.400,-0.400,181.080,1000.0
2025-09-08T18:27:17.185804,-3.390,1.010,358.890,-54.9,0.400,-0.400,181.080,1000.0
2025-09-08T18:27:17.213648,-3.730,2.170,359.240,-54.9,0.400,-0.400,181.080,1000.0
2025-09-08T18:27:17.243662,-4.130,3.170,359.570,-54.9,0.400,-0.400,181.080,1000.0
2025-09-08T18:27:17.244660,-4.400,4.040,359.790,-54.9,0.400,-0.400,181.080,1000.0
2025-09-08T18:27:17.288907,-4.370,4.850,0.010,-54.9,0.400,-0.400,181.080,1000.0
2025-09-08T18:27:17.289908,-3.970,5.530,0.300,-54.9,0.400,-0.400,181.080,1000.0
2025-09-08T18:27:17.319356,-3.340,5.990,0.640,-54.9,0.400,-0.400,181.080,1000.0
2025-09-08T18:27:17.350575,-2.560,6.240,0.960,-54.9,0.400,-0.400,181.080,1000.0
2025-09-08T18:27:17.352579,-1.520,6.300,1.320,-54.9,0.400,-0.400,181.080,1000.0
2025-09-08T18:27:17.380563,-0.490,6.310,1.670,-54.9,0.400,-0.400,181.080,1000.0
2025-09-08T18:27:17.394519,1.480,6.210,2.420,-54.9,0.400,-0.400,181.080,1000.0
2025-09-08T18:27:17.410521,3.000,5.870,3.050,-54.9,0.400,-0.400,181.080,1000.0
2025-09-08T18:27:17.455600,4.390,5.340,3.700,-54.9,0.400,-0.400,181.080,1000.0
2025-09-08T18:27:17.457567,5.730,4.680,4.350,-54.9,0.400,-0.400,181.080,1000.0
2025-09-08T18:27:17.485568,7.050,3.920,4.970,-54.9,0.400,-0.400,181.080,1000.0
2025-09-08T18:27:17.486566,8.210,3.120,5.620,-54.9,0.400,-0.400,181.080,1000.0
2025-09-08T18:27:17.515566,9.270,2.340,6.320,-54.9,0.400,-0.400,181.080,1000.0
2025-09-08T18:27:17.560490,10.250,1.650,7.030,-54.9,0.400,-0.400,181.080,1000.0
2025-09-08T18:27:17.562501,11.040,1.130,7.580,-54.9,0.400,-0.400,181.080,1000.0
2025-09-08T18:27:17.590480,11.610,0.820,7.970,-54.9,0.400,-0.400,181.080,1000.0
2025-09-08T18:27:17.591479,12.000,0.730,8.360,-54.9,0.400,-0.400,181.080,1000.0
2025-09-08T18:27:17.620419,12.240,0.810,8.870,-54.9,0.400,-0.400,181.080,1000.0
2025-09-08T18:27:17.650471,12.400,0.970,9.530,-54.9,0.400,-0.400,181.080,1000.0
2025-09-08T18:27:17.651472,12.540,1.140,10.310,-54.9,0.400,-0.400,181.080,1000.0
2025-09-08T18:27:17.680833,12.690,1.330,11.180,-54.9,0.400,-0.400,181.080,1000.0
2025-09-08T18:27:17.682431,12.850,1.510,12.140,-54.9,0.400,-0.400,181.080,1000.0
2025-09-08T18:27:17.711443,13.040,1.630,13.060,-55.0,0.400,-0.400,181.080,1000.0
2025-09-08T18:27:17.741561,13.290,1.740,13.970,-55.0,0.400,-0.400,181.080,1000.0
2025-09-08T18:27:17.756562,13.510,1.780,14.550,-55.0,0.400,-0.400,181.080,1000.0
2025-09-08T18:27:17.786691,13.760,1.760,15.030,-55.0,0.400,-0.400,181.080,1000.0
2025-09-08T18:27:17.788696,14.010,1.800,15.340,-55.0,0.400,-0.400,181.080,1000.0
2025-09-08T18:27:17.831938,14.260,1.860,15.520,-54.9,0.400,-0.400,181.080,1000.0
2025-09-08T18:27:17.862421,14.420,1.980,15.610,-54.9,0.400,-0.400,181.080,1000.0
2025-09-08T18:27:17.863420,14.520,2.120,15.660,-54.9,0.400,-0.400,181.080,1000.0
2025-09-08T18:27:17.892955,14.590,2.340,15.810,-55.0,0.400,-0.400,181.080,1000.0
2025-09-08T18:27:17.893956,14.580,2.560,16.000,-55.0,0.400,-0.400,181.080,1000.0
2025-09-08T18:27:17.922820,14.450,2.820,16.180,-55.0,0.400,-0.400,181.080,1000.0
2025-09-08T18:27:17.952718,14.140,3.110,16.270,-55.0,0.400,-0.400,181.080,1000.0
2025-09-08T18:27:17.954715,13.710,3.400,16.310,-55.0,0.400,-0.400,181.080,1000.0
2025-09-08T18:27:17.983438,12.990,3.720,16.380,-55.0,0.400,-0.400,181.080,1000.0
2025-09-08T18:27:17.985435,12.150,3.860,16.510,-55.0,0.400,-0.400,181.080,1000.0
2025-09-08T18:27:18.013432,11.370,3.920,16.650,-55.0,0.400,-0.400,181.080,1000.0
2025-09-08T18:27:18.073435,10.510,3.990,16.930,-55.0,0.400,-0.400,181.080,1000.0
2025-09-08T18:27:18.075432,9.640,4.080,17.440,-55.0,0.400,-0.400,181.080,1000.0
2025-09-08T18:27:18.079432,8.900,4.090,18.020,-55.0,0.400,-0.400,181.080,1000.0
2025-09-08T18:27:18.081430,8.260,4.020,18.630,-55.0,0.400,-0.400,181.080,1000.0
2025-09-08T18:27:18.118437,7.790,3.930,19.180,-55.0,0.400,-0.400,181.080,1000.0
2025-09-08T18:27:18.163972,7.330,3.750,19.870,-55.0,0.400,-0.400,181.080,1000.0
2025-09-08T18:27:18.165973,7.000,3.590,20.580,-55.0,0.400,-0.400,181.080,1000.0
2025-09-08T18:27:18.193870,6.800,3.470,21.340,-55.0,0.400,-0.400,181.080,1000.0
2025-09-08T18:27:18.195860,6.650,3.420,22.060,-55.0,0.400,-0.400,181.080,1000.0
2025-09-08T18:27:18.224862,6.560,3.460,22.710,-55.0,0.400,-0.400,181.080,1000.0
2025-09-08T18:27:18.253932,6.510,3.510,23.210,-55.0,0.400,-0.400,181.080,1000.0
2025-09-08T18:27:18.255929,6.400,3.600,23.880,-55.0,0.400,-0.400,181.080,1000.0
2025-09-08T18:27:18.283979,6.310,3.690,24.460,-55.0,0.400,-0.400,181.080,1000.0
2025-09-08T18:27:18.285980,6.250,3.760,24.990,-55.0,0.400,-0.400,181.080,1000.0
2025-09-08T18:27:18.329454,6.210,3.830,25.480,-55.0,0.400,-0.400,181.080,1000.0
2025-09-08T18:27:18.330460,6.200,3.900,25.940,-55.0,0.400,-0.400,181.080,1000.0
2025-09-08T18:27:18.359386,6.220,3.930,26.360,-55.0,0.400,-0.400,181.080,1000.0
2025-09-08T18:27:18.388827,6.240,3.930,26.700,-55.0,0.400,-0.400,181.080,1000.0
2025-09-08T18:27:18.390783,6.290,3.910,26.970,-55.0,0.400,-0.400,181.080,1000.0
2025-09-08T18:27:18.419783,6.340,3.890,27.160,-55.0,0.400,-0.400,181.080,1000.0
2025-09-08T18:27:18.421783,6.420,3.900,27.360,-55.0,0.400,-0.400,181.080,1000.0
2025-09-08T18:27:18.463789,6.500,3.920,27.500,-55.0,0.400,-0.400,181.080,1000.0
2025-09-08T18:27:18.493782,6.560,3.930,27.580,-55.0,0.400,-0.400,181.080,1000.0
2025-09-08T18:27:18.495783,6.630,3.940,27.620,-55.0,0.400,-0.400,181.080,1000.0
2025-09-08T18:27:18.524783,6.690,3.930,27.670,-55.0,0.400,-0.400,181.080,1000.0
2025-09-08T18:27:18.527785,6.760,3.950,27.740,-55.0,0.400,-0.400,181.080,1000.0
2025-09-08T18:27:18.569789,6.830,3.990,27.830,-55.0,0.400,-0.400,181.080,1000.0
2025-09-08T18:27:18.599787,6.850,4.000,27.870,-55.0,0.400,-0.400,181.080,1000.0
2025-09-08T18:27:18.601786,6.830,3.980,27.870,-55.0,0.400,-0.400,181.080,1000.0
2025-09-08T18:27:18.629783,6.800,3.970,27.860,-55.0,0.400,-0.400,181.080,1000.0
2025-09-08T18:27:18.630785,6.760,3.950,27.860,-55.0,0.400,-0.400,181.080,1000.0
2025-09-08T18:27:18.659783,6.720,3.930,27.880,-55.0,0.400,-0.400,181.080,1000.0
2025-09-08T18:27:18.688793,6.690,3.920,27.910,-55.0,0.400,-0.400,181.080,1000.0
2025-09-08T18:27:18.690782,6.500,4.320,27.960,-55.0,0.400,-0.400,181.080,1000.0
2025-09-08T18:27:18.719786,6.450,4.320,27.950,-55.0,0.400,-0.400,181.080,1000.0
2025-09-08T18:27:18.722788,6.380,4.320,27.880,-55.0,0.400,-0.400,181.080,1000.0
2025-09-08T18:27:18.748782,6.300,4.300,27.750,-55.0,0.400,-0.400,181.080,1000.0
2025-09-08T18:27:18.778789,6.160,4.310,27.530,-55.0,0.400,-0.400,181.080,1000.0
2025-09-08T18:27:18.809785,5.920,4.310,27.240,-55.0,0.400,-0.400,181.080,1000.0
2025-09-08T18:27:18.812782,5.600,4.310,26.940,-55.0,0.400,-0.400,181.080,1000.0
2025-09-08T18:27:18.839792,5.160,4.270,26.620,-55.0,0.400,-0.400,181.080,1000.0
2025-09-08T18:27:18.870378,4.650,4.220,26.330,-55.0,0.400,-0.400,181.080,1000.0
2025-09-08T18:27:18.900823,4.030,4.200,26.010,-55.0,0.400,-0.400,181.080,1000.0
2025-09-08T18:27:18.902173,3.380,4.240,25.670,-55.0,0.400,-0.400,181.080,1000.0
2025-09-08T18:27:18.931016,2.690,4.360,25.360,-55.0,0.400,-0.400,181.080,1000.0
2025-09-08T18:27:18.931958,2.000,4.520,25.100,-55.0,0.400,-0.400,181.080,1000.0
2025-09-08T18:27:18.961010,1.360,4.730,24.950,-55.0,0.400,-0.400,181.080,1000.0
2025-09-08T18:27:18.990686,0.780,4.920,24.870,-55.0,0.400,-0.400,181.080,1000.0
2025-09-08T18:27:18.992687,0.280,5.090,24.860,-55.0,0.400,-0.400,181.080,1000.0
2025-09-08T18:27:19.020489,-0.190,5.230,24.830,-55.0,0.400,-0.400,181.080,1000.0
2025-09-08T18:27:19.023488,-0.660,5.310,24.700,-55.0,0.400,-0.400,181.080,1000.0
2025-09-08T18:27:19.066370,-1.140,5.330,24.510,-55.0,0.400,-0.400,181.080,1000.0
2025-09-08T18:27:19.071378,-1.560,5.340,24.340,-55.0,0.400,-0.400,181.080,1000.0
2025-09-08T18:27:19.096434,-1.880,5.310,24.240,-55.0,0.400,-0.400,181.080,1000.0
2025-09-08T18:27:19.126433,-2.180,5.240,24.160,-55.0,0.400,-0.400,181.080,1000.0
2025-09-08T18:27:19.140441,-2.490,5.110,24.060,-55.0,0.400,-0.400,181.080,1000.0
2025-09-08T18:27:19.156434,-2.780,4.990,23.940,-55.0,0.400,-0.400,181.080,1000.0
2025-09-08T18:27:19.201434,-3.010,4.890,23.820,-55.0,0.400,-0.400,181.080,1000.0
2025-09-08T18:27:19.202433,-3.240,4.820,23.720,-55.0,0.400,-0.400,181.080,1000.0
2025-09-08T18:27:19.230433,-3.530,4.730,23.660,-55.0,0.400,-0.400,181.080,1000.0
2025-09-08T18:27:19.232433,-3.830,4.660,23.610,-55.0,0.400,-0.400,181.080,1000.0
2025-09-08T18:27:19.261432,-4.110,4.650,23.590,-55.0,0.400,-0.400,181.080,1000.0
2025-09-08T18:27:19.265434,-4.420,4.680,23.580,-55.0,0.400,-0.400,181.080,1000.0
2025-09-08T18:27:19.292432,-4.800,4.700,23.590,-55.0,0.400,-0.400,181.080,1000.0
2025-09-08T18:27:19.336433,-5.240,4.730,23.600,-55.0,0.400,-0.400,181.080,1000.0
2025-09-08T18:27:19.338436,-5.700,4.770,23.630,-55.0,0.400,-0.400,181.080,1000.0
2025-09-08T18:27:19.366435,-6.170,4.830,23.670,-55.0,0.400,-0.400,181.080,1000.0
2025-09-08T18:27:19.371434,-6.690,4.910,23.700,-55.0,0.400,-0.400,181.080,1000.0
2025-09-08T18:27:19.396438,-7.360,4.980,23.670,-55.0,0.400,-0.400,181.080,1000.0
2025-09-08T18:27:19.425433,-8.070,5.060,23.610,-55.0,0.400,-0.400,181.080,1000.0
2025-09-08T18:27:19.427432,-8.640,5.180,23.590,-55.0,0.400,-0.400,181.080,1000.0
2025-09-08T18:27:19.455439,-9.330,5.330,23.650,-55.0,0.400,-0.400,181.080,1000.0
2025-09-08T18:27:19.471432,-9.990,5.400,23.750,-55.0,0.400,-0.400,181.080,1000.0
2025-09-08T18:27:19.486433,-10.640,5.400,23.850,-55.0,0.400,-0.400,181.080,1000.0
2025-09-08T18:27:19.546320,-11.220,5.430,23.940,-55.0,0.400,-0.400,181.080,1000.0
2025-09-08T18:27:19.547336,-11.790,5.470,24.040,-55.0,0.400,-0.400,181.080,1000.0
2025-09-08T18:27:19.576687,-12.200,5.490,24.110,-55.0,0.400,-0.400,181.080,1000.0
2025-09-08T18:27:19.580686,-12.630,5.510,24.180,-55.0,0.400,-0.400,181.080,1000.0
2025-09-08T18:27:19.606419,-13.020,5.540,24.240,-55.0,0.400,-0.400,181.080,1000.0
2025-09-08T18:27:19.636617,-13.330,5.610,24.250,-55.0,0.400,-0.400,181.080,1000.0
2025-09-08T18:27:19.638617,-13.610,5.720,24.200,-55.0,0.400,-0.400,181.080,1000.0
2025-09-08T18:27:19.666902,-13.870,5.810,24.150,-55.0,0.400,-0.400,181.080,1000.0
2025-09-08T18:27:19.669908,-14.020,5.840,24.160,-55.0,0.400,-0.400,181.080,1000.0
2025-09-08T18:27:19.696907,-14.140,5.820,24.190,-55.0,0.400,-0.400,181.080,1000.0
2025-09-08T18:27:19.727689,-14.210,5.780,24.240,-55.0,0.400,-0.400,181.080,1000.0
2025-09-08T18:27:19.728688,-14.260,5.730,24.280,-55.0,0.400,-0.400,181.080,1000.0
2025-09-08T18:27:19.757454,-14.320,5.640,24.340,-55.0,0.400,-0.400,181.080,1000.0
2025-09-08T18:27:19.760454,-14.360,5.540,24.420,-55.0,0.400,-0.400,181.080,1000.0
2025-09-08T18:27:19.802160,-14.430,5.460,24.470,-55.0,0.400,-0.400,181.080,1000.0
2025-09-08T18:27:19.832161,-14.550,5.430,24.460,-55.0,0.400,-0.400,181.080,1000.0
2025-09-08T18:27:19.834159,-14.750,5.450,24.400,-55.0,0.400,-0.400,181.080,1000.0
2025-09-08T18:27:19.877238,-15.050,5.500,24.360,-55.0,0.400,-0.400,181.080,1000.0
2025-09-08T18:27:19.882236,-15.360,5.560,24.360,-55.0,0.400,-0.400,181.080,1000.0
2025-09-08T18:27:19.884238,-15.670,5.630,24.390,-55.0,0.400,-0.400,181.080,1000.0
2025-09-08T18:27:19.937010,-15.970,5.750,24.440,-55.0,0.400,-0.400,181.080,1000.0
2025-09-08T18:27:19.939011,-16.240,5.880,24.490,-55.0,0.400,-0.400,181.080,1000.0
2025-09-08T18:27:19.967465,-16.560,6.030,24.520,-55.0,0.400,-0.400,181.080,1000.0
2025-09-08T18:27:19.970417,-16.980,6.210,24.480,-55.0,0.400,-0.400,181.080,1000.0
2025-09-08T18:27:19.997425,-17.310,6.380,24.420,-55.0,0.400,-0.400,181.080,1000.0
2025-09-08T18:27:20.028115,-17.540,6.490,24.390,-55.0,0.400,-0.400,181.080,1000.0
2025-09-08T18:27:20.029116,-17.770,6.590,24.400,-55.0,0.400,-0.400,181.080,1000.0
2025-09-08T18:27:20.073987,-18.040,6.680,24.390,-55.1,0.400,-0.400,181.080,1000.0
2025-09-08T18:27:20.077987,-18.300,6.730,24.340,-55.1,0.400,-0.400,181.080,1000.0
2025-09-08T18:27:20.105280,-18.490,6.750,24.290,-55.1,0.400,-0.400,181.080,1000.0
2025-09-08T18:27:20.135528,-18.690,6.740,24.270,-55.1,0.400,-0.400,181.080,1000.0
2025-09-08T18:27:20.137522,-18.810,6.760,24.270,-55.1,0.400,-0.400,181.080,1000.0
2025-09-08T18:27:20.165825,-18.980,6.860,24.200,-55.0,0.400,-0.400,181.080,1000.0
2025-09-08T18:27:20.180823,-19.230,7.010,24.070,-55.1,0.400,-0.400,181.080,1000.0
2025-09-08T18:27:20.195833,-19.530,7.130,23.970,-55.1,0.400,-0.400,181.080,1000.0
2025-09-08T18:27:20.225824,-19.780,7.210,23.930,-55.1,0.400,-0.400,181.080,1000.0
2025-09-08T18:27:20.240825,-20.090,7.300,23.910,-55.1,0.400,-0.400,181.080,1000.0
2025-09-08T18:27:20.270827,-20.360,7.380,23.890,-55.1,0.400,-0.400,181.080,1000.0
2025-09-08T18:27:20.276824,-20.610,7.450,23.880,-55.1,0.400,-0.400,181.080,1000.0
2025-09-08T18:27:20.300825,-20.810,7.520,23.900,-55.1,0.400,-0.400,181.080,1000.0
2025-09-08T18:27:20.345825,-20.960,7.580,23.910,-55.1,0.400,-0.400,181.080,1000.0
2025-09-08T18:27:20.347823,-21.060,7.640,23.890,-55.1,0.400,-0.400,181.080,1000.0
2025-09-08T18:27:20.375829,-21.190,7.680,23.840,-55.1,0.400,-0.400,181.080,1000.0
2025-09-08T18:27:20.378823,-21.280,7.690,23.810,-55.1,0.400,-0.400,181.080,1000.0
2025-09-08T18:27:20.404833,-21.350,7.740,23.790,-55.1,0.400,-0.400,181.080,1000.0
2025-09-08T18:27:20.406823,-21.450,7.820,23.710,-55.1,0.400,-0.400,181.080,1000.0
2025-09-08T18:27:20.434837,-21.590,7.930,23.580,-55.1,0.400,-0.400,181.080,1000.0
2025-09-08T18:27:20.465827,-21.830,8.050,23.420,-55.1,0.400,-0.400,181.080,1000.0
2025-09-08T18:27:20.468823,-22.130,8.170,23.310,-55.1,0.400,-0.400,181.080,1000.0
2025-09-08T18:27:20.495823,-22.390,8.220,23.270,-55.1,0.400,-0.400,181.080,1000.0
2025-09-08T18:27:20.525823,-22.660,8.300,23.240,-55.1,0.400,-0.400,181.080,1000.0
2025-09-08T18:27:20.540825,-22.940,8.410,23.170,-55.1,0.400,-0.400,181.080,1000.0
2025-09-08T18:27:20.570825,-23.230,8.570,23.050,-55.1,0.400,-0.400,181.080,1000.0
2025-09-08T18:27:20.574823,-23.480,8.700,22.950,-55.1,0.400,-0.400,181.080,1000.0
2025-09-08T18:27:20.615823,-23.700,8.770,22.940,-55.1,0.400,-0.400,181.080,1000.0
2025-09-08T18:27:20.617824,-23.900,8.840,22.940,-55.1,0.400,-0.400,181.080,1000.0
2025-09-08T18:27:20.645823,-24.100,8.930,22.910,-55.1,0.400,-0.400,181.080,1000.0
2025-09-08T18:27:20.676057,-24.280,9.020,22.860,-55.1,0.400,-0.400,181.080,1000.0
2025-09-08T18:27:20.679058,-23.680,8.770,22.970,-55.1,0.400,-0.400,181.080,1000.0
2025-09-08T18:27:20.706633,-23.430,8.670,23.050,-55.1,0.400,-0.400,181.080,1000.0
2025-09-08T18:27:20.707632,-23.460,8.680,23.090,-55.1,0.400,-0.400,181.080,1000.0
2025-09-08T18:27:20.736222,-23.400,8.670,23.180,-55.1,0.400,-0.400,181.080,1000.0
2025-09-08T18:27:20.766058,-23.280,8.670,23.260,-55.1,0.400,-0.400,181.080,1000.0
2025-09-08T18:27:20.770056,-23.110,8.630,23.360,-55.1,0.400,-0.400,181.080,1000.0
2025-09-08T18:27:20.811088,-22.790,8.530,23.540,-55.1,0.400,-0.400,181.080,1000.0
2025-09-08T18:27:20.814100,-22.330,8.410,23.780,-55.0,0.400,-0.400,181.080,1000.0
2025-09-08T18:27:20.841136,-21.770,8.290,24.010,-55.0,0.400,-0.400,181.080,1000.0
2025-09-08T18:27:20.871492,-21.120,8.170,24.160,-55.0,0.400,-0.400,181.080,1000.0
2025-09-08T18:27:20.889493,-20.430,8.040,24.240,-55.0,0.400,-0.400,181.080,1000.0
2025-09-08T18:27:20.901494,-19.680,7.870,24.330,-55.0,0.400,-0.400,181.080,1000.0
2025-09-08T18:27:20.903494,-18.870,7.640,24.460,-55.0,0.400,-0.400,181.080,1000.0
2025-09-08T18:27:20.930494,-18.060,7.370,24.540,-55.0,0.400,-0.400,181.080,1000.0
2025-09-08T18:27:20.977287,-17.240,7.090,24.590,-55.0,0.400,-0.400,181.080,1000.0
2025-09-08T18:27:20.981285,-16.370,6.800,24.670,-55.0,0.400,-0.400,181.080,1000.0
2025-09-08T18:27:21.007285,-15.450,6.540,24.810,-55.0,0.400,-0.400,181.080,1000.0
2025-09-08T18:27:21.008284,-14.560,6.330,24.960,-55.0,0.400,-0.400,181.080,1000.0
2025-09-08T18:27:21.037228,-13.730,6.200,25.070,-55.0,0.400,-0.400,181.080,1000.0
2025-09-08T18:27:21.083137,-12.930,6.110,25.170,-55.0,0.400,-0.400,181.080,1000.0
2025-09-08T18:27:21.088138,-12.150,6.010,25.400,-55.0,0.400,-0.400,181.080,1000.0
2025-09-08T18:27:21.112848,-11.380,5.890,25.760,-55.0,0.400,-0.400,181.080,1000.0
2025-09-08T18:27:21.114848,-10.590,5.750,26.210,-55.0,0.400,-0.400,181.080,1000.0
2025-09-08T18:27:21.143970,-9.770,5.620,26.650,-55.0,0.400,-0.400,181.080,1000.0
2025-09-08T18:27:21.174607,-8.910,5.510,27.040,-55.0,0.400,-0.400,181.080,1000.0
2025-09-08T18:27:21.177606,-8.050,5.440,27.350,-55.0,0.400,-0.400,181.080,1000.0
2025-09-08T18:27:21.204773,-7.220,5.410,27.550,-55.0,0.400,-0.400,181.080,1000.0
2025-09-08T18:27:21.206773,-6.450,5.380,27.680,-55.0,0.400,-0.400,181.080,1000.0
2025-09-08T18:27:21.234771,-5.730,5.320,27.850,-55.0,0.400,-0.400,181.080,1000.0
2025-09-08T18:27:21.278779,-5.140,5.280,28.000,-55.0,0.400,-0.400,181.080,1000.0
2025-09-08T18:27:21.282780,-4.460,5.300,28.150,-55.0,0.400,-0.400,181.080,1000.0
2025-09-08T18:27:21.308780,-3.970,5.360,28.230,-55.0,0.400,-0.400,181.080,1000.0
2025-09-08T18:27:21.311772,-3.520,5.450,28.340,-55.0,0.400,-0.400,181.080,1000.0
2025-09-08T18:27:21.354771,-3.080,5.520,28.540,-55.0,0.400,-0.400,181.080,1000.0
2025-09-08T18:27:21.384771,-2.530,5.570,28.830,-55.0,0.400,-0.400,181.080,1000.0
2025-09-08T18:27:21.387774,-2.040,5.600,29.070,-55.0,0.400,-0.400,181.080,1000.0
2025-09-08T18:27:21.414772,-1.290,5.620,29.320,-55.0,0.400,-0.400,181.080,1000.0
2025-09-08T18:27:21.417771,-0.540,5.580,29.490,-55.0,0.400,-0.400,181.080,1000.0
2025-09-08T18:27:21.444772,0.210,5.520,29.630,-55.0,0.400,-0.400,181.080,1000.0
2025-09-08T18:27:21.474772,1.200,5.420,29.770,-55.0,0.400,-0.400,181.080,1000.0
2025-09-08T18:27:21.477772,2.230,5.260,29.830,-55.0,0.400,-0.400,181.080,1000.0
2025-09-08T18:27:21.504771,3.290,5.080,29.840,-55.0,0.400,-0.400,181.080,1000.0
2025-09-08T18:27:21.505770,4.390,4.890,29.870,-55.0,0.400,-0.400,181.080,1000.0
2025-09-08T18:27:21.534772,5.710,4.670,30.000,-55.1,0.400,-0.400,181.080,1000.0
2025-09-08T18:27:21.536772,6.770,4.470,30.180,-55.1,0.400,-0.400,181.080,1000.0
2025-09-08T18:27:21.564772,8.010,4.200,30.410,-55.1,0.400,-0.400,181.080,1000.0
2025-09-08T18:27:21.623778,9.280,3.900,30.620,-55.1,0.400,-0.400,181.080,1000.0
2025-09-08T18:27:21.625776,10.780,3.570,30.800,-55.1,0.400,-0.400,181.080,1000.0
2025-09-08T18:27:21.639773,12.150,3.280,30.910,-55.1,0.400,-0.400,181.080,1000.0
2025-09-08T18:27:21.685132,13.280,3.040,30.480,-55.1,0.400,-0.400,181.080,1000.0
2025-09-08T18:27:21.689132,14.720,2.740,30.300,-55.1,0.400,-0.400,181.080,1000.0
2025-09-08T18:27:21.715132,15.820,2.520,30.180,-55.1,0.400,-0.400,181.080,1000.0
2025-09-08T18:27:21.718130,16.950,2.310,30.130,-55.1,0.400,-0.400,181.080,1000.0
2025-09-08T18:27:21.745132,18.170,2.110,30.250,-55.1,0.400,-0.400,181.080,1000.0
2025-09-08T18:27:21.747131,19.190,1.970,30.400,-55.1,0.400,-0.400,181.080,1000.0
2025-09-08T18:27:21.775131,20.040,1.870,30.530,-55.1,0.400,-0.400,181.080,1000.0
2025-09-08T18:27:21.805132,20.970,1.800,30.620,-55.1,0.400,-0.400,181.080,1000.0
2025-09-08T18:27:21.806133,21.940,1.780,30.700,-55.1,0.400,-0.400,181.080,1000.0
2025-09-08T18:27:21.850141,22.700,1.760,30.720,-55.1,0.400,-0.400,181.080,1000.0
2025-09-08T18:27:21.851132,23.380,1.760,30.740,-55.1,0.400,-0.400,181.080,1000.0
2025-09-08T18:27:21.880133,23.990,1.780,30.770,-55.1,0.400,-0.400,181.080,1000.0
2025-09-08T18:27:21.910131,24.480,1.820,30.840,-55.1,0.400,-0.400,181.080,1000.0
2025-09-08T18:27:21.912137,24.960,1.870,30.970,-55.1,0.400,-0.400,181.080,1000.0
2025-09-08T18:27:21.940131,25.430,1.940,31.160,-55.1,0.400,-0.400,181.080,1000.0
2025-09-08T18:27:21.941132,25.960,2.010,31.370,-55.1,0.400,-0.400,181.080,1000.0
2025-09-08T18:27:21.969137,26.420,2.050,31.510,-55.1,0.400,-0.400,181.080,1000.0
2025-09-08T18:27:22.014130,26.820,2.060,31.600,-55.1,0.400,-0.400,181.080,1000.0
