Timestamp,Roll_Angle,Pitch_Angle,Yaw_Angle,Altitude,Roll_Setpoint,Pitch_Setpoint,Yaw_Setpoint,Altitude_Setpoint
2025-09-08T18:37:26.998842,6.220,-57.710,93.970,-55.9,0.080,0.000,130.000,1015.0
2025-09-08T18:37:27.003838,6.220,-57.710,93.970,-56.0,0.080,0.000,130.000,1015.0
2025-09-08T18:37:27.026841,6.230,-57.710,93.970,-55.9,0.080,0.000,130.000,1015.0
2025-09-08T18:37:27.028838,6.230,-57.720,93.980,-55.9,0.080,0.000,130.000,1015.0
2025-09-08T18:37:27.055838,6.250,-57.710,93.970,-55.9,0.080,0.000,130.000,1015.0
2025-09-08T18:37:27.085839,6.240,-57.720,93.980,-55.9,0.080,0.000,130.000,1015.0
2025-09-08T18:37:27.100839,6.250,-57.720,93.970,-55.9,0.080,0.000,130.000,1015.0
2025-09-08T18:37:27.115841,6.250,-57.710,93.980,-56.0,0.080,0.000,130.000,1015.0
2025-09-08T18:37:27.118841,6.250,-57.720,93.970,-56.0,0.080,0.000,130.000,1015.0
2025-09-08T18:37:27.145838,6.250,-57.710,93.980,-56.0,0.080,0.000,130.000,1015.0
2025-09-08T18:37:27.189843,6.260,-57.710,93.970,-56.0,0.080,0.000,130.000,1015.0
2025-09-08T18:37:27.192839,6.250,-57.710,93.980,-56.0,0.080,0.000,130.000,1015.0
2025-09-08T18:37:27.235837,6.250,-57.720,93.970,-56.0,0.080,0.000,130.000,1015.0
2025-09-08T18:37:27.236837,6.240,-57.700,93.980,-56.0,0.080,0.000,130.000,1015.0
2025-09-08T18:37:27.265838,6.240,-57.700,93.970,-55.9,0.080,0.000,130.000,1015.0
2025-09-08T18:37:27.295839,6.240,-57.690,93.990,-55.9,0.080,0.000,130.000,1015.0
2025-09-08T18:37:27.300840,6.230,-57.700,93.980,-55.9,0.080,0.000,130.000,1015.0
2025-09-08T18:37:27.325842,6.230,-57.680,93.990,-55.9,0.080,0.000,130.000,1015.0
2025-09-08T18:37:27.329842,6.220,-57.680,93.970,-55.9,0.080,0.000,130.000,1015.0
2025-09-08T18:37:27.355837,6.210,-57.670,93.980,-55.9,0.080,0.000,130.000,1015.0
2025-09-08T18:37:27.385839,6.200,-57.680,93.980,-55.9,0.080,0.000,130.000,1015.0
2025-09-08T18:37:27.391846,6.190,-57.660,93.990,-55.9,0.080,0.000,130.000,1015.0
2025-09-08T18:37:27.415837,6.180,-57.670,93.990,-55.9,0.080,0.000,130.000,1015.0
2025-09-08T18:37:27.417840,6.170,-57.660,93.990,-55.9,0.080,0.000,130.000,1015.0
2025-09-08T18:37:27.460836,6.170,-57.660,93.990,-55.9,0.080,0.000,130.000,1015.0
2025-09-08T18:37:27.504835,6.170,-57.650,93.990,-55.9,0.080,0.000,130.000,1015.0
2025-09-08T18:37:27.507836,6.160,-57.650,93.990,-55.9,0.080,0.000,130.000,1015.0
2025-09-08T18:37:27.520840,6.150,-57.640,93.990,-55.9,0.080,0.000,130.000,1015.0
2025-09-08T18:37:27.534836,6.150,-57.650,93.990,-55.9,0.080,0.000,130.000,1015.0
2025-09-08T18:37:27.565839,6.150,-57.640,93.990,-55.9,0.080,0.000,130.000,1015.0
2025-09-08T18:37:27.595838,6.150,-57.650,93.980,-55.9,0.080,0.000,130.000,1015.0
2025-09-08T18:37:27.599840,6.150,-57.640,93.990,-55.9,0.080,0.000,130.000,1015.0
2025-09-08T18:37:27.625837,6.150,-57.650,93.980,-55.9,0.080,0.000,130.000,1015.0
2025-09-08T18:37:27.627840,6.150,-57.640,93.990,-55.9,0.080,0.000,130.000,1015.0
2025-09-08T18:37:27.654836,6.150,-57.650,93.980,-55.9,0.080,0.000,130.000,1015.0
2025-09-08T18:37:27.700840,6.150,-57.650,93.980,-55.9,0.080,0.000,130.000,1015.0
2025-09-08T18:37:27.704843,6.150,-57.650,93.980,-55.9,0.080,0.000,130.000,1015.0
2025-09-08T18:37:27.730838,6.150,-57.650,93.980,-55.9,0.080,0.000,130.000,1015.0
2025-09-08T18:37:27.732842,6.160,-57.670,93.990,-55.9,0.080,0.000,130.000,1015.0
2025-09-08T18:37:27.760835,6.160,-57.670,93.980,-55.9,0.080,0.000,130.000,1015.0
2025-09-08T18:37:27.761834,6.160,-57.680,93.980,-55.9,0.080,0.000,130.000,1015.0
2025-09-08T18:37:27.790847,6.170,-57.680,93.980,-55.9,0.080,0.000,130.000,1015.0
2025-09-08T18:37:27.820839,6.160,-57.680,93.980,-56.0,0.080,0.000,130.000,1015.0
2025-09-08T18:37:27.821837,6.170,-57.680,93.970,-56.0,0.080,0.000,130.000,1015.0
2025-09-08T18:37:27.851837,6.160,-57.690,93.980,-56.0,0.080,0.000,130.000,1015.0
2025-09-08T18:37:27.852836,6.170,-57.680,93.980,-56.0,0.080,0.000,130.000,1015.0
2025-09-08T18:37:27.880836,6.180,-57.700,93.980,-56.0,0.080,0.000,130.000,1015.0
2025-09-08T18:37:27.940842,6.170,-57.700,93.970,-56.0,0.080,0.000,130.000,1015.0
2025-09-08T18:37:27.942838,6.180,-57.700,93.980,-56.0,0.080,0.000,130.000,1015.0
2025-09-08T18:37:27.970839,6.180,-57.700,93.970,-56.0,0.080,0.000,130.000,1015.0
2025-09-08T18:37:27.971839,6.180,-57.710,93.980,-56.0,0.080,0.000,130.000,1015.0
2025-09-08T18:37:28.000837,6.180,-57.700,93.970,-56.0,0.080,0.000,130.000,1015.0
2025-09-08T18:37:28.030835,6.180,-57.710,93.980,-56.0,0.080,0.000,130.000,1015.0
2025-09-08T18:37:28.032838,6.180,-57.720,93.970,-56.0,0.080,0.000,130.000,1015.0
2025-09-08T18:37:28.060836,6.190,-57.720,93.980,-56.0,0.080,0.000,130.000,1015.0
2025-09-08T18:37:28.061873,6.180,-57.720,93.960,-56.0,0.080,0.000,130.000,1015.0
2025-09-08T18:37:28.090836,6.190,-57.720,93.980,-56.0,0.080,0.000,130.000,1015.0
2025-09-08T18:37:28.120837,6.180,-57.720,93.950,-56.0,0.080,0.000,130.000,1015.0
2025-09-08T18:37:28.121837,6.190,-57.730,93.970,-56.0,0.080,0.000,130.000,1015.0
2025-09-08T18:37:28.165840,6.180,-57.730,93.960,-56.0,0.080,0.000,130.000,1015.0
2025-09-08T18:37:28.167841,6.180,-57.730,93.970,-56.0,0.080,0.000,130.000,1015.0
2025-09-08T18:37:28.195839,6.160,-57.730,93.950,-56.0,0.080,0.000,130.000,1015.0
2025-09-08T18:37:28.225838,6.180,-57.720,93.970,-56.0,0.080,0.000,130.000,1015.0
2025-09-08T18:37:28.239836,6.160,-57.730,93.950,-56.0,0.080,0.000,130.000,1015.0
2025-09-08T18:37:28.269836,6.170,-57.720,93.970,-56.0,0.080,0.000,130.000,1015.0
2025-09-08T18:37:28.271839,6.140,-57.710,93.940,-56.0,0.080,0.000,130.000,1015.0
2025-09-08T18:37:28.300838,6.150,-57.700,93.970,-56.0,0.080,0.000,130.000,1015.0
2025-09-08T18:37:28.330839,6.130,-57.700,93.940,-56.0,0.080,0.000,130.000,1015.0
2025-09-08T18:37:28.332850,6.140,-57.690,93.970,-56.0,0.080,0.000,130.000,1016.0
2025-09-08T18:37:28.361840,6.110,-57.690,93.950,-56.0,0.080,0.000,130.000,1015.0
2025-09-08T18:37:28.362836,6.130,-57.680,93.970,-56.0,0.080,0.000,130.000,1015.0
2025-09-08T18:37:28.405838,6.110,-57.690,93.950,-56.0,0.080,0.000,130.000,1015.0
2025-09-08T18:37:28.435836,6.120,-57.680,93.970,-56.0,0.080,0.000,130.000,1015.0
2025-09-08T18:37:28.436885,6.090,-57.680,93.950,-56.0,0.080,0.000,130.000,1015.0
2025-09-08T18:37:28.465837,6.100,-57.670,93.970,-56.0,0.080,0.000,130.000,1015.0
2025-09-08T18:37:28.467843,6.070,-57.670,93.940,-56.0,0.080,0.000,130.000,1015.0
2025-09-08T18:37:28.495836,6.090,-57.650,93.970,-56.0,0.080,0.000,130.000,1015.0
2025-09-08T18:37:28.496838,6.050,-57.660,93.950,-56.0,0.080,0.000,130.000,1015.0
2025-09-08T18:37:28.525838,6.060,-57.640,93.970,-56.0,0.080,0.000,130.000,1015.0
2025-09-08T18:37:28.569868,6.030,-57.650,93.940,-56.0,0.080,0.000,130.000,1015.0
2025-09-08T18:37:28.571839,6.040,-57.640,93.970,-56.0,0.080,0.000,130.000,1015.0
2025-09-08T18:37:28.585840,6.010,-57.640,93.950,-56.0,0.080,0.000,130.000,1015.0
2025-09-08T18:37:28.645837,6.020,-57.630,93.980,-56.0,0.080,0.000,130.000,1015.0
2025-09-08T18:37:28.647840,5.990,-57.650,93.950,-56.0,0.080,0.000,130.000,1015.0
2025-09-08T18:37:28.674841,6.000,-57.640,93.980,-56.0,0.080,0.000,130.000,1015.0
2025-09-08T18:37:28.676840,5.980,-57.650,93.950,-56.0,0.080,0.000,130.000,1015.0
2025-09-08T18:37:28.705838,5.990,-57.640,93.980,-56.0,0.080,0.000,130.000,1015.0
2025-09-08T18:37:28.706839,5.960,-57.660,93.950,-56.0,0.080,0.000,130.000,1015.0
2025-09-08T18:37:28.735836,5.970,-57.640,93.980,-56.0,0.080,0.000,130.000,1015.0
2025-09-08T18:37:28.765841,5.940,-57.650,93.950,-56.0,0.080,0.000,130.000,1015.0
2025-09-08T18:37:28.767844,5.950,-57.640,93.970,-56.0,0.080,0.000,130.000,1015.0
2025-09-08T18:37:28.795839,5.930,-57.650,93.950,-56.0,0.080,0.000,130.000,1015.0
2025-09-08T18:37:28.796839,5.950,-57.630,93.970,-56.0,0.080,0.000,130.000,1015.0
2025-09-08T18:37:28.825839,5.930,-57.650,93.950,-56.0,0.080,0.000,130.000,1015.0
2025-09-08T18:37:28.854836,5.940,-57.640,93.970,-56.0,0.080,0.000,130.000,1015.0
2025-09-08T18:37:28.856846,5.920,-57.650,93.960,-56.0,0.080,0.000,130.000,1015.0
2025-09-08T18:37:28.887840,5.950,-57.640,93.980,-56.0,0.080,0.000,130.000,1015.0
2025-09-08T18:37:28.888838,5.930,-57.660,93.960,-56.0,0.080,0.000,130.000,1015.0
2025-09-08T18:37:28.929836,5.950,-57.650,93.980,-56.0,0.080,0.000,130.000,1015.0
2025-09-08T18:37:28.975837,5.930,-57.670,93.960,-56.0,0.080,0.000,130.000,1015.0
2025-09-08T18:37:28.977841,5.950,-57.660,93.980,-56.0,0.080,0.000,130.000,1015.0
2025-09-08T18:37:29.005840,5.940,-57.670,93.960,-56.0,0.080,0.000,130.000,1015.0
2025-09-08T18:37:29.006841,5.960,-57.670,93.970,-56.0,0.080,0.000,130.000,1015.0
2025-09-08T18:37:29.035838,5.960,-57.680,93.960,-55.9,0.080,0.000,130.000,1015.0
2025-09-08T18:37:29.066838,5.970,-57.680,93.970,-55.9,0.080,0.000,130.000,1015.0
2025-09-08T18:37:29.068840,5.960,-57.690,93.960,-55.9,0.080,0.000,130.000,1015.0
2025-09-08T18:37:29.096839,5.980,-57.690,93.980,-55.9,0.080,0.000,130.000,1015.0
2025-09-08T18:37:29.098840,5.960,-57.690,93.960,-55.9,0.080,0.000,130.000,1015.0
2025-09-08T18:37:29.141839,5.980,-57.680,93.970,-55.9,0.080,0.000,130.000,1015.0
2025-09-08T18:37:29.171840,5.970,-57.700,93.970,-55.9,0.080,0.000,130.000,1015.0
2025-09-08T18:37:29.175838,5.980,-57.690,93.980,-55.9,0.080,0.000,130.000,1015.0
2025-09-08T18:37:29.201836,5.970,-57.700,93.970,-56.0,0.080,0.000,130.000,1015.0
2025-09-08T18:37:29.203837,5.980,-57.690,93.980,-56.0,0.080,0.000,130.000,1015.0
2025-09-08T18:37:29.231844,5.950,-57.690,93.970,-56.0,0.080,0.000,130.000,1015.0
2025-09-08T18:37:29.261838,5.970,-57.690,93.970,-56.0,0.080,0.000,130.000,1015.0
2025-09-08T18:37:29.275836,5.950,-57.690,93.970,-56.0,0.080,0.000,130.000,1015.0
2025-09-08T18:37:29.306844,5.970,-57.690,93.970,-56.0,0.080,0.000,130.000,1015.0
2025-09-08T18:37:29.307835,5.950,-57.690,93.960,-56.0,0.080,0.000,130.000,1015.0
2025-09-08T18:37:29.336837,5.950,-57.680,93.950,-56.0,0.080,0.000,130.000,1015.0
2025-09-08T18:37:29.381837,5.940,-57.670,93.950,-56.0,0.080,0.000,130.000,1015.0
2025-09-08T18:37:29.383844,5.930,-57.670,93.950,-56.0,0.080,0.000,130.000,1015.0
2025-09-08T18:37:29.411837,5.930,-57.670,93.950,-56.0,0.080,0.000,130.000,1015.0
2025-09-08T18:37:29.413837,5.930,-57.660,93.950,-56.0,0.080,0.000,130.000,1016.0
2025-09-08T18:37:29.440871,5.930,-57.670,93.950,-56.0,0.080,0.000,130.000,1015.0
2025-09-08T18:37:29.471838,5.920,-57.670,93.940,-56.0,0.080,0.000,130.000,1015.0
2025-09-08T18:37:29.473844,5.920,-57.660,93.950,-56.0,0.080,0.000,130.000,1015.0
2025-09-08T18:37:29.501844,5.930,-57.660,93.940,-56.0,0.080,0.000,130.000,1016.0
2025-09-08T18:37:29.503838,5.930,-57.660,93.940,-56.0,0.080,0.000,130.000,1015.0
2025-09-08T18:37:29.531837,5.920,-57.660,93.930,-56.0,0.080,0.000,130.000,1015.0
2025-09-08T18:37:29.561838,5.940,-57.660,93.950,-56.0,0.080,0.000,130.000,1015.0
2025-09-08T18:37:29.563838,5.930,-57.670,93.940,-56.0,0.080,0.000,130.000,1015.0
2025-09-08T18:37:29.590837,5.930,-57.660,93.950,-56.0,0.080,0.000,130.000,1015.0
2025-09-08T18:37:29.592839,5.930,-57.670,93.940,-56.0,0.080,0.000,130.000,1015.0
2025-09-08T18:37:29.635835,5.930,-57.670,93.950,-55.9,0.080,0.000,130.000,1016.0
2025-09-08T18:37:29.651839,5.920,-57.680,93.930,-56.0,0.070,0.000,130.000,1015.0
2025-09-08T18:37:29.681837,5.920,-57.670,93.950,-55.9,0.070,0.000,130.000,1015.0
2025-09-08T18:37:29.711838,5.900,-57.680,93.930,-55.9,0.070,0.000,130.000,1015.0
2025-09-08T18:37:29.713838,5.900,-57.680,93.940,-55.9,0.070,0.000,130.000,1015.0
2025-09-08T18:37:29.740837,5.890,-57.690,93.940,-55.9,0.070,0.000,130.000,1015.0
2025-09-08T18:37:29.771839,5.890,-57.680,93.950,-55.9,0.070,0.000,130.000,1015.0
2025-09-08T18:37:29.772839,5.860,-57.690,93.930,-55.9,0.070,0.000,130.000,1015.0
2025-09-08T18:37:29.801837,5.880,-57.680,93.940,-55.9,0.070,0.000,130.000,1016.0
2025-09-08T18:37:29.803837,5.860,-57.680,93.930,-55.9,0.070,0.000,130.000,1015.0
2025-09-08T18:37:29.831836,5.870,-57.680,93.950,-55.9,0.070,0.000,130.000,1015.0
2025-09-08T18:37:29.833842,5.850,-57.690,93.930,-55.9,0.070,0.000,130.000,1015.0
2025-09-08T18:37:29.877844,5.860,-57.690,93.950,-55.9,0.070,0.000,130.000,1015.0
2025-09-08T18:37:29.906837,5.850,-57.700,93.940,-55.9,0.070,0.000,130.000,1015.0
2025-09-08T18:37:29.907837,5.860,-57.690,93.950,-55.9,0.070,0.000,130.000,1015.0
2025-09-08T18:37:29.936837,5.840,-57.690,93.940,-55.9,0.070,0.000,130.000,1015.0
2025-09-08T18:37:29.938839,5.860,-57.680,93.950,-55.9,0.070,0.000,130.000,1015.0
2025-09-08T18:37:29.966841,5.840,-57.690,93.940,-55.9,0.070,0.000,130.000,1015.0
2025-09-08T18:37:29.995868,5.860,-57.690,93.950,-55.9,0.070,0.000,130.000,1015.0
2025-09-08T18:37:30.011837,5.840,-57.690,93.950,-55.9,0.070,0.000,130.000,1015.0
2025-09-08T18:37:30.041845,5.860,-57.690,93.950,-55.9,0.070,0.000,130.000,1015.0
2025-09-08T18:37:30.042837,5.840,-57.700,93.950,-55.9,0.070,0.000,130.000,1016.0
2025-09-08T18:37:30.071840,5.850,-57.690,93.950,-55.9,0.070,0.000,130.000,1015.0
2025-09-08T18:37:30.116837,5.840,-57.700,93.950,-55.9,0.070,0.000,130.000,1015.0
2025-09-08T18:37:30.119840,5.850,-57.690,93.950,-55.9,0.070,0.000,130.000,1015.0
2025-09-08T18:37:30.146837,5.840,-57.700,93.950,-56.0,0.070,0.000,130.000,1015.0
2025-09-08T18:37:30.147840,5.850,-57.690,93.950,-56.0,0.070,0.000,130.000,1015.0
2025-09-08T18:37:30.176842,5.830,-57.700,93.940,-56.0,0.070,0.000,130.000,1015.0
2025-09-08T18:37:30.206840,5.840,-57.690,93.950,-56.0,0.070,0.000,130.000,1015.0
2025-09-08T18:37:30.207841,5.820,-57.700,93.950,-56.0,0.070,0.000,130.000,1015.0
2025-09-08T18:37:30.236837,5.830,-57.690,93.950,-56.0,0.070,0.000,130.000,1015.0
2025-09-08T18:37:30.237839,5.820,-57.690,93.950,-56.0,0.070,0.000,130.000,1015.0
2025-09-08T18:37:30.266845,5.820,-57.680,93.950,-56.0,0.070,0.000,130.000,1015.0
2025-09-08T18:37:30.296838,5.810,-57.690,93.960,-56.0,0.070,0.000,130.000,1015.0
2025-09-08T18:37:30.326840,5.810,-57.680,93.960,-56.0,0.070,0.000,130.000,1015.0
2025-09-08T18:37:30.327838,5.800,-57.680,93.960,-56.0,0.070,0.000,130.000,1015.0
2025-09-08T18:37:30.356839,5.800,-57.660,93.960,-56.0,0.070,0.000,130.000,1015.0
2025-09-08T18:37:30.386838,5.780,-57.660,93.970,-56.0,0.070,0.000,130.000,1015.0
2025-09-08T18:37:30.416847,5.790,-57.650,93.970,-56.0,0.070,0.000,130.000,1015.0
2025-09-08T18:37:30.418835,5.780,-57.660,93.960,-56.0,0.070,0.000,130.000,1015.0
2025-09-08T18:37:30.446838,5.780,-57.650,93.960,-56.0,0.070,0.000,130.000,1015.0
2025-09-08T18:37:30.448841,5.760,-57.660,93.960,-56.0,0.070,0.000,130.000,1015.0
2025-09-08T18:37:30.476836,5.770,-57.650,93.960,-55.9,0.070,0.000,130.000,1015.0
2025-09-08T18:37:30.505836,5.750,-57.660,93.960,-55.9,0.070,0.000,130.000,1015.0
2025-09-08T18:37:30.507839,5.760,-57.650,93.960,-55.9,0.070,0.000,130.000,1015.0
2025-09-08T18:37:30.536839,5.750,-57.660,93.960,-55.9,0.070,0.000,130.000,1015.0
2025-09-08T18:37:30.537837,5.750,-57.650,93.950,-55.9,0.070,0.000,130.000,1015.0
2025-09-08T18:37:30.581838,5.740,-57.660,93.960,-55.9,0.070,0.000,130.000,1015.0
2025-09-08T18:37:30.585837,5.750,-57.650,93.950,-55.9,0.070,0.000,130.000,1015.0
2025-09-08T18:37:30.612838,5.740,-57.660,93.960,-55.9,0.070,0.000,130.000,1015.0
2025-09-08T18:37:30.642837,5.740,-57.660,93.950,-55.9,0.070,0.000,130.000,1015.0
2025-09-08T18:37:30.643837,5.740,-57.660,93.960,-55.9,0.070,0.000,130.000,1015.0
2025-09-08T18:37:30.672837,5.750,-57.660,93.940,-55.9,0.070,0.000,130.000,1015.0
2025-09-08T18:37:30.717846,5.750,-57.660,93.950,-55.9,0.070,0.000,130.000,1016.0
2025-09-08T18:37:30.718836,5.760,-57.670,93.940,-55.9,0.070,0.000,130.000,1015.0
2025-09-08T18:37:30.747837,5.770,-57.670,93.950,-55.9,0.070,0.000,130.000,1015.0
2025-09-08T18:37:30.750844,5.770,-57.680,93.940,-56.0,0.070,0.000,130.000,1015.0
2025-09-08T18:37:30.777838,5.780,-57.670,93.950,-56.0,0.070,0.000,130.000,1015.0
2025-09-08T18:37:30.780839,5.780,-57.680,93.940,-56.0,0.060,0.000,130.000,1015.0
2025-09-08T18:37:30.822838,5.790,-57.670,93.960,-56.0,0.060,0.000,130.000,1015.0
2025-09-08T18:37:30.852840,5.790,-57.680,93.940,-56.0,0.060,0.000,130.000,1015.0
2025-09-08T18:37:30.855841,5.790,-57.680,93.950,-56.0,0.060,0.000,130.000,1015.0
2025-09-08T18:37:30.882840,5.790,-57.690,93.940,-56.0,0.060,0.000,130.000,1015.0
2025-09-08T18:37:30.885838,5.790,-57.690,93.950,-56.0,0.060,0.000,130.000,1015.0
2025-09-08T18:37:30.912838,5.770,-57.690,93.940,-56.0,0.060,0.000,130.000,1015.0
2025-09-08T18:37:30.943844,5.780,-57.690,93.950,-56.0,0.060,0.000,130.000,1015.0
2025-09-08T18:37:30.944839,5.770,-57.700,93.930,-56.0,0.060,0.000,130.000,1015.0
2025-09-08T18:37:30.972836,5.770,-57.690,93.950,-56.0,0.060,0.000,130.000,1015.0
2025-09-08T18:37:30.986836,5.750,-57.690,93.940,-56.0,0.060,0.000,130.000,1015.0
2025-09-08T18:37:31.002839,5.750,-57.690,93.950,-56.0,0.060,0.000,130.000,1015.0
2025-09-08T18:37:31.062836,5.730,-57.680,93.930,-56.0,0.060,0.000,130.000,1015.0
2025-09-08T18:37:31.064835,5.720,-57.670,93.950,-56.0,0.060,0.000,130.000,1015.0
2025-09-08T18:37:31.091839,5.710,-57.680,93.940,-56.0,0.060,0.000,130.000,1015.0
2025-09-08T18:37:31.097837,5.710,-57.660,93.960,-56.0,0.060,0.000,130.000,1015.0
2025-09-08T18:37:31.122840,5.690,-57.670,93.940,-56.0,0.060,0.000,130.000,1015.0
2025-09-08T18:37:31.152847,5.690,-57.660,93.950,-56.0,0.060,0.000,130.000,1015.0
2025-09-08T18:37:31.153840,5.680,-57.660,93.930,-56.0,0.060,0.000,130.000,1015.0
2025-09-08T18:37:31.182838,5.680,-57.650,93.950,-56.0,0.060,0.000,130.000,1015.0
2025-09-08T18:37:31.186836,5.660,-57.650,93.940,-56.0,0.060,0.000,130.000,1015.0
2025-09-08T18:37:31.212839,5.670,-57.640,93.950,-56.0,0.060,0.000,130.000,1015.0
2025-09-08T18:37:31.243840,5.660,-57.650,93.940,-56.0,0.060,0.000,130.000,1016.0
2025-09-08T18:37:31.245839,5.670,-57.640,93.950,-56.0,0.060,0.000,130.000,1016.0
2025-09-08T18:37:31.272838,5.660,-57.630,93.950,-56.0,0.060,0.000,130.000,1015.0
2025-09-08T18:37:31.276837,5.670,-57.620,93.960,-56.0,0.060,0.000,130.000,1015.0
2025-09-08T18:37:31.317843,5.660,-57.630,93.950,-56.0,0.060,0.000,130.000,1015.0
2025-09-08T18:37:31.347838,5.670,-57.620,93.950,-56.0,0.060,0.000,130.000,1015.0
2025-09-08T18:37:31.351837,5.670,-57.630,93.940,-56.0,0.060,0.000,130.000,1015.0
2025-09-08T18:37:31.392843,5.680,-57.620,93.950,-56.0,0.060,0.000,130.000,1015.0
2025-09-08T18:37:31.397837,5.680,-57.640,93.960,-56.0,0.060,0.000,130.000,1015.0
2025-09-08T18:37:31.407839,5.700,-57.630,93.960,-56.0,0.060,0.000,130.000,1015.0
2025-09-08T18:37:31.452841,5.710,-57.640,93.950,-56.0,0.060,0.000,130.000,1016.0
2025-09-08T18:37:31.453839,5.720,-57.640,93.960,-56.0,0.060,0.000,130.000,1015.0
2025-09-08T18:37:31.482838,5.730,-57.650,93.950,-56.0,0.060,0.000,130.000,1015.0
2025-09-08T18:37:31.487843,5.740,-57.650,93.950,-56.0,0.060,0.000,130.000,1015.0
2025-09-08T18:37:31.512839,5.740,-57.660,93.950,-56.0,0.060,0.000,130.000,1015.0
2025-09-08T18:37:31.556839,5.750,-57.660,93.950,-56.0,0.060,0.000,130.000,1015.0
2025-09-08T18:37:31.558839,5.760,-57.680,93.950,-56.0,0.060,0.000,130.000,1015.0
2025-09-08T18:37:31.587839,5.780,-57.680,93.940,-56.0,0.060,0.000,130.000,1015.0
2025-09-08T18:37:31.591837,5.770,-57.690,93.940,-55.9,0.060,0.000,130.000,1015.0
2025-09-08T18:37:31.617840,5.790,-57.690,93.930,-55.9,0.060,0.000,130.000,1015.0
2025-09-08T18:37:31.647839,5.790,-57.700,93.930,-55.9,0.060,0.000,130.000,1015.0
2025-09-08T18:37:31.650842,5.790,-57.700,93.920,-55.9,0.060,0.000,130.000,1015.0
2025-09-08T18:37:31.677840,5.790,-57.700,93.930,-55.9,0.060,0.000,130.000,1015.0
2025-09-08T18:37:31.692838,5.790,-57.710,93.920,-56.0,0.060,0.000,130.000,1015.0
2025-09-08T18:37:31.707840,5.790,-57.710,93.920,-55.9,0.060,0.000,130.000,1015.0
2025-09-08T18:37:31.737838,5.790,-57.720,93.910,-56.0,0.060,0.000,130.000,1015.0
2025-09-08T18:37:31.753844,5.790,-57.730,93.920,-56.0,0.060,0.000,130.000,1015.0
2025-09-08T18:37:31.797841,5.780,-57.720,93.910,-56.0,0.060,0.000,130.000,1015.0
2025-09-08T18:37:31.801838,5.780,-57.730,93.920,-55.9,0.060,0.000,130.000,1015.0
2025-09-08T18:37:31.827837,5.780,-57.730,93.910,-55.9,0.060,0.000,130.000,1015.0
2025-09-08T18:37:31.828837,5.770,-57.730,93.920,-55.9,0.060,0.000,130.000,1015.0
2025-09-08T18:37:31.857873,5.760,-57.730,93.900,-55.9,0.060,0.000,130.000,1015.0
2025-09-08T18:37:31.887838,5.750,-57.730,93.920,-55.9,0.060,0.000,130.000,1015.0
2025-09-08T18:37:31.893839,5.740,-57.730,93.900,-55.9,0.060,0.000,130.000,1015.0
2025-09-08T18:37:31.917836,5.740,-57.720,93.920,-55.9,0.060,0.000,130.000,1015.0
2025-09-08T18:37:31.918838,5.720,-57.720,93.900,-55.9,0.050,0.000,130.000,1015.0
2025-09-08T18:37:31.947843,5.730,-57.710,93.920,-56.0,0.050,0.000,130.000,1015.0
2025-09-08T18:37:31.977839,5.700,-57.710,93.890,-56.0,0.050,0.000,130.000,1015.0
2025-09-08T18:37:31.985843,5.710,-57.700,93.920,-56.0,0.050,0.000,130.000,1015.0
2025-09-08T18:37:32.022838,5.690,-57.700,93.890,-56.0,0.050,0.000,130.000,1015.0
2025-09-08T18:37:32.024838,5.700,-57.700,93.920,-56.0,0.050,0.000,130.000,1015.0
2025-09-08T18:37:32.052839,5.680,-57.700,93.880,-55.9,0.050,0.000,130.000,1015.0
2025-09-08T18:37:32.082837,5.700,-57.700,93.910,-55.9,0.050,0.000,130.000,1015.0
2025-09-08T18:37:32.098835,5.690,-57.710,93.890,-55.9,0.050,0.000,130.000,1015.0
2025-09-08T18:37:32.127839,5.700,-57.710,93.910,-55.9,0.050,0.000,130.000,1015.0
2025-09-08T18:37:32.129838,5.690,-57.720,93.880,-55.9,0.050,0.000,130.000,1015.0
2025-09-08T18:37:32.156835,5.720,-57.710,93.900,-55.9,0.050,0.000,130.000,1015.0
2025-09-08T18:37:32.187837,5.710,-57.720,93.880,-55.9,0.050,0.000,130.000,1015.0
2025-09-08T18:37:32.190836,5.730,-57.720,93.910,-55.9,0.050,0.000,130.000,1016.0
2025-09-08T18:37:32.217837,5.720,-57.740,93.870,-55.9,0.050,0.000,130.000,1015.0
2025-09-08T18:37:32.219837,5.750,-57.730,93.900,-55.9,0.050,0.000,130.000,1015.0
2025-09-08T18:37:32.262840,5.740,-57.750,93.870,-55.9,0.050,0.000,130.000,1015.0
2025-09-08T18:37:32.292837,5.760,-57.740,93.900,-56.0,0.050,0.000,130.000,1015.0
2025-09-08T18:37:32.296838,5.740,-57.760,93.870,-55.9,0.050,0.000,130.000,1015.0
2025-09-08T18:37:32.322840,5.770,-57.750,93.900,-55.9,0.050,0.000,130.000,1015.0
2025-09-08T18:37:32.324839,5.750,-57.770,93.870,-55.9,0.050,0.000,130.000,1015.0
2025-09-08T18:37:32.352838,5.780,-57.760,93.900,-55.9,0.050,0.000,130.000,1015.0
2025-09-08T18:37:32.382837,5.760,-57.780,93.860,-55.9,0.050,0.000,130.000,1015.0
2025-09-08T18:37:32.398839,5.770,-57.760,93.900,-55.9,0.050,0.000,130.000,1015.0
2025-09-08T18:37:32.412840,5.740,-57.770,93.870,-55.9,0.050,0.000,130.000,1015.0
2025-09-08T18:37:32.414837,5.760,-57.770,93.900,-55.9,0.050,0.000,130.000,1015.0
2025-09-08T18:37:32.442837,5.730,-57.780,93.860,-55.9,0.050,0.000,130.000,1015.0
2025-09-08T18:37:32.502838,5.750,-57.770,93.890,-55.9,0.050,0.000,130.000,1015.0
2025-09-08T18:37:32.505839,5.720,-57.780,93.870,-55.9,0.050,0.000,130.000,1015.0
2025-09-08T18:37:32.532837,5.740,-57.770,93.900,-55.9,0.050,0.000,130.000,1015.0
2025-09-08T18:37:32.533839,5.710,-57.790,93.860,-55.9,0.050,0.000,130.000,1015.0
2025-09-08T18:37:32.562840,5.730,-57.780,93.890,-55.9,0.050,0.000,130.000,1015.0
2025-09-08T18:37:32.592844,5.690,-57.790,93.860,-55.9,0.050,0.000,130.000,1015.0
2025-09-08T18:37:32.596837,5.720,-57.780,93.890,-55.9,0.050,0.000,130.000,1015.0
2025-09-08T18:37:32.622838,5.680,-57.800,93.860,-55.9,0.050,0.000,130.000,1015.0
2025-09-08T18:37:32.623836,5.700,-57.780,93.890,-55.9,0.050,0.000,130.000,1015.0
2025-09-08T18:37:32.652838,5.670,-57.800,93.860,-55.9,0.050,0.000,130.000,1015.0
2025-09-08T18:37:32.682837,5.690,-57.780,93.890,-55.9,0.050,0.000,130.000,1015.0
2025-09-08T18:37:32.686836,5.670,-57.780,93.860,-55.9,0.050,0.000,130.000,1015.0
2025-09-08T18:37:32.727837,5.680,-57.770,93.890,-55.9,0.050,0.000,130.000,1015.0
2025-09-08T18:37:32.729839,5.660,-57.780,93.860,-55.9,0.050,0.000,130.000,1015.0
2025-09-08T18:37:32.757837,5.690,-57.770,93.880,-55.9,0.050,0.000,130.000,1015.0
2025-09-08T18:37:32.802837,5.670,-57.780,93.860,-55.9,0.050,0.000,130.000,1015.0
2025-09-08T18:37:32.806843,5.690,-57.760,93.890,-55.9,0.050,0.000,130.000,1015.0
2025-09-08T18:37:32.831839,5.670,-57.780,93.860,-55.9,0.050,0.000,130.000,1015.0
2025-09-08T18:37:32.833839,5.700,-57.760,93.880,-55.9,0.050,0.000,130.000,1015.0
2025-09-08T18:37:32.862844,5.680,-57.780,93.850,-55.9,0.050,0.000,130.000,1015.0
2025-09-08T18:37:32.865843,5.720,-57.770,93.880,-55.9,0.050,0.000,130.000,1015.0
2025-09-08T18:37:32.892837,5.700,-57.790,93.850,-55.9,0.050,0.000,130.000,1015.0
2025-09-08T18:37:32.922838,5.720,-57.770,93.870,-55.9,0.050,0.000,130.000,1015.0
2025-09-08T18:37:32.923862,5.700,-57.790,93.840,-55.9,0.050,0.000,130.000,1015.0
2025-09-08T18:37:32.967845,5.720,-57.780,93.860,-55.9,0.050,0.000,130.000,1015.0
2025-09-08T18:37:32.969842,5.700,-57.790,93.840,-55.9,0.050,0.000,130.000,1015.0
2025-09-08T18:37:32.997837,5.730,-57.790,93.860,-55.9,0.050,0.000,130.000,1015.0
2025-09-08T18:37:33.027836,5.700,-57.800,93.840,-55.9,0.050,0.000,130.000,1015.0
2025-09-08T18:37:33.028836,5.720,-57.800,93.850,-55.9,0.050,0.000,130.000,1015.0
2025-09-08T18:37:33.057838,5.700,-57.810,93.840,-55.9,0.050,0.000,130.000,1015.0
2025-09-08T18:37:33.059842,5.720,-57.800,93.850,-55.9,0.050,0.000,130.000,1015.0
2025-09-08T18:37:33.087837,5.700,-57.810,93.840,-55.9,0.040,0.000,130.000,1015.0
2025-09-08T18:37:33.132882,5.720,-57.800,93.840,-55.9,0.040,0.000,130.000,1015.0
2025-09-08T18:37:33.134841,5.700,-57.810,93.830,-55.9,0.040,0.000,130.000,1015.0
2025-09-08T18:37:33.147837,5.710,-57.800,93.840,-55.9,0.040,0.000,130.000,1015.0
2025-09-08T18:37:33.163837,5.690,-57.810,93.830,-55.9,0.040,0.000,130.000,1015.0
2025-09-08T18:37:33.207838,5.700,-57.800,93.840,-55.9,0.040,0.000,130.000,1015.0
2025-09-08T18:37:33.237850,5.680,-57.810,93.830,-55.9,0.040,0.000,130.000,1015.0
2025-09-08T18:37:33.239837,5.690,-57.800,93.840,-55.9,0.040,0.000,130.000,1015.0
2025-09-08T18:37:33.267838,5.660,-57.810,93.820,-55.9,0.040,0.000,130.000,1015.0
2025-09-08T18:37:33.269839,5.670,-57.800,93.840,-55.9,0.040,0.000,130.000,1015.0
2025-09-08T18:37:33.297839,5.650,-57.800,93.830,-55.9,0.040,0.000,130.000,1015.0
2025-09-08T18:37:33.327840,5.650,-57.800,93.830,-55.9,0.040,0.000,130.000,1015.0
2025-09-08T18:37:33.328838,5.640,-57.800,93.820,-55.9,0.040,0.000,130.000,1015.0
2025-09-08T18:37:33.357839,5.630,-57.790,93.820,-55.9,0.040,0.000,130.000,1015.0
2025-09-08T18:37:33.359839,5.620,-57.800,93.810,-55.9,0.040,0.000,130.000,1015.0
2025-09-08T18:37:33.386839,5.620,-57.790,93.820,-55.9,0.040,0.000,130.000,1015.0
2025-09-08T18:37:33.432837,5.610,-57.800,93.810,-55.9,0.040,0.000,130.000,1015.0
2025-09-08T18:37:33.434837,5.610,-57.790,93.820,-55.9,0.040,0.000,130.000,1015.0
2025-09-08T18:37:33.463839,5.600,-57.800,93.820,-55.9,0.040,0.000,130.000,1015.0
2025-09-08T18:37:33.465840,5.600,-57.790,93.820,-55.9,0.040,0.000,130.000,1015.0
2025-09-08T18:37:33.492837,5.600,-57.790,93.830,-55.9,0.040,0.000,130.000,1015.0
2025-09-08T18:37:33.537837,5.600,-57.780,93.820,-55.9,0.040,0.000,130.000,1015.0
2025-09-08T18:37:33.538837,5.590,-57.790,93.820,-55.9,0.040,0.000,130.000,1015.0
2025-09-08T18:37:33.567836,5.590,-57.780,93.820,-55.9,0.040,0.000,130.000,1015.0
2025-09-08T18:37:33.569838,5.590,-57.780,93.830,-55.9,0.040,0.000,130.000,1015.0
2025-09-08T18:37:33.597839,5.580,-57.780,93.830,-55.9,0.040,0.000,130.000,1015.0
2025-09-08T18:37:33.627846,5.600,-57.770,93.830,-55.9,0.040,0.000,130.000,1015.0
2025-09-08T18:37:33.629837,5.600,-57.780,93.840,-55.9,0.040,0.000,130.000,1015.0
2025-09-08T18:37:33.671870,5.600,-57.780,93.830,-55.9,0.040,0.000,130.000,1015.0
2025-09-08T18:37:33.673876,5.600,-57.780,93.830,-55.9,0.040,0.000,130.000,1015.0
2025-09-08T18:37:33.702836,5.610,-57.790,93.840,-55.9,0.040,0.000,130.000,1015.0
2025-09-08T18:37:33.732836,5.610,-57.790,93.840,-55.9,0.040,0.000,130.000,1015.0
2025-09-08T18:37:33.734847,5.620,-57.780,93.840,-55.9,0.040,0.000,130.000,1015.0
2025-09-08T18:37:33.763838,5.610,-57.770,93.840,-55.9,0.040,0.000,130.000,1015.0
2025-09-08T18:37:33.765837,5.620,-57.770,93.840,-55.9,0.040,0.000,130.000,1015.0
2025-09-08T18:37:33.792839,5.610,-57.770,93.830,-55.9,0.040,0.000,130.000,1015.0
2025-09-08T18:37:33.793837,5.620,-57.770,93.830,-55.9,0.040,0.000,130.000,1015.0
2025-09-08T18:37:33.822839,5.620,-57.770,93.830,-55.9,0.040,0.000,130.000,1015.0
2025-09-08T18:37:33.867839,5.640,-57.760,93.840,-55.9,0.040,0.000,130.000,1015.0
2025-09-08T18:37:33.869838,5.620,-57.760,93.840,-55.9,0.040,0.000,130.000,1015.0
2025-09-08T18:37:33.912836,5.630,-57.750,93.840,-55.9,0.040,0.000,130.000,1015.0
2025-09-08T18:37:33.914836,5.640,-57.760,93.840,-55.9,0.040,0.000,130.000,1015.0
2025-09-08T18:37:33.942838,5.640,-57.750,93.840,-55.9,0.040,0.000,130.000,1015.0
2025-09-08T18:37:33.972837,5.640,-57.760,93.840,-55.9,0.040,0.000,130.000,1015.0
2025-09-08T18:37:33.974836,5.640,-57.750,93.840,-55.9,0.040,0.000,130.000,1015.0
2025-09-08T18:37:34.002841,5.640,-57.750,93.840,-55.9,0.040,0.000,130.000,1015.0
2025-09-08T18:37:34.004839,5.650,-57.760,93.840,-55.9,0.040,0.000,130.000,1015.0
2025-09-08T18:37:34.032838,5.640,-57.760,93.840,-55.9,0.040,0.000,130.000,1015.0
2025-09-08T18:37:34.062838,5.660,-57.750,93.840,-55.9,0.040,0.000,130.000,1015.0
2025-09-08T18:37:34.065838,5.650,-57.760,93.840,-55.9,0.040,0.000,130.000,1015.0
2025-09-08T18:37:34.093839,5.660,-57.760,93.850,-55.9,0.040,0.000,130.000,1015.0
2025-09-08T18:37:34.095838,5.650,-57.760,93.850,-55.9,0.040,0.000,130.000,1015.0
2025-09-08T18:37:34.123837,5.660,-57.760,93.840,-55.9,0.040,0.000,130.000,1015.0
2025-09-08T18:37:34.168836,5.650,-57.770,93.850,-55.9,0.040,0.000,130.000,1015.0
2025-09-08T18:37:34.169837,5.660,-57.760,93.850,-55.9,0.040,0.000,130.000,1015.0
2025-09-08T18:37:34.197834,5.650,-57.770,93.850,-55.9,0.040,0.000,130.000,1015.0
2025-09-08T18:37:34.213838,5.660,-57.760,93.850,-55.9,0.040,0.000,130.000,1015.0
2025-09-08T18:37:34.228838,5.650,-57.770,93.850,-55.9,0.030,0.000,130.000,1015.0
2025-09-08T18:37:34.273840,5.660,-57.770,93.850,-55.9,0.030,0.000,130.000,1015.0
2025-09-08T18:37:34.276841,5.650,-57.770,93.850,-55.9,0.030,0.000,130.000,1015.0
2025-09-08T18:37:34.303839,5.660,-57.760,93.860,-55.9,0.030,0.000,130.000,1015.0
2025-09-08T18:37:34.305841,5.650,-57.760,93.860,-55.9,0.030,0.000,130.000,1015.0
2025-09-08T18:37:34.332835,5.650,-57.760,93.860,-55.9,0.030,0.000,130.000,1015.0
2025-09-08T18:37:34.363837,5.650,-57.760,93.860,-55.9,0.030,0.000,130.000,1015.0
2025-09-08T18:37:34.364838,5.660,-57.760,93.850,-55.9,0.030,0.000,130.000,1015.0
2025-09-08T18:37:34.408836,5.640,-57.760,93.860,-55.9,0.030,0.000,130.000,1015.0
2025-09-08T18:37:34.409836,5.640,-57.750,93.860,-55.9,0.030,0.000,130.000,1015.0
2025-09-08T18:37:34.438837,5.630,-57.750,93.870,-55.9,0.030,0.000,130.000,1015.0
2025-09-08T18:37:34.468836,5.630,-57.740,93.860,-55.9,0.030,0.000,130.000,1015.0
2025-09-08T18:37:34.470837,5.620,-57.740,93.870,-55.9,0.030,0.000,130.000,1015.0
2025-09-08T18:37:34.498838,5.610,-57.740,93.850,-55.9,0.030,0.000,130.000,1015.0
2025-09-08T18:37:34.499838,5.600,-57.740,93.860,-56.0,0.030,0.000,130.000,1015.0
2025-09-08T18:37:34.528840,5.600,-57.730,93.850,-56.0,0.030,0.000,130.000,1015.0
2025-09-08T18:37:34.572836,5.590,-57.730,93.860,-56.0,0.030,0.000,130.000,1015.0
2025-09-08T18:37:34.575842,5.590,-57.730,93.850,-56.0,0.030,0.000,130.000,1015.0
2025-09-08T18:37:34.603837,5.580,-57.740,93.860,-56.0,0.030,0.000,130.000,1015.0
2025-09-08T18:37:34.606838,5.570,-57.730,93.850,-56.0,0.030,0.000,130.000,1015.0
2025-09-08T18:37:34.648836,5.570,-57.730,93.860,-56.0,0.030,0.000,130.000,1015.0
2025-09-08T18:37:34.678835,5.580,-57.740,93.840,-56.0,0.030,0.000,130.000,1015.0
2025-09-08T18:37:34.679835,5.580,-57.750,93.860,-56.0,0.030,0.000,130.000,1015.0
2025-09-08T18:37:34.708837,5.570,-57.760,93.840,-56.0,0.030,0.000,130.000,1015.0
2025-09-08T18:37:34.710836,5.570,-57.760,93.850,-56.0,0.030,0.000,130.000,1015.0
2025-09-08T18:37:34.738839,5.580,-57.770,93.840,-56.0,0.030,0.000,130.000,1015.0
2025-09-08T18:37:34.769836,5.580,-57.770,93.860,-56.0,0.030,0.000,130.000,1015.0
2025-09-08T18:37:34.771838,5.590,-57.770,93.850,-56.0,0.030,0.000,130.000,1015.0
2025-09-08T18:37:34.799841,5.590,-57.780,93.860,-55.9,0.030,0.000,130.000,1015.0
2025-09-08T18:37:34.802840,5.590,-57.780,93.850,-55.9,0.030,0.000,130.000,1015.0
2025-09-08T18:37:34.829836,5.600,-57.770,93.870,-55.9,0.030,0.000,130.000,1015.0
2025-09-08T18:37:34.859837,5.600,-57.780,93.850,-55.9,0.030,0.000,130.000,1015.0
2025-09-08T18:37:34.874840,5.610,-57.770,93.870,-55.9,0.030,0.000,130.000,1015.0
2025-09-08T18:37:34.904838,5.610,-57.780,93.850,-55.9,0.030,0.000,130.000,1015.0
2025-09-08T18:37:34.905837,5.610,-57.770,93.870,-55.9,0.030,0.000,130.000,1015.0
2025-09-08T18:37:34.949838,5.610,-57.770,93.860,-55.9,0.030,0.000,130.000,1015.0
2025-09-08T18:37:34.953840,5.610,-57.770,93.870,-55.9,0.030,0.000,130.000,1015.0
2025-09-08T18:37:34.978836,5.600,-57.770,93.850,-55.9,0.030,0.000,130.000,1015.0
2025-09-08T18:37:35.009841,5.610,-57.760,93.870,-55.9,0.030,0.000,130.000,1015.0
2025-09-08T18:37:35.010839,5.600,-57.760,93.850,-55.9,0.030,0.000,130.000,1015.0
2025-09-08T18:37:35.039839,5.610,-57.760,93.870,-55.9,0.030,0.000,130.000,1015.0
2025-09-08T18:37:35.040840,5.590,-57.770,93.850,-55.9,0.030,0.000,130.000,1015.0
2025-09-08T18:37:35.070836,5.590,-57.760,93.860,-55.9,0.030,0.000,130.000,1015.0
2025-09-08T18:37:35.100837,5.580,-57.760,93.850,-55.9,0.030,0.000,130.000,1015.0
2025-09-08T18:37:35.103837,5.580,-57.750,93.860,-55.9,0.030,0.000,130.000,1015.0
2025-09-08T18:37:35.144837,5.560,-57.750,93.850,-55.9,0.030,0.000,130.000,1015.0
2025-09-08T18:37:35.146838,5.560,-57.750,93.860,-55.9,0.030,0.000,130.000,1015.0
2025-09-08T18:37:35.174839,5.540,-57.750,93.850,-55.9,0.030,0.000,130.000,1015.0
2025-09-08T18:37:35.204836,5.540,-57.750,93.870,-55.9,0.030,0.000,130.000,1015.0
2025-09-08T18:37:35.205836,5.520,-57.750,93.840,-55.9,0.030,0.000,130.000,1015.0
2025-09-08T18:37:35.234835,5.530,-57.750,93.860,-55.9,0.030,0.000,130.000,1015.0
2025-09-08T18:37:35.235839,5.510,-57.750,93.850,-55.9,0.030,0.000,130.000,1015.0
2025-09-08T18:37:35.280839,5.510,-57.750,93.870,-55.9,0.030,0.000,130.000,1015.0
2025-09-08T18:37:35.309835,5.490,-57.750,93.850,-55.9,0.030,0.000,130.000,1015.0
2025-09-08T18:37:35.312837,5.500,-57.740,93.860,-55.9,0.030,0.000,130.000,1015.0
2025-09-08T18:37:35.339839,5.480,-57.750,93.840,-55.9,0.030,0.000,130.000,1015.0
2025-09-08T18:37:35.341838,5.490,-57.750,93.860,-55.9,0.030,0.000,130.000,1015.0
2025-09-08T18:37:35.384837,5.470,-57.750,93.840,-55.9,0.020,0.000,130.000,1015.0
2025-09-08T18:37:35.414835,5.490,-57.740,93.860,-55.9,0.020,0.000,130.000,1015.0
2025-09-08T18:37:35.416834,5.470,-57.750,93.840,-55.9,0.020,0.000,130.000,1015.0
2025-09-08T18:37:35.445842,5.490,-57.740,93.860,-55.9,0.020,0.000,130.000,1015.0
2025-09-08T18:37:35.447837,5.470,-57.760,93.840,-55.9,0.020,0.000,130.000,1015.0
2025-09-08T18:37:35.474836,5.490,-57.750,93.860,-55.9,0.020,0.000,130.000,1015.0
2025-09-08T18:37:35.504838,5.470,-57.760,93.840,-55.9,0.020,0.000,130.000,1015.0
2025-09-08T18:37:35.505836,5.490,-57.760,93.850,-55.9,0.020,0.000,130.000,1015.0
2025-09-08T18:37:35.534836,5.480,-57.760,93.840,-55.9,0.020,0.000,130.000,1015.0
2025-09-08T18:37:35.536839,5.490,-57.760,93.850,-55.9,0.020,0.000,130.000,1015.0
2025-09-08T18:37:35.564836,5.470,-57.770,93.840,-55.9,0.020,0.000,130.000,1015.0
2025-09-08T18:37:35.624872,5.490,-57.770,93.840,-55.9,0.020,0.000,130.000,1015.0
2025-09-08T18:37:35.626837,5.470,-57.780,93.830,-55.9,0.020,0.000,130.000,1015.0
2025-09-08T18:37:35.654836,5.480,-57.770,93.840,-55.9,0.020,0.000,130.000,1015.0
2025-09-08T18:37:35.658836,5.480,-57.780,93.840,-55.9,0.020,0.000,130.000,1015.0
2025-09-08T18:37:35.683836,5.480,-57.770,93.840,-55.9,0.020,0.000,130.000,1015.0
2025-09-08T18:37:35.687840,5.480,-57.780,93.840,-55.9,0.020,0.000,130.000,1015.0
2025-09-08T18:37:35.714834,5.490,-57.770,93.840,-55.9,0.020,0.000,130.000,1015.0
2025-09-08T18:37:35.745836,5.480,-57.780,93.840,-55.9,0.020,0.000,130.000,1015.0
2025-09-08T18:37:35.746835,5.500,-57.770,93.840,-55.9,0.020,0.000,130.000,1015.0
2025-09-08T18:37:35.774836,5.490,-57.780,93.840,-55.9,0.020,0.000,130.000,1015.0
2025-09-08T18:37:35.804836,5.500,-57.770,93.840,-55.9,0.020,0.000,130.000,1015.0
2025-09-08T18:37:35.805836,5.490,-57.780,93.850,-55.9,0.020,0.000,130.000,1015.0
2025-09-08T18:37:35.849845,5.510,-57.780,93.850,-55.9,0.020,0.000,130.000,1015.0
2025-09-08T18:37:35.852838,5.490,-57.780,93.850,-55.9,0.020,0.000,130.000,1015.0
2025-09-08T18:37:35.879839,5.500,-57.770,93.850,-55.9,0.020,0.000,130.000,1015.0
2025-09-08T18:37:35.883836,5.490,-57.770,93.850,-55.8,0.020,0.000,130.000,1015.0
2025-09-08T18:37:35.909836,5.510,-57.760,93.850,-55.8,0.020,0.000,130.000,1015.0
2025-09-08T18:37:35.939838,5.500,-57.760,93.850,-55.8,0.020,0.000,130.000,1015.0
2025-09-08T18:37:35.954837,5.500,-57.760,93.840,-55.8,0.020,0.000,130.000,1015.0
2025-09-08T18:37:35.969838,5.500,-57.760,93.850,-55.8,0.020,0.000,130.000,1015.0
2025-09-08T18:37:35.986840,5.500,-57.750,93.840,-55.8,0.020,0.000,130.000,1015.0
2025-09-08T18:37:36.014836,5.490,-57.760,93.850,-55.8,0.020,0.000,130.000,1015.0
2025-09-08T18:37:36.044837,5.480,-57.750,93.830,-55.8,0.020,0.000,130.000,1015.0
2025-09-08T18:37:36.047838,5.480,-57.760,93.850,-55.8,0.020,0.000,130.000,1015.0
2025-09-08T18:37:36.089838,5.470,-57.770,93.830,-55.9,0.020,0.000,130.000,1015.0
2025-09-08T18:37:36.092839,5.470,-57.760,93.850,-55.9,0.020,0.000,130.000,1015.0
2025-09-08T18:37:36.119838,5.470,-57.760,93.830,-55.9,0.020,0.000,130.000,1015.0
2025-09-08T18:37:36.149841,5.480,-57.760,93.850,-55.9,0.020,0.000,130.000,1015.0
2025-09-08T18:37:36.151839,5.470,-57.760,93.840,-55.9,0.020,0.000,130.000,1015.0
2025-09-08T18:37:36.179836,5.480,-57.760,93.850,-55.9,0.020,0.000,130.000,1015.0
2025-09-08T18:37:36.183840,5.480,-57.760,93.840,-55.9,0.020,0.000,130.000,1015.0
2025-09-08T18:37:36.209839,5.480,-57.760,93.850,-55.9,0.020,0.000,130.000,1015.0
2025-09-08T18:37:36.239839,5.470,-57.770,93.830,-55.9,0.020,0.000,130.000,1015.0
2025-09-08T18:37:36.241841,5.490,-57.780,93.850,-55.9,0.020,0.000,130.000,1015.0
2025-09-08T18:37:36.270837,5.480,-57.780,93.830,-55.9,0.020,0.000,130.000,1015.0
2025-09-08T18:37:36.287838,5.490,-57.780,93.860,-55.9,0.020,0.000,130.000,1015.0
2025-09-08T18:37:36.299841,5.480,-57.790,93.830,-55.9,0.020,0.000,130.000,1015.0
2025-09-08T18:37:36.360837,5.490,-57.780,93.860,-55.9,0.020,0.000,130.000,1015.0
2025-09-08T18:37:36.361836,5.470,-57.790,93.830,-55.9,0.020,0.000,130.000,1015.0
2025-09-08T18:37:36.389840,5.480,-57.780,93.860,-55.9,0.020,0.000,130.000,1015.0
2025-09-08T18:37:36.393844,5.460,-57.790,93.830,-55.9,0.020,0.000,130.000,1015.0
2025-09-08T18:37:36.419841,5.470,-57.790,93.860,-55.9,0.020,0.000,130.000,1015.0
2025-09-08T18:37:36.449837,5.450,-57.800,93.830,-55.9,0.020,0.000,130.000,1015.0
2025-09-08T18:37:36.452838,5.450,-57.790,93.850,-55.9,0.020,0.000,130.000,1015.0
2025-09-08T18:37:36.479837,5.430,-57.790,93.820,-55.9,0.020,0.000,130.000,1015.0
2025-09-08T18:37:36.483837,5.440,-57.790,93.850,-55.9,0.020,0.000,130.000,1015.0
2025-09-08T18:37:36.509839,5.410,-57.790,93.820,-55.9,0.020,0.000,130.000,1015.0
2025-09-08T18:37:36.539837,5.420,-57.780,93.850,-55.9,0.010,0.000,130.000,1015.0
2025-09-08T18:37:36.540836,5.390,-57.790,93.820,-55.9,0.010,0.000,130.000,1015.0
2025-09-08T18:37:36.584838,5.400,-57.780,93.850,-55.9,0.010,0.000,130.000,1015.0
2025-09-08T18:37:36.591841,5.370,-57.790,93.820,-55.9,0.010,0.000,130.000,1015.0
2025-09-08T18:37:36.615836,5.380,-57.780,93.840,-55.9,0.010,0.000,130.000,1016.0
2025-09-08T18:37:36.644835,5.350,-57.780,93.810,-55.9,0.010,0.000,130.000,1016.0
2025-09-08T18:37:36.645836,5.360,-57.780,93.840,-55.9,0.010,0.000,130.000,1017.0
2025-09-08T18:37:36.689838,5.330,-57.780,93.810,-55.9,0.010,0.000,130.000,1017.0
2025-09-08T18:37:36.692837,5.340,-57.760,93.840,-55.9,0.010,0.000,130.000,1017.0
2025-09-08T18:37:36.704841,5.310,-57.780,93.810,-55.9,0.010,0.000,130.000,1017.0
2025-09-08T18:37:36.749836,5.330,-57.770,93.830,-55.9,0.010,0.000,130.000,1017.0
2025-09-08T18:37:36.752839,5.300,-57.780,93.800,-55.9,0.010,0.000,130.000,1017.0
2025-09-08T18:37:36.779834,5.320,-57.760,93.830,-55.9,0.010,0.000,130.000,1017.0
2025-09-08T18:37:36.782835,5.290,-57.770,93.800,-55.9,0.010,0.000,130.000,1017.0
2025-09-08T18:37:36.824837,5.320,-57.760,93.830,-55.9,0.010,0.000,130.000,1017.0
2025-09-08T18:37:36.854838,5.300,-57.780,93.790,-55.9,0.010,0.000,130.000,1017.0
2025-09-08T18:37:36.857838,5.320,-57.770,93.830,-55.9,0.010,0.000,130.000,1018.0
2025-09-08T18:37:36.884838,5.300,-57.790,93.790,-55.9,0.010,0.000,130.000,1018.0
2025-09-08T18:37:36.888840,5.330,-57.770,93.820,-55.9,0.010,0.000,130.000,1018.0
2025-09-08T18:37:36.914838,5.300,-57.790,93.790,-55.9,0.010,0.000,130.000,1018.0
2025-09-08T18:37:36.944837,5.330,-57.770,93.820,-55.9,0.010,0.000,130.000,1019.0
2025-09-08T18:37:36.945837,5.300,-57.790,93.790,-55.9,0.010,0.000,130.000,1019.0
2025-09-08T18:37:36.973837,5.330,-57.770,93.810,-55.9,0.010,0.000,130.000,1019.0
2025-09-08T18:37:36.989837,5.310,-57.780,93.790,-55.9,0.010,0.000,130.000,1019.0
2025-09-08T18:37:37.004840,5.330,-57.770,93.810,-55.9,0.010,0.000,130.000,1019.0
2025-09-08T18:37:37.019837,5.320,-57.790,93.790,-55.9,0.010,0.000,130.000,1019.0
2025-09-08T18:37:37.049836,5.350,-57.780,93.810,-55.9,0.010,0.000,130.000,1019.0
2025-09-08T18:37:37.094847,5.330,-57.810,93.790,-55.9,0.010,0.000,130.000,1019.0
2025-09-08T18:37:37.099841,5.360,-57.790,93.810,-55.9,0.010,0.000,130.000,1019.0
2025-09-08T18:37:37.124836,5.340,-57.820,93.780,-55.9,0.010,0.000,130.000,1019.0
2025-09-08T18:37:37.126836,5.370,-57.810,93.810,-55.9,0.010,0.000,130.000,1019.0
2025-09-08T18:37:37.154838,5.350,-57.820,93.790,-55.9,0.010,0.000,130.000,1019.0
2025-09-08T18:37:37.184837,5.380,-57.810,93.810,-55.9,0.010,0.000,130.000,1019.0
2025-09-08T18:37:37.189836,5.370,-57.820,93.790,-55.9,0.010,0.000,130.000,1019.0
2025-09-08T18:37:37.214835,5.390,-57.800,93.810,-55.9,0.010,0.000,130.000,1019.0
2025-09-08T18:37:37.216836,5.370,-57.820,93.790,-55.9,0.010,0.000,130.000,1019.0
2025-09-08T18:37:37.244838,5.390,-57.800,93.810,-55.9,0.010,0.000,130.000,1019.0
2025-09-08T18:37:37.289836,5.370,-57.820,93.780,-55.9,0.010,0.000,130.000,1019.0
2025-09-08T18:37:37.293837,5.380,-57.800,93.820,-55.9,0.010,0.000,130.000,1019.0
2025-09-08T18:37:37.319836,5.350,-57.820,93.790,-55.8,0.010,0.000,130.000,1019.0
2025-09-08T18:37:37.321838,5.370,-57.810,93.810,-55.8,0.010,0.000,130.000,1019.0
2025-09-08T18:37:37.350840,5.340,-57.820,93.790,-55.8,0.010,0.000,130.000,1019.0
2025-09-08T18:37:37.394835,5.350,-57.820,93.800,-55.8,0.010,0.000,130.000,1019.0
2025-09-08T18:37:37.398836,5.340,-57.830,93.790,-55.8,0.010,0.000,130.000,1019.0
2025-09-08T18:37:37.424837,5.350,-57.820,93.800,-55.8,0.010,0.000,130.000,1020.0
2025-09-08T18:37:37.426840,5.330,-57.830,93.790,-55.8,0.010,0.000,130.000,1019.0
2025-09-08T18:37:37.454846,5.330,-57.820,93.800,-55.9,0.010,0.000,130.000,1019.0
2025-09-08T18:37:37.484836,5.320,-57.840,93.790,-55.9,0.010,0.000,130.000,1020.0
2025-09-08T18:37:37.487837,5.320,-57.820,93.800,-55.9,0.010,0.000,130.000,1020.0
2025-09-08T18:37:37.530837,5.310,-57.840,93.790,-55.9,0.010,0.000,130.000,1020.0
2025-09-08T18:37:37.532836,5.320,-57.830,93.790,-55.9,0.010,0.000,130.000,1026.0
2025-09-08T18:37:37.559838,5.300,-57.850,93.780,-55.9,0.010,0.000,130.000,1036.0
2025-09-08T18:37:37.589837,5.310,-57.840,93.790,-55.9,0.010,0.000,130.000,1044.0
2025-09-08T18:37:37.592837,5.300,-57.850,93.780,-55.9,0.010,0.000,130.000,1046.0
2025-09-08T18:37:37.618835,5.290,-57.850,93.780,-55.9,0.010,0.000,130.000,1047.0
2025-09-08T18:37:37.620840,5.230,-57.840,93.760,-55.9,0.010,0.000,130.000,1047.0
2025-09-08T18:37:37.649837,5.120,-57.720,93.830,-56.0,0.010,0.000,130.000,1047.0
2025-09-08T18:37:37.694835,4.890,-57.370,94.010,-56.0,0.000,0.000,130.000,1047.0
2025-09-08T18:37:37.698834,4.390,-56.280,94.350,-56.1,0.000,0.000,130.000,1047.0
2025-09-08T18:37:37.709838,3.630,-53.670,94.710,-56.2,0.000,0.000,130.000,1047.0
2025-09-08T18:37:37.723839,2.770,-50.320,94.880,-56.2,0.000,0.000,130.000,1046.0
2025-09-08T18:37:37.769846,1.550,-45.510,95.190,-56.3,0.000,0.000,130.000,1046.0
2025-09-08T18:37:37.798835,0.300,-39.930,95.530,-56.4,0.000,0.000,130.000,1046.0
2025-09-08T18:37:37.802836,-1.070,-31.880,95.770,-56.4,0.000,0.000,130.000,1046.0
2025-09-08T18:37:37.830837,-2.730,-20.190,95.910,-56.4,0.000,0.000,130.000,1046.0
2025-09-08T18:37:37.831836,-3.890,-8.640,95.950,-56.4,0.000,0.000,130.000,1046.0
2025-09-08T18:37:37.859840,-4.890,4.820,95.990,-56.5,0.000,0.000,130.000,1046.0
2025-09-08T18:37:37.889836,-5.460,15.160,96.220,-56.4,0.000,0.000,130.000,1046.0
2025-09-08T18:37:37.893837,-6.450,33.390,96.880,-56.4,0.000,0.000,130.000,1046.0
2025-09-08T18:37:37.919836,-7.210,44.280,97.130,-56.4,0.000,0.000,130.000,1046.0
2025-09-08T18:37:37.920841,-8.740,60.650,96.790,-56.4,0.000,0.000,130.000,1046.0
2025-09-08T18:37:37.949839,-10.010,59.590,95.720,-56.4,0.000,0.000,130.000,1046.0
2025-09-08T18:37:37.994838,-10.010,48.310,96.340,-56.4,0.000,0.000,130.000,1046.0
2025-09-08T18:37:37.997837,-9.040,37.950,97.610,-56.4,0.000,0.000,130.000,1045.0
2025-09-08T18:37:38.024838,-7.660,25.250,98.660,-56.4,0.000,0.000,130.000,1045.0
2025-09-08T18:37:38.025839,-5.880,12.370,99.160,-56.4,0.000,0.000,130.000,1045.0
2025-09-08T18:37:38.055837,-4.930,2.580,99.330,-56.4,0.000,0.000,130.000,1045.0
2025-09-08T18:37:38.098872,-2.340,-16.090,99.350,-56.4,0.000,0.000,130.000,1045.0
2025-09-08T18:37:38.102836,-0.290,-27.900,98.850,-56.4,0.000,0.000,130.000,1045.0
2025-09-08T18:37:38.129839,2.630,-45.000,97.060,-56.4,0.000,0.000,130.000,1045.0
2025-09-08T18:37:38.130842,5.180,-61.330,93.590,-56.4,0.000,0.000,130.000,1045.0
2025-09-08T18:37:38.159837,5.140,-61.310,92.800,-56.4,0.000,0.000,130.000,1045.0
2025-09-08T18:37:38.160837,4.870,-52.620,92.490,-56.4,0.000,0.000,130.000,1045.0
2025-09-08T18:37:38.189840,4.730,-42.150,91.720,-56.4,0.000,0.000,130.000,1045.0
2025-09-08T18:37:38.233870,4.290,-29.920,91.100,-56.4,0.000,0.000,130.000,1045.0
2025-09-08T18:37:38.235839,2.760,-17.400,90.840,-56.4,0.000,0.000,130.000,1045.0
2025-09-08T18:37:38.264838,2.490,-7.900,90.230,-56.4,0.000,0.000,130.000,1045.0
2025-09-08T18:37:38.266837,2.700,10.240,89.400,-56.4,0.000,0.000,130.000,1044.0
2025-09-08T18:37:38.294842,2.310,21.760,89.200,-56.4,0.000,0.000,130.000,1044.0
2025-09-08T18:37:38.324880,1.130,38.080,88.740,-56.3,0.000,0.000,130.000,1042.0
2025-09-08T18:37:38.325836,0.180,54.080,88.150,-56.3,0.000,0.000,130.000,1042.0
2025-09-08T18:37:38.354836,-0.780,63.700,87.310,-56.3,0.000,0.000,130.000,1042.0
2025-09-08T18:37:38.355836,-1.870,57.290,87.170,-56.3,0.000,0.000,130.000,1041.0
2025-09-08T18:37:38.384837,-2.940,47.520,87.040,-56.3,0.000,0.000,130.000,1041.0
2025-09-08T18:37:38.429838,-3.070,36.770,87.980,-56.4,0.000,0.000,130.000,1041.0
2025-09-08T18:37:38.431836,-4.360,23.400,88.200,-56.4,0.000,0.000,130.000,1041.0
2025-09-08T18:37:38.444839,-5.880,12.990,88.290,-56.4,0.000,0.000,130.000,1041.0
2025-09-08T18:37:38.474837,-7.600,-4.450,88.930,-56.4,0.000,0.000,130.000,1041.0
2025-09-08T18:37:38.504836,-8.320,-19.470,89.980,-56.4,0.000,0.000,130.000,1041.0
2025-09-08T18:37:38.534835,-8.440,-30.630,90.890,-56.4,0.000,0.000,130.000,1041.0
2025-09-08T18:37:38.536836,-6.740,-46.920,91.290,-56.3,0.000,0.000,130.000,1041.0
2025-09-08T18:37:38.564836,-4.830,-62.790,91.270,-56.3,0.000,0.000,130.000,1041.0
2025-09-08T18:37:38.565835,-4.520,-58.230,91.190,-56.4,0.000,0.000,130.000,1041.0
2025-09-08T18:37:38.594836,-4.000,-48.050,89.990,-56.4,0.000,0.000,130.000,1041.0
2025-09-08T18:37:38.624840,-3.020,-39.740,88.850,-56.4,0.000,0.000,130.000,1041.0
2025-09-08T18:37:38.625838,-2.300,-28.660,88.190,-56.4,0.000,0.000,130.000,1041.0
2025-09-08T18:37:38.654836,-0.940,-16.570,87.640,-56.4,0.000,0.000,130.000,1041.0
2025-09-08T18:37:38.657837,2.430,-1.360,87.160,-56.4,0.000,0.000,130.000,1041.0
2025-09-08T18:37:38.699835,4.840,12.420,87.830,-56.4,0.000,0.000,130.000,1041.0
2025-09-08T18:37:38.729837,6.260,23.060,88.940,-56.4,0.000,0.000,130.000,1041.0
2025-09-08T18:37:38.731837,7.760,39.300,91.350,-56.4,0.000,0.000,130.000,1041.0
2025-09-08T18:37:38.774837,8.140,53.420,93.770,-56.4,0.000,0.000,130.000,1041.0
2025-09-08T18:37:38.775837,7.790,62.700,95.650,-56.4,0.000,0.000,130.000,1041.0
2025-09-08T18:37:38.789839,6.690,57.160,94.560,-56.4,0.000,0.000,130.000,1041.0
2025-09-08T18:37:38.834844,5.280,46.700,93.310,-56.4,0.000,0.000,130.000,1041.0
2025-09-08T18:37:38.835835,4.060,36.570,92.700,-56.4,0.000,0.000,130.000,1041.0
2025-09-08T18:37:38.864159,0.530,22.440,91.160,-56.4,0.000,0.000,130.000,1041.0
2025-09-08T18:37:38.865837,-1.480,12.960,90.620,-56.4,0.000,0.000,130.000,1041.0
2025-09-08T18:37:38.894843,-4.960,-3.050,90.460,-56.4,0.000,0.000,130.000,1041.0
2025-09-08T18:37:38.939837,-8.930,-20.020,91.730,-56.3,0.000,0.000,130.000,1041.0
2025-09-08T18:37:38.941837,-12.310,-38.040,94.530,-56.3,0.000,0.000,130.000,1040.0
2025-09-08T18:37:38.968834,-14.120,-59.650,98.830,-56.3,0.000,0.000,130.000,1040.0
2025-09-08T18:37:38.970844,-13.340,-61.840,99.120,-56.3,0.000,0.000,130.000,1039.0
2025-09-08T18:37:38.999836,-11.560,-53.570,96.330,-56.3,0.000,0.000,130.000,1030.0
2025-09-08T18:37:39.000836,-8.640,-43.310,92.680,-56.3,0.000,0.000,130.000,1017.0
2025-09-08T18:37:39.029836,-5.940,-32.450,90.640,-56.3,0.000,0.000,130.000,1010.0
2025-09-08T18:37:39.059839,-3.190,-19.410,89.560,-56.3,0.000,0.000,130.000,1002.0
2025-09-08T18:37:39.061836,0.430,-7.850,89.100,-56.3,0.000,0.000,130.000,1000.0
2025-09-08T18:37:39.089839,3.380,2.070,89.310,-56.2,0.000,0.000,130.000,1001.0
2025-09-08T18:37:39.091836,7.710,15.920,90.440,-56.2,0.000,0.000,130.000,1001.0
2025-09-08T18:37:39.119836,12.300,31.160,92.740,-56.2,0.000,0.000,130.000,1002.0
2025-09-08T18:37:39.179840,15.930,46.040,95.870,-56.1,0.000,0.000,130.000,1002.0
2025-09-08T18:37:39.181837,18.150,57.320,98.760,-56.1,0.000,0.000,130.000,1002.0
2025-09-08T18:37:39.209838,19.040,57.750,99.650,-56.1,0.000,0.000,130.000,1002.0
2025-09-08T18:37:39.210837,17.530,51.000,96.280,-56.1,0.000,0.000,130.000,1002.0
2025-09-08T18:37:39.239840,17.250,46.420,94.970,-56.0,0.000,0.000,130.000,1002.0
2025-09-08T18:37:39.269836,18.000,44.300,94.760,-56.0,0.000,0.000,130.000,1002.0
2025-09-08T18:37:39.271942,18.670,44.690,94.280,-56.0,0.000,0.000,130.000,1002.0
2025-09-08T18:37:39.300836,19.700,45.840,93.990,-56.0,0.000,0.000,130.000,1002.0
2025-09-08T18:37:39.301836,21.110,48.220,94.430,-56.0,0.000,0.000,130.000,1003.0
2025-09-08T18:37:39.329838,23.320,52.270,95.650,-56.0,0.000,0.000,130.000,1003.0
2025-09-08T18:37:39.359838,25.000,53.470,96.420,-56.0,0.000,0.000,130.000,1003.0
2025-09-08T18:37:39.362835,25.210,51.980,96.020,-55.9,0.000,0.000,130.000,1004.0
2025-09-08T18:37:39.389838,25.430,51.700,95.360,-55.9,0.000,0.000,130.000,1004.0
2025-09-08T18:37:39.391840,25.900,52.640,95.150,-55.9,0.000,0.000,130.000,1005.0
2025-09-08T18:37:39.434837,26.110,52.190,94.810,-55.9,0.000,0.000,130.000,1005.0
2025-09-08T18:37:39.463835,26.480,52.070,94.590,-55.9,0.000,0.000,130.000,1005.0
2025-09-08T18:37:39.479839,26.840,52.280,94.670,-55.9,0.000,0.000,130.000,1007.0
2025-09-08T18:37:39.509836,26.960,52.130,94.720,-55.9,0.000,0.000,130.000,1007.0
2025-09-08T18:37:39.510836,27.050,52.230,94.820,-55.9,0.000,0.000,130.000,1008.0
2025-09-08T18:37:39.539849,27.020,52.310,94.770,-55.9,0.000,0.000,130.000,1009.0
2025-09-08T18:37:39.569836,26.960,52.280,94.630,-55.9,0.000,0.000,130.000,1010.0
2025-09-08T18:37:39.571844,26.950,52.380,94.590,-55.9,0.000,0.000,130.000,1011.0
2025-09-08T18:37:39.599837,26.970,52.340,94.580,-55.9,0.000,0.000,130.000,1011.0
2025-09-08T18:37:39.601836,27.040,52.410,94.660,-55.9,0.000,0.000,130.000,1014.0
2025-09-08T18:37:39.631838,27.090,52.370,94.700,-55.9,0.000,0.000,130.000,1021.0
2025-09-08T18:37:39.662841,27.150,52.450,94.770,-55.9,0.000,0.000,130.000,1026.0
2025-09-08T18:37:39.666838,27.180,52.450,94.760,-55.9,0.000,0.000,130.000,1026.0
2025-09-08T18:37:39.706836,27.190,52.520,94.780,-55.9,0.000,0.000,130.000,1026.0
2025-09-08T18:37:39.708837,27.200,52.500,94.720,-55.9,0.000,0.000,130.000,1026.0
2025-09-08T18:37:39.736838,27.220,52.560,94.750,-55.9,0.000,0.000,130.000,1026.0
2025-09-08T18:37:39.766838,27.250,52.540,94.730,-55.9,0.000,0.000,130.000,1026.0
2025-09-08T18:37:39.781839,27.300,52.590,94.780,-55.9,0.000,0.000,130.000,1025.0
2025-09-08T18:37:39.795837,27.320,52.590,94.760,-55.8,0.000,0.000,130.000,1026.0
2025-09-08T18:37:39.797836,27.340,52.640,94.780,-55.8,0.000,0.000,130.000,1025.0
2025-09-08T18:37:39.826844,27.370,52.650,94.750,-55.8,0.000,0.000,130.000,1026.0
2025-09-08T18:37:39.871835,27.380,52.690,94.790,-55.8,0.000,0.000,130.000,1025.0
2025-09-08T18:37:39.873838,27.420,52.690,94.770,-55.8,0.000,0.000,130.000,1025.0
2025-09-08T18:37:39.901837,27.430,52.730,94.810,-55.8,0.000,0.000,130.000,1025.0
2025-09-08T18:37:39.903835,27.450,52.730,94.780,-55.8,0.000,0.000,130.000,1025.0
2025-09-08T18:37:39.946836,27.450,52.760,94.800,-55.8,0.000,0.000,130.000,1025.0
2025-09-08T18:37:39.976839,27.490,52.760,94.790,-55.8,0.000,0.000,130.000,1025.0
2025-09-08T18:37:39.978840,27.500,52.800,94.840,-55.8,0.000,0.000,130.000,1025.0
2025-09-08T18:37:40.006840,27.530,52.800,94.800,-55.8,0.000,0.000,130.000,1025.0
2025-09-08T18:37:40.008836,27.530,52.820,94.820,-55.8,0.000,0.000,130.000,1025.0
2025-09-08T18:37:40.036837,27.560,52.810,94.800,-55.8,0.000,0.000,130.000,1025.0
2025-09-08T18:37:40.038840,27.580,52.850,94.840,-55.8,0.000,0.000,130.000,1025.0
2025-09-08T18:37:40.066839,27.600,52.840,94.810,-55.8,0.000,0.000,130.000,1025.0
2025-09-08T18:37:40.097836,27.590,52.870,94.830,-55.8,0.000,0.000,130.000,1025.0
2025-09-08T18:37:40.099837,27.630,52.850,94.810,-55.9,0.000,0.000,130.000,1025.0
2025-09-08T18:37:40.127839,27.640,52.880,94.840,-55.8,0.000,0.000,130.000,1025.0
2025-09-08T18:37:40.187835,27.440,52.280,94.540,-55.8,0.000,0.000,130.000,1026.0
2025-09-08T18:37:40.189837,27.400,52.220,94.520,-55.8,0.000,0.000,130.000,1026.0
2025-09-08T18:37:40.217839,27.400,52.140,94.470,-55.8,0.000,0.000,130.000,1026.0
2025-09-08T18:37:40.218835,27.390,52.120,94.480,-55.8,0.000,0.000,130.000,1026.0
2025-09-08T18:37:40.247838,27.370,52.050,94.410,-55.8,0.000,0.000,130.000,1026.0
2025-09-08T18:37:40.249836,27.360,52.030,94.410,-55.9,0.000,0.000,130.000,1026.0
2025-09-08T18:37:40.277838,27.370,51.980,94.380,-55.9,0.000,0.000,130.000,1026.0
2025-09-08T18:37:40.307838,27.370,51.990,94.410,-55.9,0.000,0.000,130.000,1026.0
2025-09-08T18:37:40.308836,27.380,51.960,94.360,-55.9,0.000,0.000,130.000,1025.0
2025-09-08T18:37:40.337840,27.370,51.960,94.370,-55.9,0.000,0.000,130.000,1026.0
2025-09-08T18:37:40.339839,27.390,51.940,94.350,-55.9,0.000,0.000,130.000,1026.0
2025-09-08T18:37:40.367839,27.400,51.970,94.380,-55.9,0.000,0.000,130.000,1026.0
2025-09-08T18:37:40.412839,27.420,51.960,94.340,-55.9,0.000,0.000,130.000,1026.0
2025-09-08T18:37:40.414837,27.410,51.980,94.360,-55.9,0.000,0.000,130.000,1026.0
2025-09-08T18:37:40.442842,27.450,51.970,94.340,-55.8,0.000,0.000,130.000,1026.0
2025-09-08T18:37:40.443840,27.470,52.020,94.390,-55.8,0.000,0.000,130.000,1026.0
2025-09-08T18:37:40.472840,27.480,52.020,94.370,-55.8,0.000,0.000,130.000,1026.0
2025-09-08T18:37:40.502835,27.480,52.050,94.390,-55.8,0.000,0.000,130.000,1026.0
2025-09-08T18:37:40.517843,27.510,52.050,94.370,-55.8,0.000,0.000,130.000,1026.0
2025-09-08T18:37:40.533842,27.520,52.110,94.420,-55.8,0.000,0.000,130.000,1026.0
2025-09-08T18:37:40.547836,27.540,52.120,94.400,-55.8,0.000,0.000,130.000,1027.0
2025-09-08T18:37:40.577837,27.550,52.140,94.420,-55.8,0.000,0.000,130.000,1026.0
2025-09-08T18:37:40.606845,27.580,52.150,94.420,-55.8,0.000,0.000,130.000,1026.0
2025-09-08T18:37:40.608842,27.600,52.200,94.460,-55.8,0.000,0.000,130.000,1027.0
2025-09-08T18:37:40.652882,27.620,52.210,94.430,-55.8,0.000,0.000,130.000,1027.0
2025-09-08T18:37:40.654874,27.620,52.230,94.440,-55.8,0.000,0.000,130.000,1027.0
2025-09-08T18:37:40.683846,27.650,52.230,94.430,-55.8,0.000,0.000,130.000,1027.0
2025-09-08T18:37:40.712851,27.670,52.270,94.470,-55.8,0.000,0.000,130.000,1027.0
2025-09-08T18:37:40.713838,27.690,52.280,94.460,-55.8,0.000,0.000,130.000,1031.0
2025-09-08T18:37:40.742838,27.690,52.300,94.470,-55.8,0.000,0.000,130.000,1036.0
2025-09-08T18:37:40.744841,27.720,52.300,94.460,-55.8,0.000,0.000,130.000,1039.0
2025-09-08T18:37:40.772842,27.740,52.330,94.500,-55.8,0.000,0.000,130.000,1039.0
2025-09-08T18:37:40.802836,27.760,52.320,94.480,-55.9,0.000,0.000,130.000,1040.0
2025-09-08T18:37:40.803836,27.730,52.300,94.520,-55.9,0.000,0.000,130.000,1039.0
2025-09-08T18:37:40.833838,27.570,52.270,94.760,-55.9,0.000,0.000,130.000,1039.0
2025-09-08T18:37:40.834836,27.080,52.100,95.210,-56.0,0.000,0.000,130.000,1038.0
2025-09-08T18:37:40.862840,25.930,51.220,95.640,-56.0,0.000,0.000,130.000,1038.0
2025-09-08T18:37:40.922837,23.810,48.860,95.500,-56.0,0.000,0.000,130.000,1038.0
2025-09-08T18:37:40.925839,20.920,45.970,94.970,-56.1,0.000,0.000,130.000,1037.0
2025-09-08T18:37:40.952835,17.430,41.730,94.360,-56.1,0.000,0.000,130.000,1037.0
2025-09-08T18:37:40.955838,12.720,36.240,93.430,-56.2,0.000,0.000,130.000,1037.0
2025-09-08T18:37:40.983840,6.740,29.060,92.360,-56.2,0.000,0.000,130.000,1037.0
2025-09-08T18:37:40.986839,-0.570,19.960,91.630,-56.2,0.000,0.000,130.000,1036.0
2025-09-08T18:37:41.012836,-9.230,8.770,91.620,-56.2,0.000,0.000,130.000,1036.0
2025-09-08T18:37:41.042841,-18.490,-4.570,93.250,-56.2,0.000,0.000,130.000,1035.0
2025-09-08T18:37:41.044837,-27.640,-20.530,97.460,-56.2,0.000,0.000,130.000,1030.0
2025-09-08T18:37:41.072839,-35.520,-40.630,105.980,-56.1,0.000,0.000,130.000,1028.0
2025-09-08T18:37:41.076836,-38.380,-58.600,116.280,-56.1,0.000,0.000,130.000,1022.0
2025-09-08T18:37:41.101842,-32.340,-51.240,112.100,-56.1,0.000,0.000,130.000,1020.0
2025-09-08T18:37:41.147879,-23.110,-42.860,105.060,-56.1,0.000,0.000,130.000,1019.0
2025-09-08T18:37:41.150836,-14.170,-35.930,100.400,-56.1,0.000,0.000,130.000,1020.0
2025-09-08T18:37:41.177839,-6.050,-29.810,97.710,-56.0,0.000,0.000,130.000,1020.0
2025-09-08T18:37:41.183837,1.850,-24.900,95.810,-56.0,0.000,0.000,130.000,1019.0
2025-09-08T18:37:41.207839,9.240,-23.090,94.540,-56.0,0.000,0.000,130.000,1019.0
2025-09-08T18:37:41.252839,17.890,-23.460,92.100,-56.0,0.000,0.000,130.000,1019.0
2025-09-08T18:37:41.255840,27.040,-23.410,89.050,-56.0,0.000,0.000,130.000,1019.0
2025-09-08T18:37:41.282842,35.660,-24.390,85.980,-55.9,0.000,0.000,130.000,1019.0
2025-09-08T18:37:41.285842,44.660,-28.100,81.420,-55.9,0.000,0.000,130.000,1019.0
2025-09-08T18:37:41.312841,53.060,-35.060,73.130,-55.9,0.000,0.000,130.000,1019.0
2025-09-08T18:37:41.342851,48.190,-31.440,75.660,-55.9,0.000,0.000,130.000,1018.0
2025-09-08T18:37:41.344840,40.870,-28.140,78.820,-55.9,0.000,0.000,130.000,1018.0
2025-09-08T18:37:41.386835,35.370,-28.860,79.950,-55.9,0.000,0.000,130.000,1018.0
2025-09-08T18:37:41.391840,31.280,-31.020,80.040,-55.9,0.000,0.000,130.000,1017.0
2025-09-08T18:37:41.418838,28.330,-34.470,79.290,-55.9,0.000,0.000,130.000,1018.0
2025-09-08T18:37:41.447840,25.930,-38.520,78.150,-55.9,0.000,0.000,130.000,1017.0
2025-09-08T18:37:41.448837,24.240,-43.380,76.520,-55.9,0.000,0.000,130.000,1016.0
2025-09-08T18:37:41.477837,23.090,-50.220,74.200,-55.9,0.000,0.000,130.000,1016.0
2025-09-08T18:37:41.481837,21.950,-56.570,71.650,-55.9,0.000,0.000,130.000,1015.0
2025-09-08T18:37:41.507840,20.100,-55.320,71.140,-55.9,0.000,0.000,130.000,1014.0
2025-09-08T18:37:41.537837,18.060,-53.580,71.190,-55.9,0.000,0.000,130.000,1013.0
2025-09-08T18:37:41.538838,16.370,-53.540,70.650,-55.9,0.000,0.000,130.000,1010.0
2025-09-08T18:37:41.581835,15.130,-55.060,69.420,-55.9,0.000,0.000,130.000,1010.0
2025-09-08T18:37:41.585836,14.040,-56.120,68.030,-55.9,0.000,0.000,130.000,1010.0
2025-09-08T18:37:41.612840,13.260,-56.490,67.000,-55.9,0.000,0.000,130.000,1010.0
2025-09-08T18:37:41.657838,12.700,-57.010,66.110,-55.9,0.000,0.000,130.000,1010.0
2025-09-08T18:37:41.659838,12.140,-57.610,65.700,-55.9,0.000,0.000,130.000,1010.0
2025-09-08T18:37:41.687836,11.660,-57.580,65.860,-55.9,0.000,0.000,130.000,1010.0
2025-09-08T18:37:41.693844,11.280,-57.420,66.300,-55.9,0.000,0.000,130.000,1010.0
2025-09-08T18:37:41.717840,11.150,-57.380,66.480,-55.9,0.000,0.000,130.000,1010.0
