Timestamp,Roll_Angle,Pitch_Angle,Yaw_Angle,Altitude,Roll_Setpoint,Pitch_Setpoint,Yaw_Setpoint,Altitude_Setpoint
2025-09-04T14:47:17.191256,-0.270,-7.230,0.000,-80.5,0.200,-0.300,180.360,1000.0
2025-09-04T14:47:17.299839,-0.270,-7.230,0.000,-80.5,0.200,-0.300,180.360,1000.0
2025-09-04T14:47:17.300839,-0.270,-7.230,0.000,-80.5,0.200,-0.300,180.360,1000.0
2025-09-04T14:47:17.302839,-0.270,-7.230,0.000,-80.5,0.200,-0.300,180.360,1000.0
2025-09-04T14:47:17.303839,-0.270,-7.230,0.000,-80.5,0.200,-0.300,180.360,1000.0
2025-09-04T14:47:17.305839,-0.270,-7.230,0.000,-80.5,0.200,-0.300,180.360,1000.0
2025-09-04T14:47:17.409747,-0.270,-7.230,0.000,-80.5,0.200,-0.300,180.360,1000.0
2025-09-04T14:47:17.412746,-0.270,-7.230,0.000,-80.5,0.200,-0.300,180.360,1000.0
2025-09-04T14:47:17.415744,-0.270,-7.230,0.000,-80.5,0.200,-0.300,180.360,1000.0
2025-09-04T14:47:17.417745,-0.270,-7.230,0.000,-80.5,0.200,-0.300,180.360,1000.0
2025-09-04T14:47:17.419743,-0.270,-7.230,0.000,-80.5,0.200,-0.300,180.360,1000.0
2025-09-04T14:47:17.536316,-0.270,-7.230,0.000,-80.5,0.200,-0.300,180.360,1000.0
2025-09-04T14:47:17.537317,-0.270,-7.230,0.000,-80.5,0.200,-0.300,180.360,1000.0
2025-09-04T14:47:17.539318,-0.270,-7.230,0.000,-80.5,0.200,-0.300,180.360,1000.0
2025-09-04T14:47:17.540317,-0.270,-7.230,0.000,-80.5,0.200,-0.300,180.360,1000.0
2025-09-04T14:47:17.541317,-0.270,-7.230,0.000,-80.5,0.200,-0.300,180.360,1000.0
2025-09-04T14:47:17.660319,-0.270,-7.230,0.000,-80.5,0.200,-0.300,180.360,1000.0
2025-09-04T14:47:17.662322,-0.270,-7.230,0.000,-80.5,0.200,-0.300,180.360,1000.0
2025-09-04T14:47:17.664323,-0.270,-7.230,0.000,-80.5,0.200,-0.300,180.360,1000.0
2025-09-04T14:47:17.666318,-0.260,-7.230,0.000,-80.5,0.200,-0.300,180.360,1000.0
2025-09-04T14:47:17.668319,-0.260,-7.230,0.000,-80.5,0.200,-0.300,180.360,1000.0
2025-09-04T14:47:17.783907,-0.260,-7.230,0.000,-80.5,0.200,-0.300,180.360,1000.0
2025-09-04T14:47:17.785907,-0.250,-7.230,0.000,-80.5,0.200,-0.300,180.360,1000.0
2025-09-04T14:47:17.786909,-0.250,-7.230,0.000,-80.5,0.200,-0.300,180.360,1000.0
2025-09-04T14:47:17.788907,-0.250,-7.230,0.000,-80.5,0.200,-0.300,180.360,1000.0
2025-09-04T14:47:17.789908,-0.250,-7.230,0.000,-80.5,0.200,-0.300,180.360,1000.0
2025-09-04T14:47:17.907907,-0.250,-7.230,0.000,-80.5,0.200,-0.300,180.360,1000.0
2025-09-04T14:47:17.908907,-0.250,-7.230,0.000,-80.5,0.200,-0.300,180.360,1000.0
2025-09-04T14:47:17.911917,-0.240,-7.230,0.000,-80.5,0.200,-0.300,180.360,1000.0
2025-09-04T14:47:17.914908,-0.240,-7.230,0.000,-80.5,0.200,-0.300,180.360,1000.0
2025-09-04T14:47:17.916908,-0.240,-7.230,0.000,-80.5,0.200,-0.300,180.360,1000.0
2025-09-04T14:47:18.031014,-0.240,-7.230,0.000,-80.5,0.200,-0.300,180.360,1000.0
2025-09-04T14:47:18.033013,-0.240,-7.230,0.000,-80.5,0.200,-0.300,180.360,1000.0
2025-09-04T14:47:18.034014,-0.240,-7.230,0.000,-80.5,0.200,-0.300,180.360,1000.0
2025-09-04T14:47:18.036015,-0.240,-7.230,0.000,-80.5,0.200,-0.300,180.360,1000.0
2025-09-04T14:47:18.038015,-0.240,-7.230,0.000,-80.5,0.200,-0.300,180.360,1000.0
2025-09-04T14:47:18.153609,-0.240,-7.230,0.000,-80.5,0.200,-0.300,180.360,1000.0
2025-09-04T14:47:18.154608,-0.250,-7.230,0.000,-80.5,0.200,-0.300,180.360,1000.0
2025-09-04T14:47:18.156609,-0.250,-7.230,0.000,-80.5,0.200,-0.300,180.360,1000.0
2025-09-04T14:47:18.157608,-0.250,-7.230,0.000,-80.5,0.200,-0.300,180.360,1000.0
2025-09-04T14:47:18.159609,-0.250,-7.230,0.000,-80.5,0.200,-0.300,180.360,1000.0
2025-09-04T14:47:18.279079,-0.250,-7.230,0.000,-80.5,0.200,-0.300,180.360,1000.0
2025-09-04T14:47:18.282391,-0.250,-7.230,0.000,-80.5,0.200,-0.300,180.360,1000.0
2025-09-04T14:47:18.284399,-0.250,-7.230,0.000,-80.5,0.200,-0.300,180.360,1000.0
2025-09-04T14:47:18.285390,-0.250,-7.230,0.000,-80.5,0.200,-0.300,180.360,1000.0
2025-09-04T14:47:18.287394,-0.250,-7.230,0.000,-80.5,0.200,-0.300,180.360,1000.0
2025-09-04T14:47:18.399477,-0.250,-7.230,0.000,-80.5,0.200,-0.300,180.360,1000.0
2025-09-04T14:47:18.401478,-0.250,-7.230,0.000,-80.5,0.200,-0.300,180.360,1000.0
2025-09-04T14:47:18.402476,-0.260,-7.230,0.000,-80.5,0.200,-0.300,180.360,1000.0
2025-09-04T14:47:18.403476,-0.250,-7.230,0.000,-80.5,0.200,-0.300,180.360,1000.0
2025-09-04T14:47:18.405477,-0.250,-7.230,0.000,-80.5,0.200,-0.300,180.360,1000.0
2025-09-04T14:47:18.521956,-0.250,-7.230,0.000,-80.5,0.200,-0.300,180.360,1000.0
2025-09-04T14:47:18.522958,-0.250,-7.230,0.000,-80.5,0.200,-0.300,180.360,1000.0
2025-09-04T14:47:18.524957,-0.250,-7.230,0.000,-80.5,0.200,-0.300,180.360,1000.0
2025-09-04T14:47:18.526959,-0.250,-7.230,0.000,-80.5,0.200,-0.300,180.360,1000.0
2025-09-04T14:47:18.528960,-0.240,-7.230,0.000,-80.5,0.200,-0.300,180.360,1000.0
2025-09-04T14:47:18.647016,-0.240,-7.230,0.000,-80.5,0.200,-0.300,180.360,1000.0
2025-09-04T14:47:18.648016,-0.240,-7.230,0.000,-80.5,0.200,-0.300,180.360,1000.0
2025-09-04T14:47:18.650019,-0.240,-7.230,0.000,-80.5,0.200,-0.300,180.360,1000.0
2025-09-04T14:47:18.652019,-0.240,-7.230,0.000,-80.5,0.200,-0.300,180.360,1000.0
2025-09-04T14:47:18.654019,-0.230,-7.230,0.000,-80.5,0.200,-0.300,180.360,1000.0
2025-09-04T14:47:18.767018,-0.230,-7.230,0.000,-80.5,0.200,-0.300,180.360,1000.0
2025-09-04T14:47:18.769018,-0.230,-7.230,0.000,-80.5,0.200,-0.300,180.360,1000.0
2025-09-04T14:47:18.771016,-0.230,-7.240,0.000,-80.5,0.200,-0.300,180.360,1000.0
2025-09-04T14:47:18.772017,-0.230,-7.240,0.000,-80.5,0.200,-0.300,180.360,1000.0
2025-09-04T14:47:18.773017,-0.230,-7.240,0.000,-80.5,0.200,-0.300,180.360,1000.0
2025-09-04T14:47:18.878048,-0.230,-7.240,0.000,-80.5,0.200,-0.300,180.360,1000.0
2025-09-04T14:47:18.881045,-0.230,-7.240,0.000,-80.5,0.200,-0.300,180.360,1000.0
2025-09-04T14:47:18.883042,-0.230,-7.240,0.000,-80.5,0.200,-0.300,180.360,1000.0
2025-09-04T14:47:18.885043,-0.220,-7.240,0.010,-80.5,0.200,-0.300,180.360,1000.0
2025-09-04T14:47:18.886045,-0.220,-7.240,0.010,-80.5,0.200,-0.300,180.360,1000.0
2025-09-04T14:47:19.000988,-0.220,-7.240,0.010,-80.5,0.200,-0.300,180.360,1000.0
2025-09-04T14:47:19.002988,-0.220,-7.240,0.010,-80.5,0.200,-0.300,180.360,1000.0
2025-09-04T14:47:19.004989,-0.220,-7.240,0.010,-80.5,0.200,-0.300,180.360,1000.0
2025-09-04T14:47:19.006990,-0.220,-7.240,0.010,-80.5,0.200,-0.300,180.360,1000.0
2025-09-04T14:47:19.008990,-0.220,-7.240,0.010,-80.5,0.200,-0.300,180.360,1000.0
2025-09-04T14:47:19.123463,-0.220,-7.240,0.010,-80.5,0.200,-0.300,180.360,1000.0
2025-09-04T14:47:19.125467,-0.220,-7.240,0.010,-80.5,0.200,-0.300,180.360,1000.0
2025-09-04T14:47:19.127468,-0.220,-7.240,0.010,-80.5,0.200,-0.300,180.360,1000.0
2025-09-04T14:47:19.129470,-0.230,-7.230,0.010,-80.5,0.200,-0.300,180.360,1000.0
2025-09-04T14:47:19.131469,-0.230,-7.230,0.010,-80.5,0.200,-0.300,180.360,1000.0
2025-09-04T14:47:19.247033,-0.230,-7.230,0.010,-80.5,0.200,-0.300,180.360,1000.0
2025-09-04T14:47:19.248033,-0.240,-7.230,0.010,-80.5,0.200,-0.300,180.360,1000.0
2025-09-04T14:47:19.250032,-0.240,-7.230,0.010,-80.5,0.200,-0.300,180.360,1000.0
2025-09-04T14:47:19.251034,-0.240,-7.230,0.010,-80.5,0.200,-0.300,180.360,1000.0
2025-09-04T14:47:19.253033,-0.250,-7.230,0.010,-80.5,0.200,-0.300,180.360,1000.0
2025-09-04T14:47:19.358650,-0.250,-7.230,0.010,-80.5,0.200,-0.300,180.360,1000.0
2025-09-04T14:47:19.360650,-0.250,-7.230,0.010,-80.5,0.200,-0.300,180.360,1000.0
2025-09-04T14:47:19.361652,-0.240,-7.230,0.010,-80.5,0.200,-0.300,180.360,1000.0
2025-09-04T14:47:19.363651,-0.240,-7.230,0.010,-80.5,0.200,-0.300,180.360,1000.0
2025-09-04T14:47:19.364650,-0.240,-7.230,0.010,-80.6,0.200,-0.300,180.360,1000.0
2025-09-04T14:47:19.482664,-0.240,-7.230,0.010,-80.6,0.200,-0.300,180.360,1000.0
2025-09-04T14:47:19.484664,-0.240,-7.230,0.010,-80.6,0.200,-0.300,180.360,1000.0
2025-09-04T14:47:19.487666,-0.230,-7.240,0.010,-80.6,0.200,-0.300,180.360,1000.0
2025-09-04T14:47:19.488670,-0.230,-7.240,0.010,-80.6,0.200,-0.300,180.360,1000.0
2025-09-04T14:47:19.490670,-0.230,-7.240,0.010,-80.5,0.200,-0.300,180.360,1000.0
2025-09-04T14:47:19.607555,-0.230,-7.240,0.010,-80.6,0.200,-0.300,180.360,1000.0
2025-09-04T14:47:19.609555,-0.230,-7.240,0.010,-80.6,0.200,-0.300,180.360,1000.0
2025-09-04T14:47:19.612557,-0.230,-7.240,0.010,-80.6,0.200,-0.300,180.360,1000.0
2025-09-04T14:47:19.614564,-0.230,-7.240,0.010,-80.6,0.200,-0.300,180.360,1000.0
2025-09-04T14:47:19.616159,-0.230,-7.240,0.010,-80.6,0.200,-0.300,180.360,1000.0
2025-09-04T14:47:19.731437,-0.230,-7.240,0.010,-80.6,0.200,-0.300,180.360,1000.0
2025-09-04T14:47:19.733439,-0.230,-7.240,0.010,-80.6,0.200,-0.300,180.360,1000.0
2025-09-04T14:47:19.734438,-0.220,-7.240,0.010,-80.6,0.200,-0.300,180.360,1000.0
2025-09-04T14:47:19.736439,-0.220,-7.240,0.010,-80.6,0.200,-0.300,180.360,1000.0
2025-09-04T14:47:19.737439,-0.220,-7.240,0.010,-80.6,0.200,-0.300,180.360,1000.0
2025-09-04T14:47:19.842408,-0.220,-7.240,0.010,-80.6,0.200,-0.300,180.360,1000.0
2025-09-04T14:47:19.844407,-0.220,-7.240,0.010,-80.6,0.200,-0.300,180.360,1000.0
2025-09-04T14:47:19.849408,-0.220,-7.240,0.010,-80.6,0.200,-0.300,180.360,1000.0
2025-09-04T14:47:19.850409,-0.220,-7.240,0.010,-80.6,0.200,-0.300,180.360,1000.0
2025-09-04T14:47:19.852409,-0.220,-7.230,0.010,-80.6,0.200,-0.300,180.360,1000.0
2025-09-04T14:47:19.966619,-0.220,-7.230,0.010,-80.6,0.200,-0.300,180.360,1000.0
2025-09-04T14:47:19.968619,-0.220,-7.230,0.010,-80.6,0.200,-0.300,180.360,1000.0
2025-09-04T14:47:19.969619,-0.220,-7.230,0.010,-80.6,0.200,-0.300,180.360,1000.0
2025-09-04T14:47:19.970619,-0.220,-7.230,0.010,-80.6,0.200,-0.300,180.360,1000.0
2025-09-04T14:47:19.972619,-0.220,-7.230,0.010,-80.6,0.200,-0.300,180.360,1000.0
2025-09-04T14:47:20.076511,-0.220,-7.230,0.010,-80.6,0.200,-0.300,180.360,1000.0
2025-09-04T14:47:20.080511,-0.220,-7.230,0.010,-80.6,0.200,-0.300,180.360,1000.0
2025-09-04T14:47:20.083511,-0.220,-7.230,0.010,-80.6,0.200,-0.300,180.360,1000.0
2025-09-04T14:47:20.084518,-0.220,-7.230,0.010,-80.6,0.200,-0.300,180.360,1000.0
2025-09-04T14:47:20.086513,-0.230,-7.230,0.010,-80.6,0.200,-0.300,180.360,1000.0
2025-09-04T14:47:20.198966,-0.230,-7.230,0.010,-80.6,0.200,-0.300,180.360,1000.0
2025-09-04T14:47:20.200967,-0.240,-7.230,0.010,-80.6,0.200,-0.300,180.360,1000.0
2025-09-04T14:47:20.202967,-0.240,-7.230,0.010,-80.6,0.200,-0.300,180.360,1000.0
2025-09-04T14:47:20.203968,-0.240,-7.230,0.010,-80.6,0.200,-0.300,180.360,1000.0
2025-09-04T14:47:20.205971,-0.240,-7.230,0.010,-80.6,0.200,-0.300,180.360,1000.0
2025-09-04T14:47:20.322002,-0.240,-7.230,0.010,-80.6,0.200,-0.300,180.360,1000.0
2025-09-04T14:47:20.323013,-0.240,-7.230,0.010,-80.6,0.200,-0.300,180.360,1000.0
2025-09-04T14:47:20.324003,-0.240,-7.230,0.010,-80.6,0.200,-0.300,180.360,1000.0
2025-09-04T14:47:20.326002,-0.240,-7.230,0.010,-80.6,0.200,-0.300,180.360,1000.0
2025-09-04T14:47:20.327002,-0.240,-7.230,0.010,-80.6,0.200,-0.300,180.360,1000.0
2025-09-04T14:47:20.431149,-0.230,-7.230,0.000,-80.6,0.200,-0.300,180.360,1000.0
2025-09-04T14:47:20.433148,-0.230,-7.230,0.000,-80.6,0.200,-0.300,180.360,1000.0
2025-09-04T14:47:20.434147,-0.230,-7.230,0.000,-80.6,0.200,-0.300,180.360,1000.0
2025-09-04T14:47:20.435146,-0.230,-7.230,0.000,-80.6,0.200,-0.300,180.360,1000.0
2025-09-04T14:47:20.437147,-0.230,-7.230,0.000,-80.6,0.200,-0.300,180.360,1000.0
2025-09-04T14:47:20.555568,-0.230,-7.230,0.000,-80.6,0.200,-0.300,180.360,1000.0
2025-09-04T14:47:20.556568,-0.240,-7.230,0.000,-80.6,0.200,-0.300,180.360,1000.0
2025-09-04T14:47:20.557567,-0.240,-7.230,0.000,-80.6,0.200,-0.300,180.360,1000.0
2025-09-04T14:47:20.559567,-0.240,-7.230,0.000,-80.6,0.200,-0.300,180.360,1000.0
2025-09-04T14:47:20.560569,-0.240,-7.230,0.000,-80.6,0.200,-0.300,180.360,1000.0
2025-09-04T14:47:20.667569,-0.240,-7.230,0.000,-80.6,0.200,-0.300,180.360,1000.0
2025-09-04T14:47:20.668569,-0.240,-7.230,0.000,-80.6,0.200,-0.300,180.360,1000.0
2025-09-04T14:47:20.669567,-0.240,-7.230,0.000,-80.6,0.200,-0.300,180.360,1000.0
2025-09-04T14:47:20.671580,-0.240,-7.230,0.000,-80.6,0.200,-0.300,180.360,1000.0
2025-09-04T14:47:20.672568,-0.230,-7.230,0.000,-80.6,0.200,-0.300,180.360,1000.0
2025-09-04T14:47:20.792113,-0.230,-7.230,0.000,-80.6,0.200,-0.300,180.360,1000.0
2025-09-04T14:47:20.794113,-0.230,-7.230,0.000,-80.6,0.200,-0.300,180.360,1000.0
2025-09-04T14:47:20.796119,-0.230,-7.230,0.000,-80.6,0.200,-0.300,180.360,1000.0
2025-09-04T14:47:20.798118,-0.230,-7.230,0.000,-80.6,0.200,-0.300,180.360,1000.0
2025-09-04T14:47:20.800116,-0.240,-7.230,0.000,-80.6,0.200,-0.300,180.360,1000.0
2025-09-04T14:47:20.914898,-0.240,-7.230,0.000,-80.6,0.200,-0.300,180.360,1000.0
2025-09-04T14:47:20.916888,-0.240,-7.230,0.000,-80.6,0.200,-0.300,180.360,1000.0
2025-09-04T14:47:20.917888,-0.240,-7.230,0.000,-80.6,0.200,-0.300,180.360,1000.0
2025-09-04T14:47:20.919889,-0.250,-7.230,0.000,-80.6,0.200,-0.300,180.360,1000.0
2025-09-04T14:47:20.920891,-0.250,-7.230,0.000,-80.6,0.200,-0.300,180.360,1000.0
2025-09-04T14:47:21.037738,-0.250,-7.230,0.000,-80.6,0.200,-0.300,180.360,1000.0
2025-09-04T14:47:21.039737,-0.250,-7.230,0.000,-80.6,0.200,-0.300,180.360,1000.0
2025-09-04T14:47:21.041739,-0.250,-7.230,0.000,-80.6,0.200,-0.300,180.360,1000.0
2025-09-04T14:47:21.043737,-0.250,-7.230,0.000,-80.6,0.200,-0.300,180.360,1000.0
2025-09-04T14:47:21.045739,-0.250,-7.230,0.000,-80.6,0.200,-0.300,180.360,1000.0
2025-09-04T14:47:21.160094,-0.250,-7.230,0.000,-80.6,0.200,-0.300,180.360,1000.0
2025-09-04T14:47:21.164107,-0.250,-7.230,0.000,-80.6,0.200,-0.300,180.360,1000.0
2025-09-04T14:47:21.166096,-0.250,-7.230,0.010,-80.6,0.200,-0.300,180.360,1000.0
2025-09-04T14:47:21.167096,-0.250,-7.230,0.010,-80.6,0.200,-0.300,180.360,1000.0
2025-09-04T14:47:21.169098,-0.260,-7.230,0.010,-80.6,0.200,-0.300,180.360,1000.0
2025-09-04T14:47:21.282616,-0.260,-7.230,0.010,-80.6,0.200,-0.300,180.360,1000.0
2025-09-04T14:47:21.283604,-0.260,-7.230,0.010,-80.6,0.200,-0.300,180.360,1000.0
2025-09-04T14:47:21.286606,-0.260,-7.230,0.010,-80.6,0.200,-0.300,180.360,1000.0
2025-09-04T14:47:21.288604,-0.260,-7.230,0.010,-80.6,0.200,-0.300,180.360,1000.0
2025-09-04T14:47:21.290605,-0.260,-7.230,0.010,-80.6,0.200,-0.300,180.360,1000.0
2025-09-04T14:47:21.405649,-0.260,-7.230,0.010,-80.6,0.200,-0.300,180.360,1000.0
2025-09-04T14:47:21.406638,-0.260,-7.230,0.010,-80.6,0.200,-0.300,180.360,1000.0
2025-09-04T14:47:21.408638,-0.260,-7.230,0.010,-80.6,0.200,-0.300,180.360,1000.0
2025-09-04T14:47:21.409638,-0.260,-7.230,0.010,-80.6,0.200,-0.300,180.360,1000.0
2025-09-04T14:47:21.411650,-0.260,-7.230,0.010,-80.6,0.200,-0.300,180.360,1000.0
2025-09-04T14:47:21.530489,-0.260,-7.230,0.010,-80.6,0.200,-0.300,180.360,1000.0
2025-09-04T14:47:21.532488,-0.260,-7.230,0.010,-80.6,0.200,-0.300,180.360,1000.0
2025-09-04T14:47:21.533989,-0.270,-7.230,0.010,-80.6,0.200,-0.300,180.360,1000.0
2025-09-04T14:47:21.535486,-0.270,-7.230,0.010,-80.6,0.200,-0.300,180.360,1000.0
2025-09-04T14:47:21.536486,-0.270,-7.230,0.010,-80.6,0.200,-0.300,180.360,1000.0
2025-09-04T14:47:21.654028,-0.270,-7.230,0.010,-80.6,0.200,-0.300,180.360,1000.0
2025-09-04T14:47:21.656030,-0.270,-7.230,0.010,-80.6,0.200,-0.300,180.360,1000.0
2025-09-04T14:47:21.657029,-0.270,-7.230,0.010,-80.6,0.200,-0.300,180.360,1000.0
2025-09-04T14:47:21.659032,-0.270,-7.230,0.010,-80.6,0.200,-0.300,180.360,1000.0
2025-09-04T14:47:21.660030,-0.270,-7.230,0.010,-80.6,0.200,-0.300,180.360,1000.0
2025-09-04T14:47:21.778028,-0.270,-7.230,0.010,-80.6,0.200,-0.300,180.360,1000.0
2025-09-04T14:47:21.782028,-0.270,-7.230,0.010,-80.6,0.200,-0.300,180.360,1000.0
2025-09-04T14:47:21.785031,-0.270,-7.230,0.010,-80.6,0.200,-0.300,180.360,1000.0
2025-09-04T14:47:21.787027,-0.270,-7.230,0.010,-80.6,0.200,-0.300,180.360,1000.0
2025-09-04T14:47:21.788027,-0.270,-7.230,0.010,-80.6,0.200,-0.300,180.360,1000.0
2025-09-04T14:47:21.903569,-0.270,-7.230,0.010,-80.6,0.200,-0.300,180.360,1000.0
2025-09-04T14:47:21.905571,-0.270,-7.230,0.010,-80.6,0.200,-0.300,180.360,1000.0
2025-09-04T14:47:21.906569,-0.270,-7.230,0.010,-80.6,0.200,-0.300,180.360,1000.0
2025-09-04T14:47:21.908573,-0.270,-7.230,0.010,-80.6,0.200,-0.300,180.360,1000.0
2025-09-04T14:47:21.909571,-0.270,-7.230,0.010,-80.6,0.200,-0.300,180.360,1000.0
2025-09-04T14:47:22.014121,-0.270,-7.230,0.010,-80.6,0.200,-0.300,180.360,1000.0
2025-09-04T14:47:22.016124,-0.270,-7.230,0.010,-80.6,0.200,-0.300,180.360,1000.0
2025-09-04T14:47:22.018118,-0.270,-7.230,0.010,-80.6,0.200,-0.300,180.360,1000.0
2025-09-04T14:47:22.020095,-0.270,-7.230,0.010,-80.6,0.200,-0.300,180.360,1000.0
2025-09-04T14:47:22.022096,-0.270,-7.230,0.010,-80.6,0.200,-0.300,180.360,1000.0
2025-09-04T14:47:22.137604,-0.270,-7.230,0.010,-80.6,0.200,-0.300,180.360,1000.0
2025-09-04T14:47:22.139881,-0.270,-7.230,0.010,-80.6,0.200,-0.300,180.360,1000.0
2025-09-04T14:47:22.140880,-0.270,-7.230,0.010,-80.6,0.200,-0.300,180.360,1000.0
2025-09-04T14:47:22.141881,-0.270,-7.230,0.010,-80.6,0.200,-0.300,180.360,1000.0
2025-09-04T14:47:22.143882,-0.270,-7.230,0.010,-80.6,0.200,-0.300,180.360,1000.0
2025-09-04T14:47:22.258696,-0.270,-7.230,0.010,-80.6,0.200,-0.300,180.360,1000.0
2025-09-04T14:47:22.260697,-0.260,-7.230,0.010,-80.6,0.200,-0.300,180.360,1000.0
2025-09-04T14:47:22.262698,-0.260,-7.230,0.010,-80.6,0.200,-0.300,180.360,1000.0
2025-09-04T14:47:22.264698,-0.250,-7.230,0.010,-80.6,0.200,-0.300,180.360,1000.0
2025-09-04T14:47:22.266696,-0.250,-7.230,0.010,-80.6,0.200,-0.300,180.360,1000.0
2025-09-04T14:47:22.380649,-0.250,-7.230,0.010,-80.6,0.200,-0.300,180.360,1000.0
2025-09-04T14:47:22.383647,-0.250,-7.240,0.010,-80.6,0.200,-0.300,180.360,1000.0
2025-09-04T14:47:22.385645,-0.250,-7.240,0.010,-80.6,0.200,-0.300,180.360,1000.0
2025-09-04T14:47:22.387646,-0.250,-7.240,0.010,-80.6,0.200,-0.300,180.360,1000.0
2025-09-04T14:47:22.388646,-0.250,-7.240,0.010,-80.6,0.200,-0.300,180.360,1000.0
2025-09-04T14:47:22.502483,-0.250,-7.240,0.010,-80.6,0.200,-0.300,180.360,1000.0
2025-09-04T14:47:22.504482,-0.250,-7.240,0.010,-80.7,0.200,-0.300,180.360,1000.0
2025-09-04T14:47:22.505483,-0.250,-7.240,0.010,-80.7,0.200,-0.300,180.360,1000.0
2025-09-04T14:47:22.506481,-0.250,-7.240,0.010,-80.7,0.200,-0.300,180.360,1000.0
2025-09-04T14:47:22.508482,-0.240,-7.240,0.010,-80.7,0.200,-0.300,180.360,1000.0
2025-09-04T14:47:22.624460,-0.240,-7.240,0.010,-80.7,0.200,-0.300,180.360,1000.0
2025-09-04T14:47:22.625460,-0.240,-7.240,0.010,-80.7,0.200,-0.300,180.360,1000.0
2025-09-04T14:47:22.627502,-0.240,-7.230,0.010,-80.7,0.200,-0.300,180.360,1000.0
2025-09-04T14:47:22.628460,-0.240,-7.230,0.010,-80.7,0.200,-0.300,180.360,1000.0
2025-09-04T14:47:22.630463,-0.240,-7.230,0.010,-80.7,0.200,-0.300,180.360,1000.0
2025-09-04T14:47:22.744459,-0.240,-7.220,0.010,-80.7,0.200,-0.300,180.360,1000.0
2025-09-04T14:47:22.745459,-0.240,-7.220,0.010,-80.7,0.200,-0.300,180.360,1000.0
2025-09-04T14:47:22.747463,-0.240,-7.220,0.010,-80.7,0.200,-0.300,180.360,1000.0
2025-09-04T14:47:22.749461,-0.250,-7.220,0.010,-80.7,0.200,-0.300,180.360,1000.0
2025-09-04T14:47:22.751460,-0.250,-7.220,0.010,-80.7,0.200,-0.300,180.360,1000.0
2025-09-04T14:47:22.868477,-0.250,-7.210,0.010,-80.7,0.200,-0.300,180.360,1000.0
2025-09-04T14:47:22.870478,-0.250,-7.210,0.010,-80.7,0.200,-0.300,180.360,1000.0
2025-09-04T14:47:22.872476,-0.250,-7.210,0.010,-80.7,0.200,-0.300,180.360,1000.0
2025-09-04T14:47:22.874480,-0.250,-7.210,0.010,-80.7,0.200,-0.300,180.360,1000.0
2025-09-04T14:47:22.878478,-0.250,-7.200,0.010,-80.7,0.200,-0.300,180.360,1000.0
2025-09-04T14:47:22.991849,-0.250,-7.200,0.010,-80.7,0.200,-0.300,180.360,1000.0
2025-09-04T14:47:22.992837,-0.250,-7.200,0.010,-80.7,0.200,-0.300,180.360,1000.0
2025-09-04T14:47:22.994837,-0.250,-7.200,0.010,-80.7,0.200,-0.300,180.360,1000.0
2025-09-04T14:47:22.995836,-0.250,-7.200,0.010,-80.7,0.200,-0.300,180.360,1000.0
2025-09-04T14:47:22.997840,-0.260,-7.200,0.010,-80.7,0.200,-0.300,180.360,1000.0
2025-09-04T14:47:23.114805,-0.260,-7.200,0.010,-80.7,0.200,-0.300,180.360,1000.0
2025-09-04T14:47:23.116807,-0.260,-7.200,0.010,-80.7,0.200,-0.300,180.360,1000.0
2025-09-04T14:47:23.118807,-0.260,-7.200,0.010,-80.7,0.200,-0.300,180.360,1000.0
2025-09-04T14:47:23.119931,-0.260,-7.200,0.010,-80.7,0.200,-0.300,180.360,1000.0
2025-09-04T14:47:23.121806,-0.260,-7.200,0.010,-80.7,0.200,-0.300,180.360,1000.0
2025-09-04T14:47:23.236960,-0.260,-7.200,0.010,-80.7,0.200,-0.300,180.360,1000.0
2025-09-04T14:47:23.237959,-0.260,-7.200,0.010,-80.7,0.200,-0.300,180.360,1000.0
2025-09-04T14:47:23.239959,-0.260,-7.200,0.010,-80.7,0.200,-0.300,180.360,1000.0
2025-09-04T14:47:23.240959,-0.260,-7.200,0.010,-80.7,0.200,-0.300,180.360,1000.0
2025-09-04T14:47:23.242960,-0.260,-7.200,0.010,-80.7,0.200,-0.300,180.360,1000.0
2025-09-04T14:47:23.345837,-0.260,-7.200,0.010,-80.7,0.200,-0.300,180.360,1000.0
2025-09-04T14:47:23.348825,-0.260,-7.210,0.010,-80.7,0.200,-0.300,180.360,1000.0
2025-09-04T14:47:23.350400,-0.270,-7.210,0.010,-80.7,0.200,-0.300,180.360,1000.0
2025-09-04T14:47:23.351823,-0.270,-7.210,0.010,-80.7,0.200,-0.300,180.360,1000.0
2025-09-04T14:47:23.352824,-0.270,-7.220,0.010,-80.7,0.200,-0.300,180.360,1000.0
2025-09-04T14:47:23.470447,-0.270,-7.220,0.010,-80.7,0.200,-0.300,180.360,1000.0
2025-09-04T14:47:23.471442,-0.270,-7.220,0.010,-80.7,0.200,-0.300,180.360,1000.0
2025-09-04T14:47:23.473443,-0.270,-7.220,0.010,-80.7,0.200,-0.300,180.360,1000.0
2025-09-04T14:47:23.474442,-0.270,-7.220,0.010,-80.7,0.200,-0.300,180.360,1000.0
2025-09-04T14:47:23.476443,-0.270,-7.220,0.010,-80.7,0.200,-0.300,180.360,1000.0
2025-09-04T14:47:23.594662,-0.270,-7.220,0.010,-80.7,0.200,-0.300,180.360,1000.0
2025-09-04T14:47:23.598644,-0.270,-7.220,0.010,-80.7,0.200,-0.300,180.360,1000.0
2025-09-04T14:47:23.600641,-0.270,-7.220,0.010,-80.7,0.200,-0.300,180.360,1000.0
2025-09-04T14:47:23.602398,-0.270,-7.220,0.010,-80.7,0.200,-0.300,180.360,1000.0
2025-09-04T14:47:23.603640,-0.270,-7.220,0.010,-80.7,0.200,-0.300,180.360,1000.0
2025-09-04T14:47:23.720188,-0.270,-7.210,0.010,-80.7,0.200,-0.300,180.360,1000.0
2025-09-04T14:47:23.721185,-0.270,-7.210,0.010,-80.7,0.200,-0.300,180.360,1000.0
2025-09-04T14:47:23.722185,-0.270,-7.210,0.010,-80.7,0.200,-0.300,180.360,1000.0
2025-09-04T14:47:23.724188,-0.270,-7.210,0.010,-80.7,0.200,-0.300,180.360,1000.0
2025-09-04T14:47:23.725186,-0.270,-7.200,0.010,-80.7,0.200,-0.300,180.360,1000.0
2025-09-04T14:47:23.842991,-0.270,-7.210,0.010,-80.7,0.200,-0.300,180.360,1000.0
2025-09-04T14:47:23.844994,-0.270,-7.210,0.010,-80.7,0.200,-0.300,180.360,1000.0
2025-09-04T14:47:23.845995,-0.270,-7.210,0.010,-80.7,0.200,-0.300,180.360,1000.0
2025-09-04T14:47:23.848997,-0.270,-7.210,0.010,-80.7,0.200,-0.300,180.360,1000.0
2025-09-04T14:47:23.849993,-0.270,-7.220,0.010,-80.7,0.200,-0.300,180.360,1000.0
2025-09-04T14:47:23.966880,-0.270,-7.220,0.010,-80.7,0.200,-0.300,180.360,1000.0
2025-09-04T14:47:23.968880,-0.270,-7.220,0.010,-80.7,0.200,-0.300,180.360,1000.0
2025-09-04T14:47:23.969880,-0.270,-7.220,0.010,-80.7,0.200,-0.300,180.360,1000.0
2025-09-04T14:47:23.970879,-0.270,-7.220,0.010,-80.7,0.200,-0.300,180.360,1000.0
2025-09-04T14:47:23.972880,-0.270,-7.220,0.010,-80.7,0.200,-0.300,180.360,1000.0
2025-09-04T14:47:24.090429,-0.270,-7.220,0.010,-80.7,0.200,-0.300,180.360,1000.0
2025-09-04T14:47:24.092429,-0.270,-7.220,0.010,-80.7,0.200,-0.300,180.360,1000.0
2025-09-04T14:47:24.093428,-0.270,-7.220,0.010,-80.7,0.200,-0.300,180.360,1000.0
2025-09-04T14:47:24.095430,-0.270,-7.220,0.010,-80.7,0.200,-0.300,180.360,1000.0
2025-09-04T14:47:24.099442,-0.270,-7.220,0.010,-80.7,0.200,-0.300,180.360,1000.0
2025-09-04T14:47:24.214081,-0.270,-7.220,0.010,-80.7,0.200,-0.300,180.360,1000.0
2025-09-04T14:47:24.216081,-0.260,-7.220,0.010,-80.7,0.200,-0.300,180.360,1000.0
2025-09-04T14:47:24.218601,-0.260,-7.220,0.010,-80.7,0.200,-0.300,180.360,1000.0
2025-09-04T14:47:24.220113,-0.260,-7.220,0.010,-80.7,0.200,-0.300,180.360,1000.0
2025-09-04T14:47:24.221111,-0.250,-7.220,0.010,-80.7,0.200,-0.300,180.360,1000.0
2025-09-04T14:47:24.338324,-0.250,-7.220,0.010,-80.7,0.200,-0.300,180.360,1000.0
2025-09-04T14:47:24.339317,-0.250,-7.220,0.010,-80.7,0.200,-0.300,180.360,1000.0
2025-09-04T14:47:24.341316,-0.250,-7.220,0.010,-80.7,0.200,-0.300,180.360,1000.0
2025-09-04T14:47:24.343320,-0.250,-7.220,0.010,-80.7,0.200,-0.300,180.360,1000.0
2025-09-04T14:47:24.344318,-0.250,-7.220,0.010,-80.7,0.200,-0.300,180.360,1000.0
2025-09-04T14:47:24.462564,-0.250,-7.220,0.010,-80.7,0.200,-0.300,180.360,1000.0
2025-09-04T14:47:24.466568,-0.250,-7.220,0.010,-80.7,0.200,-0.300,180.360,1000.0
2025-09-04T14:47:24.467564,-0.250,-7.210,0.010,-80.7,0.200,-0.300,180.360,1000.0
2025-09-04T14:47:24.469632,-0.250,-7.210,0.010,-80.7,0.200,-0.300,180.360,1000.0
2025-09-04T14:47:24.470563,-0.250,-7.210,0.010,-80.7,0.200,-0.300,180.360,1000.0
2025-09-04T14:47:24.587545,-0.250,-7.210,0.010,-80.7,0.200,-0.300,180.360,1000.0
2025-09-04T14:47:24.588545,-0.250,-7.210,0.010,-80.7,0.200,-0.300,180.360,1000.0
2025-09-04T14:47:24.590546,-0.250,-7.210,0.010,-80.7,0.200,-0.300,180.360,1000.0
2025-09-04T14:47:24.591545,-0.250,-7.200,0.010,-80.7,0.200,-0.300,180.360,1000.0
2025-09-04T14:47:24.592544,-0.250,-7.200,0.010,-80.7,0.200,-0.300,180.360,1000.0
2025-09-04T14:47:24.701575,-0.250,-7.200,0.010,-80.8,0.200,-0.300,180.360,1000.0
2025-09-04T14:47:24.703833,-0.250,-7.200,0.010,-80.8,0.200,-0.300,180.360,1000.0
2025-09-04T14:47:24.705576,-0.260,-7.200,0.010,-80.8,0.200,-0.300,180.360,1000.0
2025-09-04T14:47:24.707575,-0.260,-7.210,0.010,-80.8,0.200,-0.300,180.360,1000.0
2025-09-04T14:47:24.709577,-0.260,-7.210,0.010,-80.8,0.200,-0.300,180.360,1000.0
2025-09-04T14:47:24.822619,-0.260,-7.210,0.010,-80.8,0.200,-0.300,180.360,1000.0
2025-09-04T14:47:24.823619,-0.260,-7.210,0.010,-80.7,0.200,-0.300,180.360,1000.0
2025-09-04T14:47:24.825621,-0.260,-7.210,0.010,-80.7,0.200,-0.300,180.360,1000.0
2025-09-04T14:47:24.826619,-0.260,-7.210,0.010,-80.7,0.200,-0.300,180.360,1000.0
2025-09-04T14:47:24.828618,-0.260,-7.210,0.010,-80.7,0.200,-0.300,180.360,1000.0
2025-09-04T14:47:24.934621,-0.250,-7.220,0.010,-80.7,0.200,-0.300,180.360,1000.0
2025-09-04T14:47:24.936619,-0.250,-7.220,0.010,-80.7,0.200,-0.300,180.360,1000.0
2025-09-04T14:47:24.937619,-0.250,-7.220,0.010,-80.7,0.200,-0.300,180.360,1000.0
2025-09-04T14:47:24.939618,-0.250,-7.220,0.010,-80.7,0.200,-0.300,180.360,1000.0
2025-09-04T14:47:24.940618,-0.250,-7.220,0.010,-80.7,0.200,-0.300,180.360,1000.0
2025-09-04T14:47:25.058808,-0.250,-7.220,0.010,-80.7,0.200,-0.300,180.360,1000.0
2025-09-04T14:47:25.060808,-0.250,-7.220,0.010,-80.7,0.200,-0.300,180.360,1000.0
2025-09-04T14:47:25.062809,-0.240,-7.220,0.010,-80.7,0.200,-0.300,180.360,1000.0
2025-09-04T14:47:25.064822,-0.240,-7.220,0.010,-80.7,0.200,-0.300,180.360,1000.0
2025-09-04T14:47:25.067813,-0.240,-7.220,0.010,-80.7,0.200,-0.300,180.360,1000.0
2025-09-04T14:47:25.182853,-0.240,-7.220,0.010,-80.8,0.200,-0.300,180.360,1000.0
2025-09-04T14:47:25.185852,-0.240,-7.220,0.010,-80.8,0.200,-0.300,180.360,1000.0
2025-09-04T14:47:25.187852,-0.230,-7.220,0.010,-80.8,0.200,-0.300,180.360,1000.0
2025-09-04T14:47:25.188853,-0.230,-7.220,0.010,-80.8,0.200,-0.300,180.360,1000.0
2025-09-04T14:47:25.190853,-0.230,-7.220,0.010,-80.8,0.200,-0.300,180.360,1000.0
2025-09-04T14:47:25.307374,-0.230,-7.220,0.010,-80.8,0.200,-0.300,180.360,1000.0
2025-09-04T14:47:25.309370,-0.230,-7.220,0.010,-80.8,0.200,-0.300,180.360,1000.0
2025-09-04T14:47:25.310377,-0.230,-7.220,0.010,-80.8,0.200,-0.300,180.360,1000.0
2025-09-04T14:47:25.311369,-0.230,-7.220,0.010,-80.8,0.200,-0.300,180.360,1000.0
2025-09-04T14:47:25.312372,-0.230,-7.210,0.010,-80.8,0.200,-0.300,180.360,1000.0
2025-09-04T14:47:25.416770,-0.230,-7.210,0.010,-80.8,0.200,-0.300,180.360,1000.0
2025-09-04T14:47:25.418762,-0.230,-7.210,0.010,-80.8,0.200,-0.300,180.360,1000.0
2025-09-04T14:47:25.419762,-0.230,-7.210,0.010,-80.8,0.200,-0.300,180.360,1000.0
2025-09-04T14:47:25.421761,-0.230,-7.200,0.010,-80.8,0.200,-0.300,180.360,1000.0
2025-09-04T14:47:25.422760,-0.240,-7.200,0.010,-80.8,0.200,-0.300,180.360,1000.0
2025-09-04T14:47:25.527799,-0.240,-7.200,0.010,-80.8,0.200,-0.300,180.360,1000.0
2025-09-04T14:47:25.528800,-0.240,-7.200,0.010,-80.8,0.200,-0.300,180.360,1000.0
2025-09-04T14:47:25.530800,-0.250,-7.200,0.010,-80.8,0.200,-0.300,180.360,1000.0
2025-09-04T14:47:25.534806,-0.250,-7.200,0.010,-80.8,0.200,-0.300,180.360,1000.0
2025-09-04T14:47:25.535801,-0.250,-7.200,0.010,-80.8,0.200,-0.300,180.360,1000.0
2025-09-04T14:47:25.650971,-0.240,-7.200,0.010,-80.8,0.200,-0.300,180.360,1000.0
2025-09-04T14:47:25.651969,-0.250,-7.200,0.010,-80.8,0.200,-0.300,180.360,1000.0
2025-09-04T14:47:25.653971,-0.250,-7.200,0.010,-80.8,0.200,-0.300,180.360,1000.0
2025-09-04T14:47:25.654971,-0.250,-7.210,0.010,-80.8,0.200,-0.300,180.360,1000.0
2025-09-04T14:47:25.655970,-0.250,-7.210,0.010,-80.8,0.200,-0.300,180.360,1000.0
2025-09-04T14:47:25.759742,-0.250,-7.210,0.010,-80.8,0.200,-0.300,180.360,1000.0
2025-09-04T14:47:25.761744,-0.250,-7.210,0.010,-80.8,0.200,-0.300,180.360,1000.0
2025-09-04T14:47:25.762744,-0.250,-7.220,0.010,-80.8,0.200,-0.300,180.360,1000.0
2025-09-04T14:47:25.763744,-0.250,-7.220,0.010,-80.8,0.200,-0.300,180.360,1000.0
2025-09-04T14:47:25.765744,-0.250,-7.220,0.010,-80.8,0.200,-0.300,180.360,1000.0
2025-09-04T14:47:25.882784,-0.250,-7.220,0.010,-80.8,0.200,-0.300,180.360,1000.0
2025-09-04T14:47:25.884783,-0.260,-7.220,0.010,-80.8,0.200,-0.300,180.360,1000.0
2025-09-04T14:47:25.885783,-0.260,-7.220,0.010,-80.8,0.200,-0.300,180.360,1000.0
2025-09-04T14:47:25.886784,-0.260,-7.220,0.010,-80.8,0.200,-0.300,180.360,1000.0
2025-09-04T14:47:25.888782,-0.260,-7.220,0.010,-80.8,0.200,-0.300,180.360,1000.0
2025-09-04T14:47:26.006957,-0.260,-7.220,0.010,-80.8,0.200,-0.300,180.360,1000.0
2025-09-04T14:47:26.008955,-0.260,-7.220,0.010,-80.8,0.200,-0.300,180.360,1000.0
2025-09-04T14:47:26.010960,-0.260,-7.220,0.010,-80.8,0.200,-0.300,180.360,1000.0
2025-09-04T14:47:26.012958,-0.260,-7.230,0.010,-80.8,0.200,-0.300,180.360,1000.0
2025-09-04T14:47:26.014959,-0.260,-7.230,0.010,-80.8,0.200,-0.300,180.360,1000.0
2025-09-04T14:47:26.134569,-0.260,-7.230,0.010,-80.8,0.200,-0.300,180.360,1000.0
2025-09-04T14:47:26.135567,-0.260,-7.230,0.010,-80.8,0.200,-0.300,180.360,1000.0
2025-09-04T14:47:26.136568,-0.260,-7.230,0.010,-80.8,0.200,-0.300,180.360,1000.0
2025-09-04T14:47:26.138570,-0.260,-7.230,0.010,-80.8,0.200,-0.300,180.360,1000.0
2025-09-04T14:47:26.139570,-0.260,-7.230,0.010,-80.8,0.200,-0.300,180.360,1000.0
2025-09-04T14:47:26.256684,-0.270,-7.230,0.010,-80.8,0.200,-0.300,180.360,1000.0
2025-09-04T14:47:26.258687,-0.270,-7.230,0.010,-80.8,0.200,-0.300,180.360,1000.0
2025-09-04T14:47:26.260689,-0.270,-7.230,0.010,-80.8,0.200,-0.300,180.360,1000.0
2025-09-04T14:47:26.262683,-0.270,-7.230,0.010,-80.8,0.200,-0.300,180.360,1000.0
2025-09-04T14:47:26.264685,-0.270,-7.230,0.010,-80.8,0.200,-0.300,180.360,1000.0
2025-09-04T14:47:26.382784,-0.270,-7.230,0.010,-80.8,0.200,-0.300,180.360,1000.0
2025-09-04T14:47:26.385781,-0.270,-7.230,0.010,-80.8,0.200,-0.300,180.360,1000.0
2025-09-04T14:47:26.387780,-0.270,-7.230,0.010,-80.9,0.200,-0.300,180.360,1000.0
2025-09-04T14:47:26.388780,-0.270,-7.230,0.010,-80.9,0.200,-0.300,180.360,1000.0
2025-09-04T14:47:26.390791,-0.270,-7.230,0.010,-80.9,0.200,-0.300,180.360,1000.0
2025-09-04T14:47:26.506514,-0.270,-7.230,0.010,-80.9,0.200,-0.300,180.360,1000.0
2025-09-04T14:47:26.508513,-0.270,-7.230,0.010,-80.9,0.200,-0.300,180.360,1000.0
2025-09-04T14:47:26.510189,-0.270,-7.230,0.010,-80.9,0.200,-0.300,180.360,1000.0
2025-09-04T14:47:26.511187,-0.270,-7.230,0.010,-80.9,0.200,-0.300,180.360,1000.0
2025-09-04T14:47:26.512188,-0.270,-7.230,0.010,-80.9,0.200,-0.300,180.360,1000.0
2025-09-04T14:47:26.631967,-0.270,-7.230,0.010,-80.9,0.200,-0.300,180.360,1000.0
2025-09-04T14:47:26.634966,-0.270,-7.230,0.010,-80.9,0.200,-0.300,180.360,1000.0
2025-09-04T14:47:26.635977,-0.270,-7.230,0.010,-80.9,0.200,-0.300,180.360,1000.0
2025-09-04T14:47:26.637967,-0.270,-7.230,0.010,-80.9,0.200,-0.300,180.360,1000.0
2025-09-04T14:47:26.638965,-0.270,-7.230,0.010,-80.9,0.200,-0.300,180.360,1000.0
2025-09-04T14:47:26.752975,-0.270,-7.230,0.010,-80.9,0.200,-0.300,180.360,1000.0
2025-09-04T14:47:26.754966,-0.270,-7.230,0.010,-80.9,0.200,-0.300,180.360,1000.0
2025-09-04T14:47:26.755967,-0.270,-7.230,0.010,-80.9,0.200,-0.300,180.360,1000.0
2025-09-04T14:47:26.756968,-0.270,-7.230,0.010,-80.9,0.200,-0.300,180.360,1000.0
2025-09-04T14:47:26.758965,-0.270,-7.230,0.010,-80.9,0.200,-0.300,180.360,1000.0
2025-09-04T14:47:26.875811,-0.260,-7.230,0.000,-80.9,0.200,-0.300,180.360,1000.0
2025-09-04T14:47:26.876807,-0.260,-7.230,0.000,-80.9,0.200,-0.300,180.360,1000.0
2025-09-04T14:47:26.878809,-0.260,-7.230,0.000,-80.9,0.200,-0.300,180.360,1000.0
2025-09-04T14:47:26.879810,-0.250,-7.230,0.000,-80.8,0.200,-0.300,180.360,1000.0
2025-09-04T14:47:26.881810,-0.250,-7.230,0.000,-80.8,0.200,-0.300,180.360,1000.0
2025-09-04T14:47:27.000172,-0.250,-7.230,0.000,-80.8,0.200,-0.300,180.360,1000.0
2025-09-04T14:47:27.002173,-0.250,-7.230,0.000,-80.8,0.200,-0.300,180.360,1000.0
2025-09-04T14:47:27.003173,-0.250,-7.230,0.000,-80.8,0.200,-0.300,180.360,1000.0
2025-09-04T14:47:27.005173,-0.250,-7.230,0.000,-80.9,0.200,-0.300,180.360,1000.0
2025-09-04T14:47:27.006174,-0.250,-7.230,0.000,-80.9,0.200,-0.300,180.360,1000.0
2025-09-04T14:47:27.123068,-0.250,-7.230,0.000,-80.9,0.200,-0.300,180.360,1000.0
2025-09-04T14:47:27.125067,-0.250,-7.230,0.000,-80.9,0.200,-0.300,180.360,1000.0
2025-09-04T14:47:27.126067,-0.250,-7.230,0.010,-80.9,0.200,-0.300,180.360,1000.0
2025-09-04T14:47:27.128067,-0.250,-7.230,0.010,-80.9,0.200,-0.300,180.360,1000.0
2025-09-04T14:47:27.129067,-0.250,-7.230,0.010,-80.9,0.200,-0.300,180.360,1000.0
2025-09-04T14:47:27.246755,-0.260,-7.230,0.010,-80.9,0.200,-0.300,180.360,1000.0
2025-09-04T14:47:27.247753,-0.260,-7.230,0.010,-80.9,0.200,-0.300,180.360,1000.0
2025-09-04T14:47:27.250754,-0.260,-7.230,0.010,-80.9,0.200,-0.300,180.360,1000.0
2025-09-04T14:47:27.252754,-0.260,-7.230,0.010,-80.9,0.200,-0.300,180.360,1000.0
2025-09-04T14:47:27.254755,-0.260,-7.230,0.010,-80.9,0.200,-0.300,180.360,1000.0
2025-09-04T14:47:27.359229,-0.260,-7.230,0.010,-80.9,0.200,-0.300,180.360,1000.0
2025-09-04T14:47:27.361228,-0.260,-7.230,0.010,-80.9,0.200,-0.300,180.360,1000.0
2025-09-04T14:47:27.362229,-0.260,-7.230,0.010,-80.9,0.200,-0.300,180.360,1000.0
2025-09-04T14:47:27.364230,-0.260,-7.240,0.010,-80.9,0.200,-0.300,180.360,1000.0
2025-09-04T14:47:27.366239,-0.260,-7.240,0.000,-80.9,0.200,-0.300,180.360,1000.0
2025-09-04T14:47:27.483933,-0.260,-7.240,0.000,-80.9,0.200,-0.300,180.360,1000.0
2025-09-04T14:47:27.484935,-0.260,-7.240,0.000,-80.9,0.200,-0.300,180.360,1000.0
2025-09-04T14:47:27.485935,-0.260,-7.240,0.000,-80.9,0.200,-0.300,180.360,1000.0
2025-09-04T14:47:27.487934,-0.260,-7.240,0.000,-80.9,0.200,-0.300,180.360,1000.0
2025-09-04T14:47:27.488932,-0.270,-7.240,0.010,-80.9,0.200,-0.300,180.360,1000.0
2025-09-04T14:47:27.608103,-0.270,-7.240,0.010,-80.9,0.200,-0.300,180.360,1000.0
2025-09-04T14:47:27.609103,-0.270,-7.240,0.010,-80.9,0.200,-0.300,180.360,1000.0
2025-09-04T14:47:27.611102,-0.270,-7.240,0.010,-80.9,0.200,-0.300,180.360,1000.0
2025-09-04T14:47:27.612102,-0.270,-7.240,0.010,-80.9,0.200,-0.300,180.360,1000.0
2025-09-04T14:47:27.613102,-0.270,-7.240,0.010,-80.9,0.200,-0.300,180.360,1000.0
2025-09-04T14:47:27.729056,-0.270,-7.230,0.010,-80.9,0.200,-0.300,180.360,1000.0
2025-09-04T14:47:27.731054,-0.270,-7.230,0.010,-80.9,0.200,-0.300,180.360,1000.0
2025-09-04T14:47:27.733057,-0.270,-7.230,0.010,-80.9,0.200,-0.300,180.360,1000.0
2025-09-04T14:47:27.735056,-0.270,-7.230,0.010,-80.9,0.200,-0.300,180.360,1000.0
2025-09-04T14:47:27.736054,-0.270,-7.230,0.010,-80.9,0.200,-0.300,180.360,1000.0
2025-09-04T14:47:27.853332,-0.270,-7.230,0.010,-80.9,0.200,-0.300,180.360,1000.0
2025-09-04T14:47:27.855331,-0.270,-7.230,0.010,-80.9,0.200,-0.300,180.360,1000.0
2025-09-04T14:47:27.856330,-0.270,-7.230,0.010,-80.9,0.200,-0.300,180.360,1000.0
2025-09-04T14:47:27.857329,-0.270,-7.230,0.010,-80.9,0.200,-0.300,180.360,1000.0
2025-09-04T14:47:27.859331,-0.270,-7.230,0.010,-80.9,0.200,-0.300,180.360,1000.0
2025-09-04T14:47:27.975232,-0.270,-7.230,0.010,-80.9,0.200,-0.300,180.360,1000.0
2025-09-04T14:47:27.976231,-0.270,-7.230,0.000,-80.9,0.200,-0.300,180.360,1000.0
2025-09-04T14:47:27.978234,-0.270,-7.230,0.000,-80.9,0.200,-0.300,180.360,1000.0
2025-09-04T14:47:27.979234,-0.270,-7.230,0.000,-80.9,0.200,-0.300,180.360,1000.0
2025-09-04T14:47:27.981234,-0.270,-7.230,0.000,-80.9,0.200,-0.300,180.360,1000.0
2025-09-04T14:47:28.097081,-0.270,-7.230,0.000,-80.9,0.200,-0.300,180.360,1000.0
2025-09-04T14:47:28.099080,-0.270,-7.230,0.000,-80.9,0.200,-0.300,180.360,1000.0
2025-09-04T14:47:28.102087,-0.270,-7.230,0.000,-80.9,0.200,-0.300,180.360,1000.0
2025-09-04T14:47:28.104701,-0.270,-7.230,0.000,-80.9,0.200,-0.300,180.360,1000.0
2025-09-04T14:47:28.106082,-0.270,-7.230,0.000,-80.9,0.200,-0.300,180.360,1000.0
2025-09-04T14:47:28.222082,-0.270,-7.230,0.000,-80.9,0.200,-0.300,180.360,1000.0
2025-09-04T14:47:28.224081,-0.270,-7.230,0.000,-80.9,0.200,-0.300,180.360,1000.0
2025-09-04T14:47:28.225082,-0.270,-7.230,0.000,-80.9,0.200,-0.300,180.360,1000.0
2025-09-04T14:47:28.227081,-0.270,-7.230,0.000,-80.9,0.200,-0.300,180.360,1000.0
2025-09-04T14:47:28.228082,-0.270,-7.230,0.000,-80.9,0.200,-0.300,180.360,1000.0
2025-09-04T14:47:28.347081,-0.260,-7.230,0.000,-80.9,0.200,-0.300,180.360,1000.0
2025-09-04T14:47:28.349081,-0.260,-7.230,0.000,-80.9,0.200,-0.300,180.360,1000.0
2025-09-04T14:47:28.351081,-0.260,-7.230,0.000,-80.9,0.200,-0.300,180.360,1000.0
2025-09-04T14:47:28.354082,-0.250,-7.230,0.000,-80.9,0.200,-0.300,180.360,1000.0
2025-09-04T14:47:28.356086,-0.250,-7.230,0.000,-81.0,0.200,-0.300,180.360,1000.0
2025-09-04T14:47:28.471837,-0.250,-7.230,0.000,-81.0,0.200,-0.300,180.360,1000.0
2025-09-04T14:47:28.475836,-0.250,-7.230,0.000,-81.0,0.200,-0.300,180.360,1000.0
2025-09-04T14:47:28.478839,-0.250,-7.230,0.000,-81.0,0.200,-0.300,180.360,1000.0
2025-09-04T14:47:28.479840,-0.250,-7.230,0.000,-81.0,0.200,-0.300,180.360,1000.0
2025-09-04T14:47:28.481836,-0.250,-7.230,0.000,-81.0,0.200,-0.300,180.360,1000.0
2025-09-04T14:47:28.592931,-0.250,-7.230,0.000,-81.0,0.200,-0.300,180.360,1000.0
2025-09-04T14:47:28.594915,-0.250,-7.230,0.000,-81.0,0.200,-0.300,180.360,1000.0
2025-09-04T14:47:28.595915,-0.250,-7.230,0.000,-81.0,0.200,-0.300,180.360,1000.0
2025-09-04T14:47:28.596915,-0.250,-7.230,0.000,-80.9,0.200,-0.300,180.360,1000.0
2025-09-04T14:47:28.598920,-0.250,-7.230,0.000,-80.9,0.200,-0.300,180.360,1000.0
2025-09-04T14:47:28.714915,-0.250,-7.230,0.000,-80.9,0.200,-0.300,180.360,1000.0
2025-09-04T14:47:28.716920,-0.250,-7.230,0.000,-80.9,0.200,-0.300,180.360,1000.0
2025-09-04T14:47:28.718921,-0.250,-7.230,0.000,-80.9,0.200,-0.300,180.360,1000.0
2025-09-04T14:47:28.720920,-0.250,-7.230,0.000,-80.9,0.200,-0.300,180.360,1000.0
2025-09-04T14:47:28.721919,-0.260,-7.230,0.010,-80.9,0.200,-0.300,180.360,1000.0
2025-09-04T14:47:28.836947,-0.260,-7.230,0.010,-80.9,0.200,-0.300,180.360,1000.0
2025-09-04T14:47:28.837963,-0.260,-7.230,0.010,-80.9,0.200,-0.300,180.360,1000.0
2025-09-04T14:47:28.839914,-0.260,-7.230,0.010,-80.9,0.200,-0.300,180.360,1000.0
2025-09-04T14:47:28.840916,-0.260,-7.230,0.010,-80.9,0.200,-0.300,180.360,1000.0
2025-09-04T14:47:28.842915,-0.260,-7.230,0.010,-80.9,0.200,-0.300,180.360,1000.0
2025-09-04T14:47:28.961118,-0.260,-7.230,0.010,-80.9,0.200,-0.300,180.360,1000.0
2025-09-04T14:47:28.962117,-0.260,-7.230,0.010,-80.9,0.200,-0.300,180.360,1000.0
2025-09-04T14:47:28.964129,-0.260,-7.230,0.010,-80.9,0.200,-0.300,180.360,1000.0
2025-09-04T14:47:28.965131,-0.260,-7.230,0.000,-80.9,0.200,-0.300,180.360,1000.0
2025-09-04T14:47:28.968123,-0.260,-7.230,0.000,-80.9,0.200,-0.300,180.360,1000.0
2025-09-04T14:47:29.086405,-0.260,-7.230,0.000,-80.9,0.200,-0.300,180.360,1000.0
2025-09-04T14:47:29.088405,-0.260,-7.220,0.000,-80.9,0.200,-0.300,180.360,1000.0
2025-09-04T14:47:29.089407,-0.260,-7.220,0.000,-80.9,0.200,-0.300,180.360,1000.0
2025-09-04T14:47:29.091407,-0.270,-7.220,0.010,-80.9,0.200,-0.300,180.360,1000.0
2025-09-04T14:47:29.092407,-0.270,-7.220,0.010,-80.9,0.200,-0.300,180.360,1000.0
2025-09-04T14:47:29.210637,-0.270,-7.220,0.010,-80.9,0.200,-0.300,180.360,1000.0
2025-09-04T14:47:29.211638,-0.270,-7.220,0.010,-80.9,0.200,-0.300,180.360,1000.0
2025-09-04T14:47:29.212640,-0.270,-7.210,0.010,-80.9,0.200,-0.300,180.360,1000.0
2025-09-04T14:47:29.214638,-0.270,-7.210,0.010,-80.9,0.200,-0.300,180.360,1000.0
2025-09-04T14:47:29.215637,-0.270,-7.210,0.010,-80.9,0.200,-0.300,180.360,1000.0
2025-09-04T14:47:29.337049,-0.270,-7.210,0.010,-80.9,0.200,-0.300,180.360,1000.0
2025-09-04T14:47:29.338048,-0.270,-7.210,0.010,-80.9,0.200,-0.300,180.360,1000.0
2025-09-04T14:47:29.340048,-0.270,-7.210,0.010,-80.9,0.200,-0.300,180.360,1000.0
2025-09-04T14:47:29.342047,-0.270,-7.220,0.010,-80.9,0.200,-0.300,180.360,1000.0
2025-09-04T14:47:29.343050,-0.270,-7.210,0.010,-80.9,0.200,-0.300,180.360,1000.0
2025-09-04T14:47:29.457404,-0.270,-7.210,0.010,-81.0,0.200,-0.300,180.360,1000.0
2025-09-04T14:47:29.458396,-0.270,-7.210,0.010,-81.0,0.200,-0.300,180.360,1000.0
2025-09-04T14:47:29.460398,-0.270,-7.210,0.010,-81.0,0.200,-0.300,180.360,1000.0
2025-09-04T14:47:29.461396,-0.270,-7.200,0.010,-81.0,0.200,-0.300,180.360,1000.0
2025-09-04T14:47:29.462396,-0.270,-7.200,0.010,-81.0,0.200,-0.300,180.360,1000.0
2025-09-04T14:47:29.580447,-0.270,-7.210,0.010,-81.0,0.200,-0.300,180.360,1000.0
2025-09-04T14:47:29.582446,-0.270,-7.210,0.010,-81.0,0.200,-0.300,180.360,1000.0
2025-09-04T14:47:29.584449,-0.270,-7.210,0.010,-80.9,0.200,-0.300,180.360,1000.0
2025-09-04T14:47:29.586448,-0.270,-7.210,0.010,-80.9,0.200,-0.300,180.360,1000.0
2025-09-04T14:47:29.588447,-0.270,-7.220,0.010,-80.9,0.200,-0.300,180.360,1000.0
2025-09-04T14:47:29.705298,-0.270,-7.220,0.010,-81.0,0.200,-0.300,180.360,1000.0
2025-09-04T14:47:29.707299,-0.270,-7.220,0.010,-81.0,0.200,-0.300,180.360,1000.0
2025-09-04T14:47:29.708299,-0.270,-7.220,0.010,-81.0,0.200,-0.300,180.360,1000.0
2025-09-04T14:47:29.709298,-0.270,-7.220,0.010,-81.0,0.200,-0.300,180.360,1000.0
2025-09-04T14:47:29.711298,-0.270,-7.220,0.010,-81.0,0.200,-0.300,180.360,1000.0
2025-09-04T14:47:29.828263,-0.270,-7.220,0.010,-81.0,0.200,-0.300,180.360,1000.0
2025-09-04T14:47:29.829263,-0.270,-7.220,0.010,-81.0,0.200,-0.300,180.360,1000.0
2025-09-04T14:47:29.830261,-0.270,-7.220,0.010,-81.0,0.200,-0.300,180.360,1000.0
2025-09-04T14:47:29.832263,-0.270,-7.220,0.010,-81.0,0.200,-0.300,180.360,1000.0
2025-09-04T14:47:29.834263,-0.270,-7.220,0.010,-81.0,0.200,-0.300,180.360,1000.0
2025-09-04T14:47:29.952108,-0.260,-7.220,0.010,-81.0,0.200,-0.300,180.360,1000.0
2025-09-04T14:47:29.954101,-0.260,-7.220,0.010,-81.0,0.200,-0.300,180.360,1000.0
2025-09-04T14:47:29.955102,-0.260,-7.220,0.010,-81.0,0.200,-0.300,180.360,1000.0
2025-09-04T14:47:29.956102,-0.250,-7.220,0.010,-81.0,0.200,-0.300,180.360,1000.0
2025-09-04T14:47:29.958102,-0.250,-7.220,0.010,-81.0,0.200,-0.300,180.360,1000.0
2025-09-04T14:47:30.074782,-0.250,-7.220,0.010,-81.0,0.200,-0.300,180.360,1000.0
2025-09-04T14:47:30.077782,-0.250,-7.220,0.010,-81.0,0.200,-0.300,180.360,1000.0
2025-09-04T14:47:30.079783,-0.250,-7.230,0.010,-81.0,0.200,-0.300,180.360,1000.0
2025-09-04T14:47:30.081782,-0.250,-7.230,0.010,-81.0,0.200,-0.300,180.360,1000.0
2025-09-04T14:47:30.082782,-0.240,-7.230,0.010,-81.0,0.200,-0.300,180.360,1000.0
2025-09-04T14:47:30.200309,-0.240,-7.230,0.010,-81.0,0.200,-0.300,180.360,1000.0
2025-09-04T14:47:30.202313,-0.240,-7.230,0.010,-81.0,0.200,-0.300,180.360,1000.0
2025-09-04T14:47:30.205312,-0.240,-7.230,0.010,-81.0,0.200,-0.300,180.360,1000.0
2025-09-04T14:47:30.207312,-0.240,-7.230,0.010,-80.9,0.200,-0.300,180.360,1000.0
2025-09-04T14:47:30.208312,-0.230,-7.230,0.010,-81.0,0.200,-0.300,180.360,1000.0
2025-09-04T14:47:30.326454,-0.230,-7.230,0.010,-81.0,0.200,-0.300,180.360,1000.0
2025-09-04T14:47:30.329454,-0.230,-7.230,0.010,-81.0,0.200,-0.300,180.360,1000.0
2025-09-04T14:47:30.331455,-0.230,-7.230,0.010,-81.0,0.200,-0.300,180.360,1000.0
2025-09-04T14:47:30.334455,-0.230,-7.230,0.010,-81.0,0.200,-0.300,180.360,1000.0
2025-09-04T14:47:30.336457,-0.230,-7.230,0.010,-81.0,0.200,-0.300,180.360,1000.0
2025-09-04T14:47:30.452595,-0.230,-7.230,0.010,-81.0,0.200,-0.300,180.360,1000.0
2025-09-04T14:47:30.455590,-0.230,-7.230,0.010,-81.0,0.200,-0.300,180.360,1000.0
2025-09-04T14:47:30.457592,-0.230,-7.230,0.010,-81.0,0.200,-0.300,180.360,1000.0
2025-09-04T14:47:30.459591,-0.220,-7.230,0.010,-81.0,0.200,-0.300,180.360,1000.0
2025-09-04T14:47:30.462596,-0.220,-7.230,0.010,-81.0,0.200,-0.300,180.360,1000.0
2025-09-04T14:47:30.575449,-0.220,-7.230,0.010,-81.0,0.200,-0.300,180.360,1000.0
2025-09-04T14:47:30.578448,-0.220,-7.230,0.010,-81.0,0.200,-0.300,180.360,1000.0
2025-09-04T14:47:30.580448,-0.220,-7.230,0.010,-81.0,0.200,-0.300,180.360,1000.0
2025-09-04T14:47:30.581448,-0.220,-7.230,0.010,-81.0,0.200,-0.300,180.360,1000.0
2025-09-04T14:47:30.583448,-0.220,-7.230,0.010,-81.0,0.200,-0.300,180.360,1000.0
2025-09-04T14:47:30.697958,-0.220,-7.230,0.010,-81.0,0.200,-0.300,180.360,1000.0
2025-09-04T14:47:30.699958,-0.230,-7.230,0.010,-81.0,0.200,-0.300,180.360,1000.0
2025-09-04T14:47:30.702960,-0.230,-7.230,0.010,-81.0,0.200,-0.300,180.360,1000.0
2025-09-04T14:47:30.704960,-0.240,-7.230,0.010,-81.0,0.200,-0.300,180.360,1000.0
2025-09-04T14:47:30.705959,-0.240,-7.230,0.010,-81.0,0.200,-0.300,180.360,1000.0
2025-09-04T14:47:30.820476,-0.240,-7.230,0.010,-81.0,0.200,-0.300,180.360,1000.0
2025-09-04T14:47:30.821474,-0.250,-7.230,0.010,-81.0,0.200,-0.300,180.360,1000.0
2025-09-04T14:47:30.823477,-0.250,-7.230,0.010,-81.0,0.200,-0.300,180.360,1000.0
2025-09-04T14:47:30.824474,-0.250,-7.230,0.010,-81.0,0.200,-0.300,180.360,1000.0
2025-09-04T14:47:30.826476,-0.250,-7.230,0.010,-81.0,0.200,-0.300,180.360,1000.0
2025-09-04T14:47:30.942671,-0.250,-7.230,0.010,-81.0,0.200,-0.300,180.360,1000.0
2025-09-04T14:47:30.943671,-0.250,-7.230,0.010,-81.0,0.200,-0.300,180.360,1000.0
2025-09-04T14:47:30.945672,-0.250,-7.230,0.010,-81.0,0.200,-0.300,180.360,1000.0
2025-09-04T14:47:30.946671,-0.250,-7.230,0.010,-81.0,0.200,-0.300,180.360,1000.0
2025-09-04T14:47:30.947672,-0.250,-7.230,0.010,-81.0,0.200,-0.300,180.360,1000.0
2025-09-04T14:47:31.065427,-0.250,-7.230,0.010,-81.0,0.200,-0.300,180.360,1000.0
2025-09-04T14:47:31.067432,-0.250,-7.230,0.010,-81.0,0.200,-0.300,180.360,1000.0
2025-09-04T14:47:31.069433,-0.260,-7.230,0.010,-81.0,0.200,-0.300,180.360,1000.0
2025-09-04T14:47:31.071427,-0.260,-7.230,0.010,-81.0,0.200,-0.300,180.360,1000.0
2025-09-04T14:47:31.072427,-0.260,-7.230,0.010,-81.0,0.200,-0.300,180.360,1000.0
2025-09-04T14:47:31.190774,-0.260,-7.230,0.010,-81.0,0.200,-0.300,180.360,1000.0
2025-09-04T14:47:31.191782,-0.260,-7.230,0.010,-81.0,0.200,-0.300,180.360,1000.0
2025-09-04T14:47:31.192782,-0.260,-7.230,0.010,-81.0,0.200,-0.300,180.360,1000.0
2025-09-04T14:47:31.194781,-0.260,-7.230,0.010,-81.0,0.200,-0.300,180.360,1000.0
2025-09-04T14:47:31.195783,-0.260,-7.230,0.010,-81.0,0.200,-0.300,180.360,1000.0
2025-09-04T14:47:31.299474,-0.260,-7.230,0.010,-81.0,0.200,-0.300,180.360,1000.0
2025-09-04T14:47:31.301426,-0.260,-7.230,0.010,-81.0,0.200,-0.300,180.360,1000.0
2025-09-04T14:47:31.303425,-0.260,-7.230,0.010,-81.0,0.200,-0.300,180.360,1000.0
2025-09-04T14:47:31.305421,-0.260,-7.230,0.010,-81.0,0.200,-0.300,180.360,1000.0
2025-09-04T14:47:31.306423,-0.260,-7.230,0.010,-81.0,0.200,-0.300,180.360,1000.0
2025-09-04T14:47:31.422984,-0.270,-7.230,0.010,-81.0,0.200,-0.300,180.360,1000.0
2025-09-04T14:47:31.424985,-0.270,-7.230,0.010,-81.0,0.200,-0.300,180.360,1000.0
2025-09-04T14:47:31.425984,-0.270,-7.230,0.010,-81.0,0.200,-0.300,180.360,1000.0
2025-09-04T14:47:31.427983,-0.270,-7.230,0.010,-81.0,0.200,-0.300,180.360,1000.0
2025-09-04T14:47:31.428985,-0.270,-7.230,0.010,-81.0,0.200,-0.300,180.360,1000.0
2025-09-04T14:47:31.534664,-0.270,-7.230,0.010,-81.0,0.200,-0.300,180.360,1000.0
2025-09-04T14:47:31.536663,-0.270,-7.230,0.010,-81.0,0.200,-0.300,180.360,1000.0
2025-09-04T14:47:31.537662,-0.270,-7.230,0.010,-81.0,0.200,-0.300,180.360,1000.0
2025-09-04T14:47:31.539663,-0.270,-7.230,0.010,-81.0,0.200,-0.300,180.360,1000.0
2025-09-04T14:47:31.540665,-0.270,-7.230,0.010,-81.0,0.200,-0.300,180.360,1000.0
2025-09-04T14:47:31.659668,-0.270,-7.230,0.010,-81.0,0.200,-0.300,180.360,1000.0
2025-09-04T14:47:31.661670,-0.270,-7.230,0.010,-81.0,0.200,-0.300,180.360,1000.0
2025-09-04T14:47:31.662670,-0.270,-7.230,0.010,-81.0,0.200,-0.300,180.360,1000.0
2025-09-04T14:47:31.664668,-0.270,-7.230,0.010,-81.0,0.200,-0.300,180.360,1000.0
2025-09-04T14:47:31.665669,-0.270,-7.230,0.010,-81.0,0.200,-0.300,180.360,1000.0
2025-09-04T14:47:31.783669,-0.270,-7.230,0.010,-81.0,0.200,-0.300,180.360,1000.0
2025-09-04T14:47:31.785672,-0.270,-7.230,0.010,-81.0,0.200,-0.300,180.360,1000.0
2025-09-04T14:47:31.787670,-0.270,-7.230,0.010,-81.0,0.200,-0.300,180.360,1000.0
2025-09-04T14:47:31.789669,-0.270,-7.230,0.010,-81.0,0.200,-0.300,180.360,1000.0
2025-09-04T14:47:31.790672,-0.270,-7.230,0.010,-81.0,0.200,-0.300,180.360,1000.0
2025-09-04T14:47:31.895779,-0.270,-7.230,0.010,-81.0,0.200,-0.300,180.360,1000.0
2025-09-04T14:47:31.896778,-0.270,-7.230,0.010,-81.0,0.200,-0.300,180.360,1000.0
2025-09-04T14:47:31.898778,-0.270,-7.230,0.010,-81.0,0.200,-0.300,180.360,1000.0
2025-09-04T14:47:31.899786,-0.270,-7.230,0.010,-81.0,0.200,-0.300,180.360,1000.0
2025-09-04T14:47:31.903780,-0.270,-7.230,0.010,-81.0,0.200,-0.300,180.360,1000.0
2025-09-04T14:47:32.021638,-0.270,-7.230,0.010,-81.0,0.200,-0.300,180.360,1000.0
2025-09-04T14:47:32.022639,-0.270,-7.230,0.010,-81.0,0.200,-0.300,180.360,1000.0
2025-09-04T14:47:32.024638,-0.270,-7.230,0.010,-81.0,0.200,-0.300,180.360,1000.0
2025-09-04T14:47:32.025641,-0.270,-7.230,0.010,-81.0,0.200,-0.300,180.360,1000.0
2025-09-04T14:47:32.027640,-0.270,-7.230,0.010,-81.0,0.200,-0.300,180.360,1000.0
2025-09-04T14:47:32.143265,-0.270,-7.230,0.010,-81.0,0.200,-0.300,180.360,1000.0
2025-09-04T14:47:32.145265,-0.270,-7.230,0.010,-81.0,0.200,-0.300,180.360,1000.0
2025-09-04T14:47:32.146263,-0.270,-7.230,0.010,-81.0,0.200,-0.300,180.360,1000.0
2025-09-04T14:47:32.148266,-0.270,-7.230,0.010,-81.0,0.200,-0.300,180.360,1000.0
2025-09-04T14:47:32.149264,-0.270,-7.230,0.010,-81.0,0.200,-0.300,180.360,1000.0
2025-09-04T14:47:32.266265,-0.270,-7.230,0.010,-81.0,0.200,-0.300,180.360,1000.0
2025-09-04T14:47:32.270269,-0.270,-7.230,0.010,-81.1,0.200,-0.300,180.360,1000.0
2025-09-04T14:47:32.273270,-0.270,-7.230,0.010,-81.1,0.200,-0.300,180.360,1000.0
2025-09-04T14:47:32.275265,-0.270,-7.230,0.010,-81.1,0.200,-0.300,180.360,1000.0
2025-09-04T14:47:32.278269,-0.270,-7.230,0.010,-81.1,0.200,-0.300,180.360,1000.0
2025-09-04T14:47:32.389889,-0.270,-7.230,0.010,-81.1,0.200,-0.300,180.360,1000.0
2025-09-04T14:47:32.390887,-0.270,-7.230,0.010,-81.1,0.200,-0.300,180.360,1000.0
2025-09-04T14:47:32.391887,-0.270,-7.230,0.010,-81.1,0.200,-0.300,180.360,1000.0
2025-09-04T14:47:32.392887,-0.270,-7.220,0.010,-81.1,0.200,-0.300,180.360,1000.0
2025-09-04T14:47:32.394888,-0.270,-7.220,0.010,-81.1,0.200,-0.300,180.360,1000.0
2025-09-04T14:47:32.513890,-0.270,-7.220,0.010,-81.1,0.200,-0.300,180.360,1000.0
2025-09-04T14:47:32.515884,-0.270,-7.220,0.010,-81.1,0.200,-0.300,180.360,1000.0
2025-09-04T14:47:32.516883,-0.270,-7.220,0.010,-81.1,0.200,-0.300,180.360,1000.0
2025-09-04T14:47:32.518885,-0.270,-7.220,0.010,-81.1,0.200,-0.300,180.360,1000.0
2025-09-04T14:47:32.520445,-0.270,-7.210,0.010,-81.1,0.200,-0.300,180.360,1000.0
2025-09-04T14:47:32.635693,-0.270,-7.210,0.010,-81.1,0.200,-0.300,180.360,1000.0
2025-09-04T14:47:32.638697,-0.270,-7.210,0.010,-81.1,0.200,-0.300,180.360,1000.0
2025-09-04T14:47:32.640697,-0.270,-7.210,0.010,-81.1,0.200,-0.300,180.360,1000.0
2025-09-04T14:47:32.641693,-0.270,-7.210,0.010,-81.1,0.200,-0.300,180.360,1000.0
2025-09-04T14:47:32.643695,-0.270,-7.210,0.010,-81.1,0.200,-0.300,180.360,1000.0
2025-09-04T14:47:32.760731,-0.270,-7.210,0.010,-81.1,0.200,-0.300,180.360,1000.0
2025-09-04T14:47:32.762732,-0.270,-7.210,0.010,-81.1,0.200,-0.300,180.360,1000.0
2025-09-04T14:47:32.763732,-0.270,-7.210,0.010,-81.1,0.200,-0.300,180.360,1000.0
2025-09-04T14:47:32.765733,-0.270,-7.210,0.010,-81.1,0.200,-0.300,180.360,1000.0
2025-09-04T14:47:32.767733,-0.270,-7.210,0.010,-81.1,0.200,-0.300,180.360,1000.0
2025-09-04T14:47:32.882733,-0.270,-7.220,0.010,-81.1,0.200,-0.300,180.360,1000.0
2025-09-04T14:47:32.884732,-0.270,-7.220,0.010,-81.1,0.200,-0.300,180.360,1000.0
2025-09-04T14:47:32.887732,-0.270,-7.220,0.010,-81.1,0.200,-0.300,180.360,1000.0
2025-09-04T14:47:32.890734,-0.270,-7.220,0.010,-81.1,0.200,-0.300,180.360,1000.0
2025-09-04T14:47:32.891733,-0.270,-7.220,0.010,-81.1,0.200,-0.300,180.360,1000.0
2025-09-04T14:47:33.004732,-0.270,-7.220,0.010,-81.1,0.200,-0.300,180.360,1000.0
2025-09-04T14:47:33.006733,-0.270,-7.220,0.010,-81.1,0.200,-0.300,180.360,1000.0
2025-09-04T14:47:33.007733,-0.270,-7.220,0.010,-81.1,0.200,-0.300,180.360,1000.0
2025-09-04T14:47:33.009732,-0.270,-7.220,0.010,-81.1,0.200,-0.300,180.360,1000.0
2025-09-04T14:47:33.010732,-0.270,-7.220,0.010,-81.1,0.200,-0.300,180.360,1000.0
2025-09-04T14:47:33.126475,-0.270,-7.220,0.010,-81.1,0.200,-0.300,180.360,1000.0
2025-09-04T14:47:33.128473,-0.270,-7.220,0.010,-81.1,0.200,-0.300,180.360,1000.0
2025-09-04T14:47:33.130473,-0.270,-7.220,0.010,-81.1,0.200,-0.300,180.360,1000.0
2025-09-04T14:47:33.131473,-0.270,-7.220,0.010,-81.1,0.200,-0.300,180.360,1000.0
2025-09-04T14:47:33.133474,-0.270,-7.220,0.010,-81.1,0.200,-0.300,180.360,1000.0
2025-09-04T14:47:33.252210,-0.270,-7.210,0.010,-81.1,0.200,-0.300,180.360,1000.0
2025-09-04T14:47:33.254207,-0.270,-7.210,0.010,-81.1,0.200,-0.300,180.360,1000.0
2025-09-04T14:47:33.256205,-0.270,-7.210,0.010,-81.1,0.200,-0.300,180.360,1000.0
2025-09-04T14:47:33.257204,-0.270,-7.210,0.010,-81.1,0.200,-0.300,180.360,1000.0
2025-09-04T14:47:33.258206,-0.270,-7.200,0.010,-81.1,0.200,-0.300,180.360,1000.0
2025-09-04T14:47:33.372775,-0.270,-7.200,0.010,-81.1,0.200,-0.300,180.360,1000.0
2025-09-04T14:47:33.375767,-0.270,-7.200,0.010,-81.1,0.200,-0.300,180.360,1000.0
2025-09-04T14:47:33.377769,-0.270,-7.200,0.010,-81.1,0.200,-0.300,180.360,1000.0
2025-09-04T14:47:33.379767,-0.270,-7.200,0.010,-81.1,0.200,-0.300,180.360,1000.0
2025-09-04T14:47:33.381771,-0.270,-7.200,0.010,-81.1,0.200,-0.300,180.360,1000.0
2025-09-04T14:47:33.497965,-0.270,-7.200,0.010,-81.1,0.200,-0.300,180.360,1000.0
2025-09-04T14:47:33.499964,-0.270,-7.210,0.010,-81.1,0.200,-0.300,180.360,1000.0
2025-09-04T14:47:33.500964,-0.270,-7.210,0.010,-81.1,0.200,-0.300,180.360,1000.0
2025-09-04T14:47:33.503965,-0.270,-7.210,0.010,-81.1,0.200,-0.300,180.360,1000.0
2025-09-04T14:47:33.505970,-0.270,-7.210,0.010,-81.1,0.200,-0.300,180.360,1000.0
2025-09-04T14:47:33.623263,-0.270,-7.220,0.010,-81.1,0.200,-0.300,180.360,1000.0
2025-09-04T14:47:33.625252,-0.270,-7.220,0.010,-81.1,0.200,-0.300,180.360,1000.0
2025-09-04T14:47:33.626252,-0.270,-7.220,0.010,-81.1,0.200,-0.300,180.360,1000.0
2025-09-04T14:47:33.628253,-0.270,-7.220,0.010,-81.1,0.200,-0.300,180.360,1000.0
2025-09-04T14:47:33.629253,-0.270,-7.220,0.010,-81.0,0.200,-0.300,180.360,1000.0
2025-09-04T14:47:33.747801,-0.270,-7.220,0.010,-81.0,0.200,-0.300,180.360,1000.0
2025-09-04T14:47:33.749801,-0.270,-7.220,0.010,-81.0,0.200,-0.300,180.360,1000.0
2025-09-04T14:47:33.750810,-0.270,-7.220,0.010,-81.0,0.200,-0.300,180.360,1000.0
2025-09-04T14:47:33.752804,-0.270,-7.220,0.010,-81.0,0.200,-0.300,180.360,1000.0
2025-09-04T14:47:33.754804,-0.270,-7.220,0.010,-81.0,0.200,-0.300,180.360,1000.0
2025-09-04T14:47:33.872689,-0.270,-7.220,0.010,-81.0,0.200,-0.300,180.360,1000.0
2025-09-04T14:47:33.874692,-0.270,-7.220,0.010,-81.0,0.200,-0.300,180.360,1000.0
2025-09-04T14:47:33.877693,-0.270,-7.220,0.010,-81.0,0.200,-0.300,180.360,1000.0
2025-09-04T14:47:33.879694,-0.270,-7.220,0.010,-81.1,0.200,-0.300,180.360,1000.0
2025-09-04T14:47:33.880689,-0.270,-7.210,0.010,-81.1,0.200,-0.300,180.360,1000.0
2025-09-04T14:47:33.996758,-0.270,-7.210,0.010,-81.1,0.200,-0.300,180.360,1000.0
2025-09-04T14:47:33.997757,-0.270,-7.210,0.010,-81.1,0.200,-0.300,180.360,1000.0
2025-09-04T14:47:33.999755,-0.270,-7.210,0.010,-81.1,0.200,-0.300,180.360,1000.0
2025-09-04T14:47:34.000758,-0.270,-7.200,0.010,-81.1,0.200,-0.300,180.360,1000.0
2025-09-04T14:47:34.003762,-0.270,-7.200,0.010,-81.1,0.200,-0.300,180.360,1000.0
2025-09-04T14:47:34.121648,-0.270,-7.210,0.010,-81.1,0.200,-0.300,180.360,1000.0
2025-09-04T14:47:34.122646,-0.270,-7.210,0.010,-81.1,0.200,-0.300,180.360,1000.0
2025-09-04T14:47:34.124647,-0.270,-7.210,0.010,-81.1,0.200,-0.300,180.360,1000.0
2025-09-04T14:47:34.126645,-0.270,-7.210,0.010,-81.1,0.200,-0.300,180.360,1000.0
2025-09-04T14:47:34.127648,-0.270,-7.220,0.010,-81.1,0.200,-0.300,180.360,1000.0
2025-09-04T14:47:34.243892,-0.270,-7.220,0.010,-81.1,0.200,-0.300,180.360,1000.0
2025-09-04T14:47:34.244890,-0.270,-7.220,0.010,-81.1,0.200,-0.300,180.360,1000.0
2025-09-04T14:47:34.245890,-0.270,-7.220,0.010,-81.1,0.200,-0.300,180.360,1000.0
2025-09-04T14:47:34.247893,-0.270,-7.220,0.010,-81.1,0.200,-0.300,180.360,1000.0
2025-09-04T14:47:34.248892,-0.270,-7.220,0.010,-81.1,0.200,-0.300,180.360,1000.0
2025-09-04T14:47:34.353769,-0.270,-7.220,0.010,-81.1,0.200,-0.300,180.360,1000.0
2025-09-04T14:47:34.355766,-0.270,-7.220,0.010,-81.1,0.200,-0.300,180.360,1000.0
2025-09-04T14:47:34.356767,-0.270,-7.210,0.010,-81.1,0.200,-0.300,180.360,1000.0
2025-09-04T14:47:34.358769,-0.270,-7.210,0.010,-81.1,0.200,-0.300,180.360,1000.0
2025-09-04T14:47:34.359766,-0.270,-7.210,0.010,-81.1,0.200,-0.300,180.360,1000.0
2025-09-04T14:47:34.473509,-0.270,-7.200,0.010,-81.1,0.200,-0.300,180.360,1000.0
2025-09-04T14:47:34.477507,-0.270,-7.200,0.010,-81.1,0.200,-0.300,180.360,1000.0
2025-09-04T14:47:34.480507,-0.270,-7.200,0.010,-81.1,0.200,-0.300,180.360,1000.0
2025-09-04T14:47:34.481510,-0.270,-7.200,0.010,-81.1,0.200,-0.300,180.360,1000.0
2025-09-04T14:47:34.483510,-0.270,-7.200,0.010,-81.1,0.200,-0.300,180.360,1000.0
2025-09-04T14:47:34.597003,-0.260,-7.190,0.010,-81.1,0.200,-0.300,180.360,1000.0
2025-09-04T14:47:34.598004,-0.260,-7.200,0.000,-81.1,0.200,-0.300,180.360,1000.0
2025-09-04T14:47:34.600003,-0.260,-7.200,0.000,-81.1,0.200,-0.300,180.360,1000.0
2025-09-04T14:47:34.601005,-0.260,-7.200,0.000,-81.1,0.200,-0.300,180.360,1000.0
2025-09-04T14:47:34.604007,-0.260,-7.200,0.010,-81.1,0.200,-0.300,180.360,1000.0
2025-09-04T14:47:34.723033,-0.260,-7.210,0.010,-81.1,0.200,-0.300,180.360,1000.0
2025-09-04T14:47:34.724031,-0.260,-7.210,0.010,-81.1,0.200,-0.300,180.360,1000.0
2025-09-04T14:47:34.726031,-0.270,-7.210,0.010,-81.1,0.200,-0.300,180.360,1000.0
2025-09-04T14:47:34.727031,-0.270,-7.210,0.010,-81.1,0.200,-0.300,180.360,1000.0
2025-09-04T14:47:34.729031,-0.270,-7.210,0.010,-81.1,0.200,-0.300,180.360,1000.0
2025-09-04T14:47:34.845252,-0.270,-7.210,0.010,-81.1,0.200,-0.300,180.360,1000.0
2025-09-04T14:47:34.847252,-0.270,-7.220,0.010,-81.1,0.200,-0.300,180.360,1000.0
2025-09-04T14:47:34.849254,-0.270,-7.220,0.010,-81.1,0.200,-0.300,180.360,1000.0
2025-09-04T14:47:34.850253,-0.270,-7.220,0.010,-81.1,0.200,-0.300,180.360,1000.0
2025-09-04T14:47:34.852254,-0.260,-7.220,0.010,-81.1,0.200,-0.300,180.360,1000.0
2025-09-04T14:47:34.972877,-0.270,-7.220,0.010,-81.1,0.200,-0.300,180.360,1000.0
2025-09-04T14:47:34.974883,-0.270,-7.220,0.010,-81.1,0.200,-0.300,180.360,1000.0
2025-09-04T14:47:34.975881,-0.260,-7.220,0.010,-81.1,0.200,-0.300,180.360,1000.0
2025-09-04T14:47:34.977885,-0.260,-7.220,0.020,-81.1,0.200,-0.300,180.360,1000.0
2025-09-04T14:47:34.979883,-0.260,-7.220,0.020,-81.1,0.200,-0.300,180.360,1000.0
2025-09-04T14:47:35.094339,-0.260,-7.220,0.020,-81.1,0.200,-0.300,180.360,1000.0
2025-09-04T14:47:35.095340,-0.260,-7.220,0.020,-81.1,0.200,-0.300,180.360,1000.0
2025-09-04T14:47:35.097339,-0.260,-7.220,0.020,-81.1,0.200,-0.300,180.360,1000.0
2025-09-04T14:47:35.098339,-0.260,-7.220,0.010,-81.1,0.200,-0.300,180.360,1000.0
2025-09-04T14:47:35.100342,-0.260,-7.220,0.020,-81.1,0.200,-0.300,180.360,1000.0
2025-09-04T14:47:35.215486,-0.260,-7.220,0.010,-81.1,0.200,-0.300,180.360,1000.0
2025-09-04T14:47:35.217488,-0.260,-7.220,0.010,-81.1,0.200,-0.300,180.360,1000.0
2025-09-04T14:47:35.218488,-0.260,-7.220,0.010,-81.1,0.200,-0.300,180.360,1000.0
