Timestamp,Roll_Angle,Pitch_Angle,Yaw_Angle,Altitude,Roll_Setpoint,Pitch_Setpoint,Yaw_Setpoint,Altitude_Setpoint
2025-09-03T15:15:13.065981,-0.160,-0.550,359.950,-61.8,-0.160,-0.550,359.950,-61.8
2025-09-03T15:15:14.152557,-0.160,-0.550,359.950,-61.8,-0.160,-0.550,359.950,-61.8
2025-09-03T15:15:14.154556,-0.160,-0.550,359.950,-61.8,-0.160,-0.550,359.950,-61.8
2025-09-03T15:15:14.155555,-0.160,-0.550,359.950,-61.8,-0.160,-0.550,359.950,-61.8
2025-09-03T15:15:14.157554,-0.160,-0.550,359.950,-61.8,-0.160,-0.550,359.950,-61.8
2025-09-03T15:15:14.158557,-0.160,-0.550,359.950,-61.8,-0.160,-0.550,359.950,-61.8
2025-09-03T15:15:15.243707,-0.160,-0.550,359.950,-61.8,-0.160,-0.550,359.950,-61.8
2025-09-03T15:15:15.246708,-0.160,-0.550,359.950,-61.8,-0.160,-0.550,359.950,-61.8
2025-09-03T15:15:15.247706,-0.160,-0.550,359.950,-61.8,-0.160,-0.550,359.950,-61.8
2025-09-03T15:15:15.248708,-0.170,-0.550,359.950,-61.7,-0.170,-0.550,359.950,-61.7
2025-09-03T15:15:15.250707,-0.170,-0.560,359.950,-61.7,-0.170,-0.560,359.950,-61.7
2025-09-03T15:15:16.340805,-0.170,-0.560,359.950,-61.7,-0.170,-0.560,359.950,-61.7
2025-09-03T15:15:16.341811,-0.170,-0.560,359.950,-61.7,-0.170,-0.560,359.950,-61.7
2025-09-03T15:15:16.343811,-0.180,-0.560,359.950,-61.7,-0.180,-0.560,359.950,-61.7
2025-09-03T15:15:16.344811,-0.180,-0.560,359.950,-61.7,-0.180,-0.560,359.950,-61.7
2025-09-03T15:15:16.346820,-0.180,-0.560,359.950,-61.7,-0.180,-0.560,359.950,-61.7
2025-09-03T15:15:17.443644,-0.180,-0.560,359.950,-61.7,-0.180,-0.560,359.950,-61.7
2025-09-03T15:15:17.445638,-0.180,-0.560,359.950,-61.7,-0.180,-0.560,359.950,-61.7
2025-09-03T15:15:17.446638,-0.180,-0.560,359.950,-61.7,-0.180,-0.560,359.950,-61.7
2025-09-03T15:15:17.447638,-0.180,-0.570,359.950,-61.7,-0.180,-0.570,359.950,-61.7
2025-09-03T15:15:17.448639,-0.180,-0.570,359.950,-61.7,-0.180,-0.570,359.950,-61.7
2025-09-03T15:15:18.525822,-0.180,-0.570,359.950,-61.7,-0.180,-0.570,359.950,-61.7
2025-09-03T15:15:18.527819,-0.180,-0.580,359.950,-61.8,-0.180,-0.580,359.950,-61.8
2025-09-03T15:15:18.528819,-0.180,-0.580,359.950,-61.8,-0.180,-0.580,359.950,-61.8
2025-09-03T15:15:18.530819,-0.180,-0.570,359.950,-61.8,-0.180,-0.570,359.950,-61.8
2025-09-03T15:15:18.531819,-0.180,-0.570,359.950,-61.8,-0.180,-0.570,359.950,-61.8
2025-09-03T15:15:19.614161,-0.180,-0.580,359.950,-61.8,-0.180,-0.580,359.950,-61.8
2025-09-03T15:15:19.615583,-0.180,-0.580,359.950,-61.8,-0.180,-0.580,359.950,-61.8
2025-09-03T15:15:19.616581,-0.180,-0.570,359.950,-61.8,-0.180,-0.570,359.950,-61.8
2025-09-03T15:15:19.618583,-0.180,-0.570,359.950,-61.8,-0.180,-0.570,359.950,-61.8
2025-09-03T15:15:19.620584,-0.180,-0.570,359.950,-61.8,-0.180,-0.570,359.950,-61.8
2025-09-03T15:15:20.715640,-0.180,-0.560,359.950,-61.8,-0.180,-0.560,359.950,-61.8
2025-09-03T15:15:20.716593,-0.180,-0.560,359.950,-61.8,-0.180,-0.560,359.950,-61.8
2025-09-03T15:15:20.718594,-0.180,-0.560,359.950,-61.8,-0.180,-0.560,359.950,-61.8
2025-09-03T15:15:20.720595,-0.180,-0.560,359.950,-61.8,-0.180,-0.560,359.950,-61.8
2025-09-03T15:15:20.721595,-0.180,-0.560,359.950,-61.8,-0.180,-0.560,359.950,-61.8
2025-09-03T15:15:21.815203,-0.180,-0.550,359.950,-61.8,-0.180,-0.550,359.950,-61.8
2025-09-03T15:15:21.816205,-0.180,-0.550,359.950,-61.8,-0.180,-0.550,359.950,-61.8
2025-09-03T15:15:21.818206,-0.180,-0.550,359.950,-61.8,-0.180,-0.550,359.950,-61.8
2025-09-03T15:15:21.820205,-0.170,-0.550,359.950,-61.8,-0.170,-0.550,359.950,-61.8
2025-09-03T15:15:21.821207,-0.170,-0.550,359.950,-61.8,-0.170,-0.550,359.950,-61.8
2025-09-03T15:15:22.905981,-0.170,-0.550,359.950,-61.8,-0.170,-0.550,359.950,-61.8
2025-09-03T15:15:22.908976,-0.160,-0.550,359.950,-61.8,-0.160,-0.550,359.950,-61.8
2025-09-03T15:15:22.910990,-0.160,-0.550,359.950,-61.8,-0.160,-0.550,359.950,-61.8
2025-09-03T15:15:22.912976,-0.160,-0.550,359.950,-61.8,-0.160,-0.550,359.950,-61.8
2025-09-03T15:15:22.913977,-0.160,-0.550,359.950,-61.8,-0.160,-0.550,359.950,-61.8
2025-09-03T15:15:24.009424,-0.160,-0.550,359.950,-61.8,-0.160,-0.550,359.950,-61.8
2025-09-03T15:15:24.012419,-0.160,-0.550,359.950,-61.7,-0.160,-0.550,359.950,-61.7
2025-09-03T15:15:24.014415,-0.150,-0.550,359.950,-61.7,-0.150,-0.550,359.950,-61.7
2025-09-03T15:15:24.016425,-0.150,-0.550,359.950,-61.7,-0.150,-0.550,359.950,-61.7
2025-09-03T15:15:24.017415,-0.150,-0.550,359.950,-61.7,-0.150,-0.550,359.950,-61.7
2025-09-03T15:15:25.106512,-0.150,-0.550,359.950,-61.7,-0.150,-0.550,359.950,-61.7
2025-09-03T15:15:25.111512,-0.150,-0.550,359.950,-61.7,-0.150,-0.550,359.950,-61.7
2025-09-03T15:15:25.113511,-0.140,-0.550,359.950,-61.7,-0.140,-0.550,359.950,-61.7
2025-09-03T15:15:25.114512,-0.140,-0.550,359.950,-61.7,-0.140,-0.550,359.950,-61.7
2025-09-03T15:15:25.115513,-0.140,-0.550,359.950,-61.7,-0.140,-0.550,359.950,-61.7
2025-09-03T15:15:26.206776,-0.140,-0.550,359.950,-61.7,-0.140,-0.550,359.950,-61.7
2025-09-03T15:15:26.208776,-0.140,-0.550,359.950,-61.7,-0.140,-0.550,359.950,-61.7
2025-09-03T15:15:26.209776,-0.140,-0.550,359.950,-61.7,-0.140,-0.550,359.950,-61.7
2025-09-03T15:15:26.210775,-0.140,-0.550,359.950,-61.7,-0.140,-0.550,359.950,-61.7
2025-09-03T15:15:26.212776,-0.140,-0.550,359.950,-61.7,-0.140,-0.550,359.950,-61.7
2025-09-03T15:15:27.298621,-0.140,-0.550,359.950,-61.7,-0.140,-0.550,359.950,-61.7
2025-09-03T15:15:27.301622,-0.130,-0.550,359.950,-61.7,-0.130,-0.550,359.950,-61.7
2025-09-03T15:15:27.303619,-0.130,-0.540,359.950,-61.7,-0.130,-0.540,359.950,-61.7
2025-09-03T15:15:27.304620,-0.130,-0.540,359.950,-61.7,-0.130,-0.540,359.950,-61.7
2025-09-03T15:15:27.305620,-0.130,-0.540,359.950,-61.7,-0.130,-0.540,359.950,-61.7
2025-09-03T15:15:28.399314,-0.130,-0.540,359.950,-61.7,-0.130,-0.540,359.950,-61.7
2025-09-03T15:15:28.402313,-0.130,-0.540,359.950,-61.7,-0.130,-0.540,359.950,-61.7
2025-09-03T15:15:28.403314,-0.130,-0.540,359.950,-61.7,-0.130,-0.540,359.950,-61.7
2025-09-03T15:15:28.405315,-0.130,-0.540,359.950,-61.7,-0.130,-0.540,359.950,-61.7
2025-09-03T15:15:28.406315,-0.130,-0.540,359.950,-61.7,-0.130,-0.540,359.950,-61.7
2025-09-03T15:15:29.500356,-0.130,-0.540,359.950,-61.7,-0.130,-0.540,359.950,-61.7
2025-09-03T15:15:29.503356,-0.130,-0.540,359.950,-61.7,-0.130,-0.540,359.950,-61.7
2025-09-03T15:15:29.506357,-0.130,-0.540,359.950,-61.8,-0.130,-0.540,359.950,-61.8
2025-09-03T15:15:29.507356,-0.130,-0.540,359.950,-61.8,-0.130,-0.540,359.950,-61.8
2025-09-03T15:15:29.508356,-0.130,-0.540,359.950,-61.8,-0.130,-0.540,359.950,-61.8
2025-09-03T15:15:30.600523,-0.130,-0.540,359.950,-61.8,-0.130,-0.540,359.950,-61.8
2025-09-03T15:15:30.603523,-0.130,-0.540,359.950,-61.8,-0.130,-0.540,359.950,-61.8
2025-09-03T15:15:30.605523,-0.130,-0.540,359.950,-61.8,-0.130,-0.540,359.950,-61.8
2025-09-03T15:15:30.606524,-0.130,-0.540,359.950,-61.7,-0.130,-0.540,359.950,-61.7
2025-09-03T15:15:30.607522,-0.130,-0.540,359.950,-61.7,-0.130,-0.540,359.950,-61.7
2025-09-03T15:15:31.706487,-0.130,-0.540,359.950,-61.7,-0.130,-0.540,359.950,-61.7
2025-09-03T15:15:31.707504,-0.130,-0.540,359.950,-61.7,-0.130,-0.540,359.950,-61.7
2025-09-03T15:15:31.708503,-0.130,-0.540,359.950,-61.7,-0.130,-0.540,359.950,-61.7
2025-09-03T15:15:31.710508,-0.130,-0.540,359.950,-61.7,-0.130,-0.540,359.950,-61.7
2025-09-03T15:15:31.711504,-0.130,-0.540,359.950,-61.7,-0.130,-0.540,359.950,-61.7
2025-09-03T15:15:32.794001,-0.130,-0.540,359.950,-61.7,-0.130,-0.540,359.950,-61.7
2025-09-03T15:15:32.796000,-0.130,-0.540,359.950,-61.7,-0.130,-0.540,359.950,-61.7
2025-09-03T15:15:32.799004,-0.130,-0.540,359.950,-61.7,-0.130,-0.540,359.950,-61.7
2025-09-03T15:15:32.800999,-0.130,-0.540,359.950,-61.7,-0.130,-0.540,359.950,-61.7
2025-09-03T15:15:32.801999,-0.130,-0.540,359.950,-61.7,-0.130,-0.540,359.950,-61.7
2025-09-03T15:15:33.902150,-0.130,-0.540,359.950,-61.7,-0.130,-0.540,359.950,-61.7
2025-09-03T15:15:33.904149,-0.130,-0.540,359.950,-61.7,-0.130,-0.540,359.950,-61.7
2025-09-03T15:15:33.905149,-0.130,-0.540,359.950,-61.7,-0.130,-0.540,359.950,-61.7
2025-09-03T15:15:33.907150,-0.130,-0.540,359.950,-61.7,-0.130,-0.540,359.950,-61.7
2025-09-03T15:15:33.908150,-0.130,-0.540,359.950,-61.7,-0.130,-0.540,359.950,-61.7
2025-09-03T15:15:35.003042,-0.130,-0.540,359.950,-61.7,-0.130,-0.540,359.950,-61.7
2025-09-03T15:15:35.005042,-0.130,-0.540,359.950,-61.7,-0.130,-0.540,359.950,-61.7
2025-09-03T15:15:35.006043,-0.130,-0.540,359.950,-61.7,-0.130,-0.540,359.950,-61.7
2025-09-03T15:15:35.008043,-0.130,-0.540,359.950,-61.7,-0.130,-0.540,359.950,-61.7
2025-09-03T15:15:35.009043,-0.130,-0.540,359.950,-61.7,-0.130,-0.540,359.950,-61.7
2025-09-03T15:15:36.105231,-0.130,-0.540,359.950,-61.7,-0.130,-0.540,359.950,-61.7
2025-09-03T15:15:36.107229,-0.130,-0.540,359.950,-61.7,-0.130,-0.540,359.950,-61.7
2025-09-03T15:15:36.108229,-0.130,-0.540,359.960,-61.8,-0.130,-0.540,359.960,-61.8
2025-09-03T15:15:36.110231,-0.130,-0.540,359.960,-61.8,-0.130,-0.540,359.960,-61.8
2025-09-03T15:15:36.111231,-0.130,-0.540,359.950,-61.8,-0.130,-0.540,359.950,-61.8
2025-09-03T15:15:37.207857,-0.130,-0.540,359.950,-61.8,-0.130,-0.540,359.950,-61.8
2025-09-03T15:15:37.211859,-0.120,-0.530,359.950,-61.8,-0.120,-0.530,359.950,-61.8
2025-09-03T15:15:37.213857,-0.110,-0.510,359.970,-61.8,-0.110,-0.510,359.970,-61.8
2025-09-03T15:15:37.214860,-0.110,-0.510,0.070,-61.8,-0.110,-0.510,0.070,-61.8
2025-09-03T15:15:37.216861,-0.110,-0.510,0.230,-61.8,-0.110,-0.510,0.230,-61.8
2025-09-03T15:15:38.310186,-0.110,-0.510,0.510,-61.8,-0.110,-0.510,0.510,-61.8
2025-09-03T15:15:38.311184,-0.090,-0.490,0.870,-61.8,-0.090,-0.490,0.870,-61.8
2025-09-03T15:15:38.312185,-0.070,-0.480,1.250,-61.8,-0.070,-0.480,1.250,-61.8
2025-09-03T15:15:38.313185,-0.080,-0.490,1.420,-61.8,-0.080,-0.490,1.420,-61.8
2025-09-03T15:15:38.315185,-0.100,-0.520,1.420,-61.8,-0.100,-0.520,1.420,-61.8
2025-09-03T15:15:39.409332,-0.130,-0.540,1.440,-61.8,-0.130,-0.540,1.440,-61.8
2025-09-03T15:15:39.412330,-0.130,-0.560,1.440,-61.8,-0.130,-0.560,1.440,-61.8
2025-09-03T15:15:39.414332,-0.120,-0.550,1.440,-61.8,-0.120,-0.550,1.440,-61.8
2025-09-03T15:15:39.416330,-0.140,-0.540,1.450,-61.8,-0.140,-0.540,1.450,-61.8
2025-09-03T15:15:39.417332,-0.150,-0.560,1.480,-61.8,-0.150,-0.560,1.480,-61.8
2025-09-03T15:15:40.502693,-0.160,-0.560,1.490,-61.8,-0.160,-0.560,1.490,-61.8
2025-09-03T15:15:40.503693,-0.160,-0.560,1.490,-61.8,-0.160,-0.560,1.490,-61.8
2025-09-03T15:15:40.505693,-0.150,-0.550,1.520,-61.8,-0.150,-0.550,1.520,-61.8
2025-09-03T15:15:40.506692,-0.140,-0.560,1.590,-61.8,-0.140,-0.560,1.590,-61.8
2025-09-03T15:15:40.507692,-0.140,-0.570,1.700,-61.8,-0.140,-0.570,1.700,-61.8
2025-09-03T15:15:41.588429,-0.150,-0.580,1.850,-61.8,-0.150,-0.580,1.850,-61.8
2025-09-03T15:15:41.590428,-0.140,-0.550,2.140,-61.8,-0.140,-0.550,2.140,-61.8
2025-09-03T15:15:41.591437,-0.130,-0.520,2.770,-61.8,-0.130,-0.520,2.770,-61.8
2025-09-03T15:15:41.593428,-0.090,-0.490,4.020,-61.8,-0.090,-0.490,4.020,-61.8
2025-09-03T15:15:41.594429,-0.020,-0.460,5.990,-61.8,-0.020,-0.460,5.990,-61.8
2025-09-03T15:15:42.684583,0.140,-0.440,8.540,-61.8,0.140,-0.440,8.540,-61.8
2025-09-03T15:15:42.685589,0.410,-0.450,11.310,-61.8,0.410,-0.450,11.310,-61.8
2025-09-03T15:15:42.687583,0.650,-0.320,14.100,-61.8,0.650,-0.320,14.100,-61.8
2025-09-03T15:15:42.688583,0.840,-0.120,16.770,-61.8,0.840,-0.120,16.770,-61.8
2025-09-03T15:15:42.690582,1.020,-0.020,18.760,-61.8,1.020,-0.020,18.760,-61.8
2025-09-03T15:15:43.771418,0.780,0.140,19.750,-61.8,0.780,0.140,19.750,-61.8
2025-09-03T15:15:43.772417,0.430,0.140,19.880,-61.8,0.430,0.140,19.880,-61.8
2025-09-03T15:15:43.773417,0.010,0.260,19.670,-61.8,0.010,0.260,19.670,-61.8
2025-09-03T15:15:43.774416,-0.630,0.380,19.410,-61.8,-0.630,0.380,19.410,-61.8
2025-09-03T15:15:43.776418,-1.630,0.770,19.340,-61.8,-1.630,0.770,19.340,-61.8
2025-09-03T15:15:44.863082,-2.860,1.480,19.700,-61.8,-2.860,1.480,19.700,-61.8
2025-09-03T15:15:44.865082,-3.920,2.140,20.190,-61.8,-3.920,2.140,20.190,-61.8
2025-09-03T15:15:44.866082,-5.550,2.940,20.720,-61.8,-5.550,2.940,20.720,-61.8
2025-09-03T15:15:44.867083,-7.540,3.920,21.180,-61.8,-7.540,3.920,21.180,-61.8
2025-09-03T15:15:44.869082,-9.700,4.850,21.790,-61.8,-9.700,4.850,21.790,-61.8
2025-09-03T15:15:45.965928,-12.190,5.700,22.600,-61.8,-12.190,5.700,22.600,-61.8
2025-09-03T15:15:45.966930,-14.750,6.360,23.420,-61.8,-14.750,6.360,23.420,-61.8
2025-09-03T15:15:45.967929,-17.530,6.790,24.350,-61.8,-17.530,6.790,24.350,-61.8
2025-09-03T15:15:45.968928,-20.390,6.980,25.420,-61.8,-20.390,6.980,25.420,-61.8
2025-09-03T15:15:45.970931,-23.570,6.750,26.730,-61.8,-23.570,6.750,26.730,-61.8
2025-09-03T15:15:47.074589,-26.100,6.290,27.790,-61.8,-26.100,6.290,27.790,-61.8
2025-09-03T15:15:47.075589,-29.010,5.440,29.120,-61.8,-29.010,5.440,29.120,-61.8
2025-09-03T15:15:47.076589,-32.030,4.160,30.690,-61.8,-32.030,4.160,30.690,-61.8
2025-09-03T15:15:47.078601,-35.490,2.140,32.830,-61.8,-35.490,2.140,32.830,-61.8
2025-09-03T15:15:47.079589,-38.100,0.360,34.560,-61.8,-38.100,0.360,34.560,-61.8
2025-09-03T15:15:48.170840,-41.140,-1.840,36.590,-61.8,-41.140,-1.840,36.590,-61.8
2025-09-03T15:15:48.171841,-44.130,-4.090,38.670,-61.8,-44.130,-4.090,38.670,-61.8
2025-09-03T15:15:48.172842,-47.030,-6.560,40.950,-61.8,-47.030,-6.560,40.950,-61.8
2025-09-03T15:15:48.174842,-49.820,-9.040,43.250,-61.8,-49.820,-9.040,43.250,-61.8
2025-09-03T15:15:48.175845,-52.430,-11.290,45.210,-61.8,-52.430,-11.290,45.210,-61.8
2025-09-03T15:15:49.268292,-55.020,-13.520,47.020,-61.8,-55.020,-13.520,47.020,-61.8
2025-09-03T15:15:49.269292,-56.540,-15.030,48.100,-61.8,-56.540,-15.030,48.100,-61.8
2025-09-03T15:15:49.270294,-57.580,-16.430,48.750,-61.8,-57.580,-16.430,48.750,-61.8
2025-09-03T15:15:49.272292,-57.770,-17.530,48.630,-61.8,-57.770,-17.530,48.630,-61.8
2025-09-03T15:15:49.273291,-57.010,-18.120,47.540,-61.9,-57.010,-18.120,47.540,-61.9
2025-09-03T15:15:50.351520,-55.530,-18.010,45.800,-61.9,-55.530,-18.010,45.800,-61.9
2025-09-03T15:15:50.353500,-53.080,-17.390,43.310,-61.9,-53.080,-17.390,43.310,-61.9
2025-09-03T15:15:50.354471,-49.110,-16.230,39.990,-61.9,-49.110,-16.230,39.990,-61.9
2025-09-03T15:15:50.356476,-45.320,-15.160,37.260,-61.9,-45.320,-15.160,37.260,-61.9
2025-09-03T15:15:50.357473,-40.380,-13.830,34.060,-61.9,-40.380,-13.830,34.060,-61.9
2025-09-03T15:15:51.452806,-35.250,-12.600,31.030,-61.9,-35.250,-12.600,31.030,-61.9
2025-09-03T15:15:51.453840,-30.010,-11.600,28.240,-61.9,-30.010,-11.600,28.240,-61.9
2025-09-03T15:15:51.454812,-24.270,-10.810,25.440,-61.9,-24.270,-10.810,25.440,-61.9
2025-09-03T15:15:51.456825,-19.680,-10.380,23.300,-61.9,-19.680,-10.380,23.300,-61.9
2025-09-03T15:15:51.457814,-15.580,-10.080,21.480,-61.9,-15.580,-10.080,21.480,-61.9
2025-09-03T15:15:52.533030,-12.460,-9.780,20.220,-61.9,-12.460,-9.780,20.220,-61.9
2025-09-03T15:15:52.534030,-9.490,-9.330,19.150,-61.9,-9.490,-9.330,19.150,-61.9
2025-09-03T15:15:52.535040,-6.840,-8.730,18.250,-61.9,-6.840,-8.730,18.250,-61.9
2025-09-03T15:15:52.537031,-5.180,-8.170,17.660,-61.9,-5.180,-8.170,17.660,-61.9
2025-09-03T15:15:52.538031,-3.560,-7.510,17.100,-61.9,-3.560,-7.510,17.100,-61.9
2025-09-03T15:15:53.616709,-1.840,-6.680,16.540,-61.9,-1.840,-6.680,16.540,-61.9
2025-09-03T15:15:53.617705,-0.350,-5.790,16.110,-61.9,-0.350,-5.790,16.110,-61.9
2025-09-03T15:15:53.618705,1.130,-4.800,15.780,-61.9,1.130,-4.800,15.780,-61.9
2025-09-03T15:15:53.619705,2.640,-3.810,15.630,-61.9,2.640,-3.810,15.630,-61.9
2025-09-03T15:15:53.620705,4.170,-2.930,15.550,-61.9,4.170,-2.930,15.550,-61.9
2025-09-03T15:15:54.711818,5.700,-2.140,15.390,-61.9,5.700,-2.140,15.390,-61.9
2025-09-03T15:15:54.713818,6.980,-1.430,15.210,-61.9,6.980,-1.430,15.210,-61.9
2025-09-03T15:15:54.714817,8.180,-0.560,15.150,-61.9,8.180,-0.560,15.150,-61.9
2025-09-03T15:15:54.715818,9.260,0.440,15.240,-61.9,9.260,0.440,15.240,-61.9
2025-09-03T15:15:54.716819,10.060,1.310,15.250,-61.9,10.060,1.310,15.250,-61.9
2025-09-03T15:15:55.801731,10.700,2.060,15.010,-61.9,10.700,2.060,15.010,-61.9
2025-09-03T15:15:55.803734,11.160,2.670,14.590,-61.9,11.160,2.670,14.590,-61.9
2025-09-03T15:15:55.805735,11.680,3.490,13.950,-61.9,11.680,3.490,13.950,-61.9
2025-09-03T15:15:55.806732,12.060,4.220,13.420,-61.9,12.060,4.220,13.420,-61.9
2025-09-03T15:15:55.808732,12.370,4.880,12.920,-61.9,12.370,4.880,12.920,-61.9
2025-09-03T15:15:56.896144,12.610,5.400,12.500,-61.9,12.610,5.400,12.500,-61.9
2025-09-03T15:15:56.898146,12.840,5.830,12.060,-61.9,12.840,5.830,12.060,-61.9
2025-09-03T15:15:56.901145,12.980,6.130,11.700,-61.9,12.980,6.130,11.700,-61.9
2025-09-03T15:15:56.902146,13.070,6.330,11.460,-61.9,13.070,6.330,11.460,-61.9
2025-09-03T15:15:56.904144,13.150,6.430,11.320,-61.9,13.150,6.430,11.320,-61.9
2025-09-03T15:15:57.993734,13.110,6.460,11.130,-61.9,13.110,6.460,11.130,-61.9
2025-09-03T15:15:57.994731,12.940,6.450,10.950,-61.9,12.940,6.450,10.950,-61.9
2025-09-03T15:15:57.996731,12.600,6.440,10.860,-61.9,12.600,6.440,10.860,-61.9
2025-09-03T15:15:57.998734,12.030,6.390,10.860,-61.9,12.030,6.390,10.860,-61.9
2025-09-03T15:15:57.999734,11.290,6.350,10.950,-61.9,11.290,6.350,10.950,-61.9
2025-09-03T15:15:59.096246,10.350,6.250,11.110,-61.9,10.350,6.250,11.110,-61.9
2025-09-03T15:15:59.098246,9.310,6.120,11.340,-61.9,9.310,6.120,11.340,-61.9
2025-09-03T15:15:59.099245,8.020,5.900,11.640,-61.9,8.020,5.900,11.640,-61.9
2025-09-03T15:15:59.102246,-23.060,2.870,24.790,-61.9,0.200,-0.300,180.000,1000.0
2025-09-03T15:15:59.104247,-26.710,2.220,26.640,-61.9,0.200,-0.300,180.000,1000.0
2025-09-03T15:15:59.107244,-29.090,1.610,27.950,-61.9,0.200,-0.300,180.000,1000.0
2025-09-03T15:15:59.111246,-31.190,0.900,29.110,-61.9,0.200,-0.300,180.000,1000.0
2025-09-03T15:15:59.112246,-32.870,0.160,29.930,-61.9,0.200,-0.300,180.000,1000.0
2025-09-03T15:16:01.404589,-6.430,-12.440,6.890,-62.1,-6.430,-12.440,6.890,-62.1
2025-09-03T15:16:01.406590,-6.330,-11.020,7.090,-62.1,-6.330,-11.020,7.090,-62.1
2025-09-03T15:16:02.290793,-6.220,-9.750,7.160,-62.1,-6.220,-9.750,7.160,-62.1
2025-09-03T15:16:02.291791,-6.030,-8.690,7.220,-62.0,-6.030,-8.690,7.220,-62.0
2025-09-03T15:16:02.293792,-5.740,-7.760,7.390,-62.0,-5.740,-7.760,7.390,-62.0
2025-09-03T15:16:02.294792,-5.410,-6.900,7.680,-62.0,-5.410,-6.900,7.680,-62.0
2025-09-03T15:16:02.296795,-5.110,-6.190,7.910,-62.0,-5.110,-6.190,7.910,-62.0
2025-09-03T15:16:03.173220,-4.780,-5.370,8.010,-62.0,-4.780,-5.370,8.010,-62.0
2025-09-03T15:16:03.174221,-4.490,-4.730,8.030,-62.0,-4.490,-4.730,8.030,-62.0
2025-09-03T15:16:03.176221,-4.160,-4.130,8.190,-62.0,-4.160,-4.130,8.190,-62.0
2025-09-03T15:16:03.178224,-3.780,-3.590,8.430,-62.0,-3.780,-3.590,8.430,-62.0
2025-09-03T15:16:03.179266,-3.430,-3.140,8.650,-62.0,-3.430,-3.140,8.650,-62.0
2025-09-03T15:16:04.047949,-3.110,-2.690,8.850,-62.0,-3.110,-2.690,8.850,-62.0
2025-09-03T15:16:04.049956,-2.800,-2.210,9.120,-62.0,-2.800,-2.210,9.120,-62.0
2025-09-03T15:16:04.050957,-2.520,-1.780,9.380,-62.0,-2.520,-1.780,9.380,-62.0
2025-09-03T15:16:04.051959,-2.270,-1.360,9.510,-62.0,-2.270,-1.360,9.510,-62.0
2025-09-03T15:16:04.053957,-1.980,-1.030,9.580,-62.0,-1.980,-1.030,9.580,-62.0
2025-09-03T15:16:04.924946,-1.580,-0.700,9.760,-62.0,-1.580,-0.700,9.760,-62.0
2025-09-03T15:16:04.926952,-1.120,-0.280,10.080,-62.0,-1.120,-0.280,10.080,-62.0
2025-09-03T15:16:04.927951,-0.560,0.490,10.380,-62.0,-0.560,0.490,10.380,-62.0
2025-09-03T15:16:04.928950,0.040,1.420,10.560,-62.0,0.040,1.420,10.560,-62.0
2025-09-03T15:16:04.930953,0.600,2.170,10.780,-62.0,0.600,2.170,10.780,-62.0
2025-09-03T15:16:05.811395,1.010,2.540,11.100,-62.0,1.010,2.540,11.100,-62.0
2025-09-03T15:16:05.812384,1.370,2.610,11.550,-62.0,1.370,2.610,11.550,-62.0
2025-09-03T15:16:05.836383,0.000,-2.110,12.420,-62.0,0.000,-2.110,12.420,-62.0
2025-09-03T15:16:05.837384,0.000,-2.110,12.420,-62.0,0.000,-2.110,12.420,-62.0
2025-09-03T15:16:06.501197,0.000,-2.100,12.420,-62.0,0.000,-2.100,12.420,-62.0
2025-09-03T15:16:06.506180,0.000,-2.100,12.420,-62.1,0.000,-2.100,12.420,-62.1
2025-09-03T15:16:06.509183,0.000,-2.100,12.420,-62.1,0.000,-2.100,12.420,-62.1
2025-09-03T15:16:06.511181,0.000,-2.100,12.420,-62.1,0.000,-2.100,12.420,-62.1
2025-09-03T15:16:06.512180,0.000,-2.100,12.420,-62.1,0.000,-2.100,12.420,-62.1
2025-09-03T15:16:07.161068,0.000,-2.110,12.420,-62.1,0.000,-2.110,12.420,-62.1
2025-09-03T15:16:07.163067,0.000,-2.110,12.430,-62.1,0.000,-2.110,12.430,-62.1
2025-09-03T15:16:07.164069,0.000,-2.110,12.420,-62.1,0.000,-2.110,12.420,-62.1
2025-09-03T15:16:07.166067,0.000,-2.110,12.420,-62.0,0.000,-2.110,12.420,-62.0
2025-09-03T15:16:07.168068,0.000,-2.110,12.420,-62.0,0.000,-2.110,12.420,-62.0
2025-09-03T15:16:07.827742,0.000,-2.110,12.420,-62.0,0.000,-2.110,12.420,-62.0
2025-09-03T15:16:07.829739,0.000,-2.110,12.420,-62.0,0.000,-2.110,12.420,-62.0
2025-09-03T15:16:07.830739,0.000,-2.110,12.420,-62.0,0.000,-2.110,12.420,-62.0
2025-09-03T15:16:07.832741,0.000,-2.110,12.420,-62.0,0.000,-2.110,12.420,-62.0
2025-09-03T15:16:07.834740,0.000,-2.110,12.420,-62.0,0.000,-2.110,12.420,-62.0
2025-09-03T15:16:08.492260,0.000,-2.110,12.420,-62.0,0.000,-2.110,12.420,-62.0
2025-09-03T15:16:08.496256,0.000,-2.120,12.420,-62.0,0.000,-2.120,12.420,-62.0
2025-09-03T15:16:08.497255,0.000,-2.110,12.420,-62.0,0.000,-2.110,12.420,-62.0
2025-09-03T15:16:08.499255,0.000,-2.120,12.420,-62.0,0.000,-2.120,12.420,-62.0
2025-09-03T15:16:08.502255,0.000,-2.130,12.420,-62.0,0.000,-2.130,12.420,-62.0
2025-09-03T15:16:09.156128,0.000,-2.130,12.420,-62.0,0.000,-2.130,12.420,-62.0
2025-09-03T15:16:09.158126,0.000,-2.130,12.420,-62.0,0.000,-2.130,12.420,-62.0
2025-09-03T15:16:09.160081,0.000,-2.130,20.100,1722.2,0.000,-2.130,20.100,1722.2
2025-09-03T15:16:09.183079,0.040,-2.110,12.420,-62.1,0.040,-2.110,12.420,-62.1
2025-09-03T15:16:09.184080,0.040,-2.110,12.420,-62.1,0.040,-2.110,12.420,-62.1
2025-09-03T15:16:09.186082,0.040,-2.110,12.420,-62.1,0.040,-2.110,12.420,-62.1
2025-09-03T15:16:09.187081,0.040,-2.110,12.420,-62.1,0.040,-2.110,12.420,-62.1
2025-09-03T15:16:09.623597,0.040,-2.110,12.420,-62.1,0.040,-2.110,12.420,-62.1
2025-09-03T15:16:09.625596,0.040,-2.120,12.420,-62.1,0.040,-2.120,12.420,-62.1
2025-09-03T15:16:09.626595,0.040,-2.120,12.420,-62.1,0.040,-2.120,12.420,-62.1
2025-09-03T15:16:09.628597,0.040,-2.120,12.420,-62.1,0.040,-2.120,12.420,-62.1
2025-09-03T15:16:09.629598,0.040,-2.120,12.420,-62.1,0.040,-2.120,12.420,-62.1
2025-09-03T15:16:10.076177,0.040,-2.120,12.420,-62.1,0.040,-2.120,12.420,-62.1
2025-09-03T15:16:10.078169,0.040,-2.120,12.420,-62.1,0.040,-2.120,12.420,-62.1
2025-09-03T15:16:10.080168,0.040,-2.120,12.420,-62.1,0.040,-2.120,12.420,-62.1
2025-09-03T15:16:10.081168,0.040,-2.120,12.420,-62.1,0.040,-2.120,12.420,-62.1
2025-09-03T15:16:10.083170,0.040,-2.120,12.420,-62.1,0.040,-2.120,12.420,-62.1
2025-09-03T15:16:10.526041,0.040,-2.120,12.420,-62.1,0.040,-2.120,12.420,-62.1
2025-09-03T15:16:10.527040,0.040,-2.130,12.420,-62.1,0.040,-2.130,12.420,-62.1
2025-09-03T15:16:10.529040,0.040,-2.130,12.420,-62.1,0.040,-2.130,12.420,-62.1
2025-09-03T15:16:10.530041,0.040,-2.130,12.420,-62.1,0.040,-2.130,12.420,-62.1
2025-09-03T15:16:10.532041,0.040,-2.130,12.420,-62.1,0.040,-2.130,12.420,-62.1
2025-09-03T15:16:10.979263,0.040,-2.130,12.420,-62.1,0.040,-2.130,12.420,-62.1
2025-09-03T15:16:10.981264,0.040,-2.130,12.420,-62.1,0.040,-2.130,12.420,-62.1
2025-09-03T15:16:10.982264,0.040,-2.130,12.420,-62.1,0.040,-2.130,12.420,-62.1
2025-09-03T15:16:10.984266,0.040,-2.130,12.420,-62.1,0.040,-2.130,12.420,-62.1
2025-09-03T15:16:10.986264,0.040,-2.130,12.420,-62.1,0.040,-2.130,12.420,-62.1
2025-09-03T15:16:11.429944,0.040,-2.130,12.410,-62.2,0.040,-2.130,12.410,-62.2
2025-09-03T15:16:11.451445,0.030,-2.050,12.390,-62.3,0.200,-0.300,180.000,1000.0
2025-09-03T15:16:11.678917,0.040,-2.050,12.390,-62.3,0.200,-0.300,180.000,1000.0
2025-09-03T15:16:11.680486,0.030,-2.050,12.390,-62.3,0.200,-0.300,180.000,1000.0
2025-09-03T15:16:11.681488,0.030,-2.050,12.390,-62.3,0.200,-0.300,180.000,1000.0
2025-09-03T15:16:11.683485,0.030,-2.050,12.390,-62.3,0.200,-0.300,180.000,1000.0
2025-09-03T15:16:11.684485,0.030,-2.060,12.380,-62.3,0.200,-0.300,180.000,1000.0
2025-09-03T15:16:11.912024,0.040,-2.070,12.380,-62.3,0.200,-0.300,180.000,1000.0
2025-09-03T15:16:11.913014,0.040,-2.070,12.380,-62.3,0.200,-0.300,180.000,1000.0
2025-09-03T15:16:11.914014,0.040,-2.070,12.380,-62.3,0.200,-0.300,180.000,1000.0
2025-09-03T15:16:11.916016,0.040,-2.060,12.390,-62.3,0.200,-0.300,180.000,1000.0
2025-09-03T15:16:11.917015,0.040,-2.070,12.380,-62.3,0.200,-0.300,180.000,1000.0
2025-09-03T15:16:12.144550,0.040,-2.070,12.380,-62.3,0.200,-0.300,180.000,1000.0
2025-09-03T15:16:12.145551,0.040,-2.070,12.390,-62.3,0.200,-0.300,180.000,1000.0
2025-09-03T15:16:12.146552,0.030,-2.070,12.390,-62.3,0.200,-0.300,180.000,1000.0
2025-09-03T15:16:12.148552,0.030,-2.070,12.390,-62.3,0.200,-0.300,180.000,1000.0
2025-09-03T15:16:12.150551,0.030,-2.080,12.380,-62.3,0.200,-0.300,180.000,1000.0
2025-09-03T15:16:12.376269,0.030,-2.080,12.390,-62.3,0.200,-0.300,180.000,1000.0
2025-09-03T15:16:12.377266,0.030,-2.080,12.390,-62.3,0.200,-0.300,180.000,1000.0
2025-09-03T15:16:12.379273,0.030,-2.080,12.390,-62.3,0.200,-0.300,180.000,1000.0
2025-09-03T15:16:12.381268,0.040,-2.080,12.390,-62.3,0.200,-0.300,180.000,1000.0
2025-09-03T15:16:12.382267,0.040,-2.080,12.390,-62.3,0.200,-0.300,180.000,1000.0
2025-09-03T15:16:12.608809,0.030,-2.080,20.070,1722.2,23.200,122.880,542.710,-2841.2
2025-09-03T15:16:12.642805,0.080,-2.050,12.350,-62.4,0.080,-2.050,12.350,-62.4
2025-09-03T15:16:12.643805,0.080,-2.050,12.350,-62.4,0.080,-2.050,12.350,-62.4
2025-09-03T15:16:12.645807,0.080,-2.040,12.350,-62.4,0.080,-2.040,12.350,-62.4
2025-09-03T15:16:12.646809,0.080,-2.050,12.350,-62.4,0.080,-2.050,12.350,-62.4
2025-09-03T15:16:12.647810,0.080,-2.050,12.350,-62.4,0.080,-2.050,12.350,-62.4
2025-09-03T15:16:13.630912,0.080,-2.050,12.350,-62.4,0.080,-2.050,12.350,-62.4
2025-09-03T15:16:13.631906,0.080,-2.050,12.350,-62.4,0.080,-2.050,12.350,-62.4
2025-09-03T15:16:13.633912,0.080,-2.050,12.350,-62.4,0.080,-2.050,12.350,-62.4
2025-09-03T15:16:13.635907,0.080,-2.050,12.350,-62.4,0.080,-2.050,12.350,-62.4
2025-09-03T15:16:13.636910,0.080,-2.050,12.350,-62.4,0.080,-2.050,12.350,-62.4
2025-09-03T15:16:14.617173,0.080,-2.050,12.350,-62.4,0.080,-2.050,12.350,-62.4
2025-09-03T15:16:14.619120,0.080,-2.040,12.350,-62.4,0.080,-2.040,12.350,-62.4
2025-09-03T15:16:14.621122,0.080,-2.040,12.350,-62.4,0.080,-2.040,12.350,-62.4
2025-09-03T15:16:14.622121,0.080,-2.040,12.350,-62.4,0.080,-2.040,12.350,-62.4
2025-09-03T15:16:14.624134,0.080,-2.040,12.350,-62.4,0.080,-2.040,12.350,-62.4
2025-09-03T15:16:15.598329,0.090,-2.040,12.350,-62.4,0.090,-2.040,12.350,-62.4
2025-09-03T15:16:15.601330,0.090,-2.040,12.350,-62.4,0.090,-2.040,12.350,-62.4
2025-09-03T15:16:15.604334,0.090,-2.030,12.350,-62.4,0.090,-2.030,12.350,-62.4
2025-09-03T15:16:15.605331,0.090,-2.030,12.350,-62.4,0.090,-2.030,12.350,-62.4
2025-09-03T15:16:15.607333,0.090,-2.030,12.350,-62.4,0.090,-2.030,12.350,-62.4
2025-09-03T15:16:16.587687,0.080,-2.030,12.350,-62.4,0.080,-2.030,12.350,-62.4
2025-09-03T15:16:16.589688,0.080,-2.030,12.350,-62.4,0.080,-2.030,12.350,-62.4
2025-09-03T15:16:16.590691,0.080,-2.030,12.350,-62.4,0.080,-2.030,12.350,-62.4
2025-09-03T15:16:16.592691,0.080,-2.040,45.620,1722.2,0.080,-2.040,45.620,1722.2
2025-09-03T15:16:16.616685,0.020,-2.070,12.370,-62.5,0.020,-2.070,12.370,-62.5
2025-09-03T15:16:17.375004,0.030,-2.070,12.370,-62.5,0.030,-2.070,12.370,-62.5
2025-09-03T15:16:17.376005,0.030,-2.070,12.370,-62.5,0.030,-2.070,12.370,-62.5
2025-09-03T15:16:17.377005,0.030,-2.070,12.370,-62.5,0.030,-2.070,12.370,-62.5
2025-09-03T15:16:17.379007,0.030,-2.070,12.370,-62.5,0.030,-2.070,12.370,-62.5
2025-09-03T15:16:17.381006,0.030,-2.070,12.370,-62.5,0.030,-2.070,12.370,-62.5
2025-09-03T15:16:18.146989,0.030,-2.070,12.370,-62.5,0.030,-2.070,12.370,-62.5
2025-09-03T15:16:18.148989,0.030,-2.070,12.370,-62.5,0.030,-2.070,12.370,-62.5
2025-09-03T15:16:18.150995,0.030,-2.070,12.370,-62.5,0.030,-2.070,12.370,-62.5
2025-09-03T15:16:18.152990,0.030,-2.080,12.370,-62.5,0.030,-2.080,12.370,-62.5
2025-09-03T15:16:18.153991,0.030,-2.080,12.370,-62.5,0.030,-2.080,12.370,-62.5
2025-09-03T15:16:18.918787,0.040,-2.080,12.370,-62.5,0.040,-2.080,12.370,-62.5
2025-09-03T15:16:18.920786,0.040,-2.080,12.370,-62.5,0.040,-2.080,12.370,-62.5
2025-09-03T15:16:18.922788,0.040,-2.080,12.370,-62.4,0.040,-2.080,12.370,-62.4
2025-09-03T15:16:18.923789,0.040,-2.080,12.370,-62.4,0.040,-2.080,12.370,-62.4
2025-09-03T15:16:18.925788,0.040,-2.080,12.370,-62.4,0.040,-2.080,12.370,-62.4
2025-09-03T15:16:19.685924,0.040,-2.080,12.370,-62.4,0.040,-2.080,12.370,-62.4
2025-09-03T15:16:19.687923,0.040,-2.080,12.370,-62.4,0.040,-2.080,12.370,-62.4
2025-09-03T15:16:19.688925,0.040,-2.080,12.370,-62.4,0.040,-2.080,12.370,-62.4
2025-09-03T15:16:19.690926,0.040,-2.080,12.370,-62.4,0.040,-2.080,12.370,-62.4
2025-09-03T15:16:19.691932,0.040,-2.080,12.370,-62.4,0.040,-2.080,12.370,-62.4
2025-09-03T15:16:20.455226,0.040,-2.080,43.090,1722.2,0.040,-2.080,43.090,1722.2
2025-09-03T15:16:20.475233,0.020,-2.090,12.370,-62.4,0.020,-2.090,12.370,-62.4
2025-09-03T15:16:20.476233,0.020,-2.080,12.370,-62.4,0.020,-2.080,12.370,-62.4
2025-09-03T15:16:20.477229,0.020,-2.080,12.370,-62.4,0.020,-2.080,12.370,-62.4
2025-09-03T15:16:21.016898,0.020,-2.080,12.370,-62.4,0.020,-2.080,12.370,-62.4
2025-09-03T15:16:21.017924,0.020,-2.080,12.370,-62.4,0.020,-2.080,12.370,-62.4
2025-09-03T15:16:21.019915,0.020,-2.080,12.370,-62.4,0.020,-2.080,12.370,-62.4
2025-09-03T15:16:21.021917,0.020,-2.080,12.370,-62.4,0.020,-2.080,12.370,-62.4
2025-09-03T15:16:21.022916,0.010,-2.080,12.370,-62.4,0.010,-2.080,12.370,-62.4
2025-09-03T15:16:21.574147,0.010,-2.080,12.370,-62.4,0.010,-2.080,12.370,-62.4
2025-09-03T15:16:21.576150,0.010,-2.080,12.370,-62.4,0.010,-2.080,12.370,-62.4
2025-09-03T15:16:21.577151,0.010,-2.080,12.370,-62.5,0.010,-2.080,12.370,-62.5
2025-09-03T15:16:21.578150,0.010,-2.080,12.370,-62.5,0.010,-2.080,12.370,-62.5
2025-09-03T15:16:21.579156,0.010,-2.080,12.370,-62.5,0.010,-2.080,12.370,-62.5
2025-09-03T15:16:22.119761,0.000,-2.080,12.370,-62.5,0.000,-2.080,12.370,-62.5
2025-09-03T15:16:22.121760,0.000,-2.080,12.370,-62.5,0.000,-2.080,12.370,-62.5
2025-09-03T15:16:22.122762,0.000,-2.080,12.370,-62.5,0.000,-2.080,12.370,-62.5
2025-09-03T15:16:22.124760,0.000,-2.080,12.370,-62.5,0.000,-2.080,12.370,-62.5
2025-09-03T15:16:22.126761,0.000,-2.080,12.370,-62.5,0.000,-2.080,12.370,-62.5
2025-09-03T15:16:22.663734,0.000,-2.080,12.370,-62.5,0.000,-2.080,12.370,-62.5
2025-09-03T15:16:22.665738,0.000,-2.080,12.370,-62.5,0.000,-2.080,12.370,-62.5
2025-09-03T15:16:22.666738,0.000,-2.080,12.370,-62.5,0.000,-2.080,12.370,-62.5
2025-09-03T15:16:22.668738,0.010,-2.080,12.370,-62.5,0.010,-2.080,12.370,-62.5
2025-09-03T15:16:22.669737,0.010,-2.080,37.970,1722.2,0.010,-2.080,37.970,1722.2
2025-09-03T15:16:22.692734,0.040,-2.090,12.370,-62.5,0.040,-2.090,12.370,-62.5
2025-09-03T15:16:23.021709,0.040,-2.090,12.370,-62.5,0.040,-2.090,12.370,-62.5
2025-09-03T15:16:23.022708,0.040,-2.090,12.370,-62.5,0.040,-2.090,12.370,-62.5
2025-09-03T15:16:23.024706,0.040,-2.090,12.370,-62.5,0.040,-2.090,12.370,-62.5
2025-09-03T15:16:23.025706,0.040,-2.090,12.370,-62.5,0.040,-2.090,12.370,-62.5
2025-09-03T15:16:23.026707,0.040,-2.090,12.370,-62.5,0.040,-2.090,12.370,-62.5
2025-09-03T15:16:23.350273,0.040,-2.090,12.370,-62.5,0.040,-2.090,12.370,-62.5
2025-09-03T15:16:23.353272,0.040,-2.090,12.370,-62.5,0.040,-2.090,12.370,-62.5
2025-09-03T15:16:23.356272,0.040,-2.090,12.370,-62.5,0.040,-2.090,12.370,-62.5
2025-09-03T15:16:23.361275,0.040,-2.090,12.370,-62.5,0.040,-2.090,12.370,-62.5
2025-09-03T15:16:23.364271,0.040,-2.090,12.370,-62.5,0.040,-2.090,12.370,-62.5
2025-09-03T15:16:23.692812,0.040,-2.090,12.370,-62.5,0.040,-2.090,12.370,-62.5
2025-09-03T15:16:23.694811,0.040,-2.090,12.370,-62.5,0.040,-2.090,12.370,-62.5
2025-09-03T15:16:23.695811,0.040,-2.090,12.370,-62.5,0.040,-2.090,12.370,-62.5
2025-09-03T15:16:23.698812,0.040,-2.090,12.370,-62.5,0.040,-2.090,12.370,-62.5
2025-09-03T15:16:23.700812,0.040,-2.090,12.370,-62.5,0.040,-2.090,12.370,-62.5
2025-09-03T15:16:24.032268,0.040,-2.090,12.370,-62.5,0.040,-2.090,12.370,-62.5
2025-09-03T15:16:24.034268,0.040,-2.090,12.370,-62.5,0.040,-2.090,12.370,-62.5
2025-09-03T15:16:24.035269,0.040,-2.090,12.370,-62.5,0.040,-2.090,12.370,-62.5
2025-09-03T15:16:24.036268,0.040,-2.090,12.370,-62.5,0.040,-2.090,12.370,-62.5
2025-09-03T15:16:24.038270,0.040,-2.090,12.370,-62.5,0.040,-2.090,12.370,-62.5
2025-09-03T15:16:24.376304,0.040,-2.090,12.370,-62.5,0.040,-2.090,12.370,-62.5
2025-09-03T15:16:24.378309,0.040,-2.090,12.370,-62.5,0.040,-2.090,12.370,-62.5
2025-09-03T15:16:24.379309,0.040,-2.090,12.370,-62.5,0.040,-2.090,12.370,-62.5
2025-09-03T15:16:24.380304,0.040,-2.090,35.410,1722.2,0.040,-2.090,35.410,1722.2
2025-09-03T15:16:24.415304,0.030,-2.090,12.370,-62.5,0.200,-0.300,180.000,1000.0
2025-09-03T15:16:24.416302,0.030,-2.090,12.370,-62.5,0.200,-0.300,180.000,1000.0
2025-09-03T15:16:24.417303,0.030,-2.090,12.370,-62.5,0.200,-0.300,180.000,1000.0
2025-09-03T15:16:24.418304,0.030,-2.090,12.370,-62.5,0.200,-0.300,180.000,1000.0
2025-09-03T15:16:24.420304,0.030,-2.090,12.370,-62.5,0.200,-0.300,180.000,1000.0
2025-09-03T15:16:24.532870,0.020,-2.090,12.370,-62.6,0.200,-0.300,180.000,1000.0
2025-09-03T15:16:24.533869,0.020,-2.090,12.370,-62.6,0.200,-0.300,180.000,1000.0
2025-09-03T15:16:24.535870,0.020,-2.090,12.370,-62.6,0.200,-0.300,180.000,1000.0
2025-09-03T15:16:24.536870,0.020,-2.090,12.370,-62.6,0.200,-0.300,180.000,1000.0
2025-09-03T15:16:24.537871,0.020,-2.090,12.370,-62.6,0.200,-0.300,180.000,1000.0
2025-09-03T15:16:24.654353,0.020,-2.090,12.370,-62.6,0.200,-0.300,180.000,1000.0
2025-09-03T15:16:24.655410,0.010,-2.090,12.370,-62.6,0.200,-0.300,180.000,1000.0
2025-09-03T15:16:24.657369,0.010,-2.090,12.370,-62.6,0.200,-0.300,180.000,1000.0
2025-09-03T15:16:24.658372,0.010,-2.080,12.370,-62.6,0.200,-0.300,180.000,1000.0
2025-09-03T15:16:24.660374,0.010,-2.080,12.370,-62.5,0.200,-0.300,180.000,1000.0
2025-09-03T15:16:24.778238,0.010,-2.080,12.370,-62.5,0.200,-0.300,180.000,1000.0
2025-09-03T15:16:24.779238,0.010,-2.080,12.370,-62.5,0.200,-0.300,180.000,1000.0
2025-09-03T15:16:24.780237,0.000,-2.080,12.370,-62.5,0.200,-0.300,180.000,1000.0
2025-09-03T15:16:24.782238,0.000,-2.080,12.370,-62.5,0.200,-0.300,180.000,1000.0
2025-09-03T15:16:24.783238,0.000,-2.080,12.370,-62.5,0.200,-0.300,180.000,1000.0
2025-09-03T15:16:24.887592,0.000,-2.080,12.370,-62.5,0.200,-0.300,180.000,1000.0
2025-09-03T15:16:24.888590,0.000,-2.080,12.370,-62.5,0.200,-0.300,180.000,1000.0
2025-09-03T15:16:24.890591,0.000,-2.080,27.730,1722.2,18.080,122.880,550.390,-2918.0
2025-09-03T15:16:24.891592,0.070,-2.080,12.380,-62.5,0.070,-2.080,12.380,-62.5
2025-09-03T15:16:24.893597,0.070,-2.090,12.380,-62.5,0.070,-2.090,12.380,-62.5
2025-09-03T15:16:25.980361,0.070,-2.090,12.380,-62.5,0.070,-2.090,12.380,-62.5
2025-09-03T15:16:25.981361,0.070,-2.090,12.380,-62.5,0.070,-2.090,12.380,-62.5
2025-09-03T15:16:25.982361,0.070,-2.090,12.380,-62.5,0.070,-2.090,12.380,-62.5
2025-09-03T15:16:25.984367,0.070,-2.090,12.380,-62.5,0.070,-2.090,12.380,-62.5
2025-09-03T15:16:25.985362,0.070,-2.090,12.380,-62.5,0.070,-2.090,12.380,-62.5
2025-09-03T15:16:27.069045,0.070,-2.090,12.380,-62.5,0.070,-2.090,12.380,-62.5
2025-09-03T15:16:27.071044,0.070,-2.090,12.380,-62.5,0.070,-2.090,12.380,-62.5
2025-09-03T15:16:27.072044,0.070,-2.090,12.380,-62.5,0.070,-2.090,12.380,-62.5
2025-09-03T15:16:27.073045,0.070,-2.090,12.380,-62.5,0.070,-2.090,12.380,-62.5
2025-09-03T15:16:27.074045,0.070,-2.090,12.380,-62.5,0.070,-2.090,12.380,-62.5
2025-09-03T15:16:28.149208,0.070,-2.090,12.380,-62.5,0.070,-2.090,12.380,-62.5
2025-09-03T15:16:28.150207,0.080,-2.090,12.380,-62.5,0.080,-2.090,12.380,-62.5
2025-09-03T15:16:28.152209,0.080,-2.090,12.380,-62.6,0.080,-2.090,12.380,-62.6
2025-09-03T15:16:28.153209,0.080,-2.090,12.380,-62.6,0.080,-2.090,12.380,-62.6
2025-09-03T15:16:28.154219,0.080,-2.090,12.380,-62.6,0.080,-2.090,12.380,-62.6
2025-09-03T15:16:29.237242,0.080,-2.090,12.380,-62.6,0.080,-2.090,12.380,-62.6
2025-09-03T15:16:29.239241,0.080,-2.090,12.380,-62.6,0.080,-2.090,12.380,-62.6
2025-09-03T15:16:29.241241,0.080,-2.090,12.380,-62.6,0.080,-2.090,12.380,-62.6
2025-09-03T15:16:29.242242,0.080,-2.090,12.380,-62.6,0.080,-2.090,12.380,-62.6
2025-09-03T15:16:29.244240,0.080,-2.090,12.380,-62.6,0.080,-2.090,12.380,-62.6
2025-09-03T15:16:30.337718,0.070,-2.080,12.380,-62.5,0.200,-0.300,180.000,1000.0
2025-09-03T15:16:30.339717,0.070,-2.080,12.380,-62.5,0.200,-0.300,180.000,1000.0
2025-09-03T15:16:30.340717,0.070,-2.080,12.380,-62.5,0.200,-0.300,180.000,1000.0
2025-09-03T15:16:30.342717,0.070,-2.080,12.380,-62.5,0.200,-0.300,180.000,1000.0
2025-09-03T15:16:32.849198,-4.120,-0.930,18.080,-62.5,-4.120,-0.930,18.080,-62.5
2025-09-03T15:16:32.851198,-4.090,-0.900,17.860,-62.5,-4.090,-0.900,17.860,-62.5
2025-09-03T15:16:32.852198,-3.870,-0.880,17.690,-62.5,-3.870,-0.880,17.690,-62.5
2025-09-03T15:16:32.853197,-3.610,-0.990,17.720,-62.5,-3.610,-0.990,17.720,-62.5
2025-09-03T15:16:32.854200,-3.410,-1.060,17.890,-62.5,-3.410,-1.060,17.890,-62.5
2025-09-03T15:16:33.731825,-3.140,-1.220,18.090,-62.5,-3.140,-1.220,18.090,-62.5
2025-09-03T15:16:33.732826,-2.720,-1.460,18.320,-62.5,-2.720,-1.460,18.320,-62.5
2025-09-03T15:16:33.733826,-2.170,-1.760,18.560,-62.5,-2.170,-1.760,18.560,-62.5
2025-09-03T15:16:33.735826,-1.580,-1.890,18.750,-62.5,-1.580,-1.890,18.750,-62.5
2025-09-03T15:16:33.736827,-1.100,-1.720,18.860,-62.5,-1.100,-1.720,18.860,-62.5
2025-09-03T15:16:34.609254,-0.520,-1.540,18.910,-62.5,-0.520,-1.540,18.910,-62.5
2025-09-03T15:16:34.612255,0.080,-1.330,18.920,-62.5,0.080,-1.330,18.920,-62.5
2025-09-03T15:16:34.615255,0.060,-1.300,18.870,-62.5,0.060,-1.300,18.870,-62.5
2025-09-03T15:16:34.616253,0.110,-1.320,18.860,-62.5,0.110,-1.320,18.860,-62.5
2025-09-03T15:16:34.617253,0.110,-1.350,18.860,-62.5,0.110,-1.350,18.860,-62.5
2025-09-03T15:16:35.490608,0.060,-1.360,18.870,-62.5,0.060,-1.360,18.870,-62.5
2025-09-03T15:16:35.491607,0.060,-1.340,18.880,-62.6,0.060,-1.340,18.880,-62.6
2025-09-03T15:16:35.492606,0.080,-1.330,18.880,-62.6,0.080,-1.330,18.880,-62.6
2025-09-03T15:16:35.494609,0.090,-1.330,18.880,-62.6,0.090,-1.330,18.880,-62.6
2025-09-03T15:16:35.495609,0.090,-1.350,18.900,-62.6,0.090,-1.350,18.900,-62.6
2025-09-03T15:16:36.360233,0.080,-1.360,18.930,-62.6,0.080,-1.360,18.930,-62.6
2025-09-03T15:16:36.362233,0.080,-1.360,18.940,-62.6,0.080,-1.360,18.940,-62.6
2025-09-03T15:16:36.364234,0.090,-1.360,18.940,-62.6,0.090,-1.360,18.940,-62.6
2025-09-03T15:16:36.366233,0.090,-1.390,18.940,-62.6,0.090,-1.390,18.940,-62.6
2025-09-03T15:16:36.368234,0.080,-1.460,164.880,1722.2,0.080,-1.460,164.880,1722.2
2025-09-03T15:16:36.400234,-36.090,-13.270,19.540,-62.7,-36.090,-13.270,19.540,-62.7
2025-09-03T15:16:36.402232,-33.850,-13.660,19.060,-62.7,-33.850,-13.660,19.060,-62.7
2025-09-03T15:16:36.405233,-31.710,-13.930,18.590,-62.7,-31.710,-13.930,18.590,-62.7
2025-09-03T15:16:36.406233,-29.720,-14.110,18.150,-62.7,-29.720,-14.110,18.150,-62.7
2025-09-03T15:16:37.062810,-27.820,-14.190,17.710,-62.7,-27.820,-14.190,17.710,-62.7
2025-09-03T15:16:37.064810,-26.020,-14.210,17.240,-62.7,-26.020,-14.210,17.240,-62.7
2025-09-03T15:16:37.065808,-24.350,-14.250,16.750,-62.7,-24.350,-14.250,16.750,-62.7
2025-09-03T15:16:37.067807,-23.160,-14.300,16.440,-62.7,-23.160,-14.300,16.440,-62.7
2025-09-03T15:16:37.068807,-21.090,-14.400,15.970,-62.7,-21.090,-14.400,15.970,-62.7
2025-09-03T15:16:37.730127,-19.490,-14.470,15.640,-62.7,-19.490,-14.470,15.640,-62.7
2025-09-03T15:16:37.731126,-17.940,-14.610,15.380,-62.7,-17.940,-14.610,15.380,-62.7
2025-09-03T15:16:37.733128,-16.360,-14.760,15.170,-62.7,-16.360,-14.760,15.170,-62.7
2025-09-03T15:16:37.735126,-14.780,-14.940,14.970,-62.7,-14.780,-14.940,14.970,-62.7
2025-09-03T15:16:37.736130,-13.260,-15.120,14.850,-62.7,-13.260,-15.120,14.850,-62.7
2025-09-03T15:16:38.403553,-11.720,-15.300,14.800,-62.7,-11.720,-15.300,14.800,-62.7
2025-09-03T15:16:38.404566,-10.100,-15.390,14.750,-62.7,-10.100,-15.390,14.750,-62.7
2025-09-03T15:16:38.406553,-8.840,-15.400,14.690,-62.7,-8.840,-15.400,14.690,-62.7
2025-09-03T15:16:38.407552,-7.260,-15.340,14.540,-62.7,-7.260,-15.340,14.540,-62.7
2025-09-03T15:16:38.408555,-5.900,-15.280,14.400,-62.7,-5.900,-15.280,14.400,-62.7
2025-09-03T15:16:39.055945,-4.600,-15.200,14.290,-62.7,-4.600,-15.200,14.290,-62.7
2025-09-03T15:16:39.056946,-3.360,-15.140,14.200,-62.7,-3.360,-15.140,14.200,-62.7
2025-09-03T15:16:39.058946,-2.330,-15.120,14.150,-62.7,-2.330,-15.120,14.150,-62.7
2025-09-03T15:16:39.059945,-1.390,-15.080,14.150,-62.7,-1.390,-15.080,14.150,-62.7
2025-09-03T15:16:39.061946,-0.540,-15.000,29.510,1722.2,-0.540,-15.000,29.510,1722.2
2025-09-03T15:16:39.084945,-17.300,-11.610,17.760,-62.7,-17.300,-11.610,17.760,-62.7
2025-09-03T15:16:39.085944,-16.720,-11.540,17.650,-62.7,-16.720,-11.540,17.650,-62.7
2025-09-03T15:16:39.087945,-16.120,-11.440,17.550,-62.7,-16.120,-11.440,17.550,-62.7
2025-09-03T15:16:39.088945,-15.480,-11.290,17.490,-62.7,-15.480,-11.290,17.490,-62.7
2025-09-03T15:16:39.520743,-14.780,-11.090,17.460,-62.7,-14.780,-11.090,17.460,-62.7
2025-09-03T15:16:39.521744,-14.100,-10.860,17.440,-62.7,-14.100,-10.860,17.440,-62.7
2025-09-03T15:16:39.523744,-13.450,-10.620,17.410,-62.7,-13.450,-10.620,17.410,-62.7
2025-09-03T15:16:39.524743,-12.820,-10.390,17.370,-62.7,-12.820,-10.390,17.370,-62.7
2025-09-03T15:16:39.525743,-12.290,-10.210,17.340,-62.7,-12.290,-10.210,17.340,-62.7
2025-09-03T15:16:39.972173,-11.740,-10.020,17.380,-62.7,-11.740,-10.020,17.380,-62.7
2025-09-03T15:16:39.973170,-11.180,-9.800,17.430,-62.7,-11.180,-9.800,17.430,-62.7
2025-09-03T15:16:39.975180,-10.700,-9.570,17.470,-62.7,-10.700,-9.570,17.470,-62.7
2025-09-03T15:16:39.977172,-10.290,-9.340,17.490,-62.7,-10.290,-9.340,17.490,-62.7
2025-09-03T15:16:39.978172,-9.930,-9.130,17.470,-62.7,-9.930,-9.130,17.470,-62.7
2025-09-03T15:16:40.405523,-9.630,-8.950,17.450,-62.7,-9.630,-8.950,17.450,-62.7
2025-09-03T15:16:40.407523,-9.390,-8.800,17.460,-62.7,-9.390,-8.800,17.460,-62.7
2025-09-03T15:16:40.408522,-9.200,-8.680,17.470,-62.7,-9.200,-8.680,17.470,-62.7
2025-09-03T15:16:40.409523,-9.070,-8.570,17.480,-62.7,-9.070,-8.570,17.480,-62.7
2025-09-03T15:16:40.411522,-9.020,-8.480,17.460,-62.7,-9.020,-8.480,17.460,-62.7
2025-09-03T15:16:40.839801,-9.010,-8.410,17.420,-62.7,-9.010,-8.410,17.420,-62.7
2025-09-03T15:16:40.840791,-9.060,-8.360,17.370,-62.7,-9.060,-8.360,17.370,-62.7
2025-09-03T15:16:40.842792,-9.150,-8.330,17.320,-62.7,-9.150,-8.330,17.320,-62.7
2025-09-03T15:16:40.843796,-9.240,-8.290,17.270,-62.7,-9.240,-8.290,17.270,-62.7
2025-09-03T15:16:40.845792,-9.340,-8.210,17.200,-62.7,-9.340,-8.210,17.200,-62.7
2025-09-03T15:16:41.275892,-9.410,-8.100,17.110,-62.7,-9.410,-8.100,17.110,-62.7
2025-09-03T15:16:41.276891,-9.430,-7.950,17.020,-62.7,-9.430,-7.950,17.020,-62.7
2025-09-03T15:16:41.277892,-9.410,-7.780,16.920,-62.7,-9.410,-7.780,16.920,-62.7
2025-09-03T15:16:41.278892,-9.370,-7.590,16.830,-62.7,-9.370,-7.590,16.830,-62.7
2025-09-03T15:16:41.280893,-9.240,-7.380,16.780,-62.7,-9.240,-7.380,16.780,-62.7
2025-09-03T15:16:41.712930,-9.060,-7.150,16.760,-62.7,-9.060,-7.150,16.760,-62.7
2025-09-03T15:16:41.714929,-8.890,-6.950,16.760,-62.7,-8.890,-6.950,16.760,-62.7
2025-09-03T15:16:41.715929,-8.600,-6.660,16.770,-62.7,-8.600,-6.660,16.770,-62.7
2025-09-03T15:16:41.717931,-8.330,-6.410,16.790,-62.6,-8.330,-6.410,16.790,-62.6
2025-09-03T15:16:41.719929,-8.050,-6.180,16.800,-62.6,-8.050,-6.180,16.800,-62.6
2025-09-03T15:16:42.161289,-7.790,-6.010,16.830,-62.6,-7.790,-6.010,16.830,-62.6
2025-09-03T15:16:42.162259,-7.570,-5.900,16.880,-62.6,-7.570,-5.900,16.880,-62.6
2025-09-03T15:16:42.164260,-7.420,-5.850,16.950,-62.6,-7.420,-5.850,16.950,-62.6
2025-09-03T15:16:42.165259,-7.310,-5.850,17.020,-62.6,-7.310,-5.850,17.020,-62.6
2025-09-03T15:16:42.167260,-7.290,-5.880,17.060,-62.6,-7.290,-5.880,17.060,-62.6
2025-09-03T15:16:42.609676,-7.310,-5.910,17.050,-62.6,-7.310,-5.910,17.050,-62.6
2025-09-03T15:16:42.612672,-7.380,-5.940,16.990,-62.6,-7.380,-5.940,16.990,-62.6
2025-09-03T15:16:42.614674,-7.480,-5.940,16.900,-62.6,-7.480,-5.940,16.900,-62.6
2025-09-03T15:16:42.616673,-7.610,-5.930,16.790,-62.6,-7.610,-5.930,16.790,-62.6
2025-09-03T15:16:42.617673,-7.740,-5.910,16.680,-62.6,-7.740,-5.910,16.680,-62.6
2025-09-03T15:16:43.061248,-7.860,-5.860,16.560,-62.6,-7.860,-5.860,16.560,-62.6
2025-09-03T15:16:43.062247,-7.940,-5.790,16.420,-62.6,-7.940,-5.790,16.420,-62.6
2025-09-03T15:16:43.063252,-8.010,-5.710,16.250,-62.6,-8.010,-5.710,16.250,-62.6
2025-09-03T15:16:43.065248,-8.040,-5.530,16.020,-62.6,-8.040,-5.530,16.020,-62.6
2025-09-03T15:16:43.067247,-8.020,-5.340,15.850,-62.6,-8.020,-5.340,15.850,-62.6
2025-09-03T15:16:43.508266,-7.990,-5.080,15.620,-62.6,-7.990,-5.080,15.620,-62.6
2025-09-03T15:16:43.510265,-7.950,-4.780,15.390,-62.6,-7.950,-4.780,15.390,-62.6
2025-09-03T15:16:43.511266,-7.930,-4.560,15.250,-62.6,-7.930,-4.560,15.250,-62.6
2025-09-03T15:16:43.512266,-7.890,-4.360,15.180,-62.6,-7.890,-4.360,15.180,-62.6
2025-09-03T15:16:43.513267,-7.870,-4.210,15.170,-62.6,-7.870,-4.210,15.170,-62.6
2025-09-03T15:16:43.956279,-7.850,-4.070,15.180,-62.6,-7.850,-4.070,15.180,-62.6
2025-09-03T15:16:43.958282,-7.820,-3.890,15.190,-62.6,-7.820,-3.890,15.190,-62.6
2025-09-03T15:16:43.959280,-7.790,-3.740,15.180,-62.6,-7.790,-3.740,15.180,-62.6
2025-09-03T15:16:43.960280,-7.750,-3.550,15.180,-62.6,-7.750,-3.550,15.180,-62.6
2025-09-03T15:16:43.962280,-7.680,-3.410,15.190,-62.6,-7.680,-3.410,15.190,-62.6
2025-09-03T15:16:44.390597,-7.580,-3.280,15.210,-62.6,-7.580,-3.280,15.210,-62.6
2025-09-03T15:16:44.391598,-7.460,-3.160,15.210,-62.6,-7.460,-3.160,15.210,-62.6
2025-09-03T15:16:44.393596,-7.340,-3.090,15.170,-62.6,-7.340,-3.090,15.170,-62.6
2025-09-03T15:16:44.395600,-7.140,-3.220,15.130,-62.6,-7.140,-3.220,15.130,-62.6
2025-09-03T15:16:44.396597,-6.940,-3.350,15.070,-62.6,-6.940,-3.350,15.070,-62.6
2025-09-03T15:16:44.838571,-6.750,-3.350,14.980,-62.6,-6.750,-3.350,14.980,-62.6
2025-09-03T15:16:44.840568,-6.590,-3.340,14.920,-62.6,-6.590,-3.340,14.920,-62.6
2025-09-03T15:16:44.841568,-6.460,-3.330,14.870,-62.6,-6.460,-3.330,14.870,-62.6
2025-09-03T15:16:44.842567,-6.350,-3.330,14.830,-62.6,-6.350,-3.330,14.830,-62.6
2025-09-03T15:16:44.843569,-6.260,-3.310,14.790,-62.6,-6.260,-3.310,14.790,-62.6
2025-09-03T15:16:45.287669,-6.210,-3.280,14.750,-62.6,-6.210,-3.280,14.750,-62.6
2025-09-03T15:16:45.289674,-6.170,-3.220,14.660,-62.7,-6.170,-3.220,14.660,-62.7
2025-09-03T15:16:45.290674,-6.170,-3.160,14.530,-62.7,-6.170,-3.160,14.530,-62.7
2025-09-03T15:16:45.292675,-6.160,-3.080,14.420,-62.6,-6.160,-3.080,14.420,-62.6
2025-09-03T15:16:45.293675,-6.140,-3.020,14.330,-62.6,-6.140,-3.020,14.330,-62.6
2025-09-03T15:16:45.735441,-6.140,-2.960,14.230,-62.6,-6.140,-2.960,14.230,-62.6
2025-09-03T15:16:45.737439,-6.100,-2.900,14.110,-62.6,-6.100,-2.900,14.110,-62.6
2025-09-03T15:16:45.738439,-6.040,-2.840,52.410,1722.2,-6.040,-2.840,52.410,1722.2
2025-09-03T15:16:45.759438,1.080,-1.580,12.240,-62.6,0.200,-0.300,180.000,1000.0
2025-09-03T15:16:45.760439,1.080,-1.580,12.240,-62.6,0.200,-0.300,180.000,1000.0
2025-09-03T15:16:45.761439,1.080,-1.580,12.240,-62.6,0.200,-0.300,180.000,1000.0
2025-09-03T15:16:45.763439,1.080,-1.580,12.240,-62.6,0.200,-0.300,180.000,1000.0
2025-09-03T15:16:45.982440,1.080,-1.580,12.240,-62.6,0.200,-0.300,180.000,1000.0
2025-09-03T15:16:45.984446,1.080,-1.580,12.240,-62.6,0.200,-0.300,180.000,1000.0
2025-09-03T15:16:45.986447,1.080,-1.580,12.240,-62.6,0.200,-0.300,180.000,1000.0
2025-09-03T15:16:45.987447,1.080,-1.580,12.240,-62.6,0.200,-0.300,180.000,1000.0
2025-09-03T15:16:45.989446,1.080,-1.580,12.240,-62.6,0.200,-0.300,180.000,1000.0
2025-09-03T15:16:46.214389,1.080,-1.580,12.240,-62.6,0.200,-0.300,180.000,1000.0
2025-09-03T15:16:46.216384,1.080,-1.580,12.240,-62.6,0.200,-0.300,180.000,1000.0
2025-09-03T15:16:46.217385,1.080,-1.580,12.240,-62.6,0.200,-0.300,180.000,1000.0
2025-09-03T15:16:46.219385,1.080,-1.580,12.240,-62.6,0.200,-0.300,180.000,1000.0
2025-09-03T15:16:46.221385,1.080,-1.580,12.240,-62.6,0.200,-0.300,180.000,1000.0
2025-09-03T15:16:46.448897,1.080,-1.580,12.240,-62.6,0.200,-0.300,180.000,1000.0
2025-09-03T15:16:46.450899,1.080,-1.590,12.240,-62.6,0.200,-0.300,180.000,1000.0
2025-09-03T15:16:46.451897,1.080,-1.590,12.240,-62.6,0.200,-0.300,180.000,1000.0
2025-09-03T15:16:46.452899,1.080,-1.590,12.240,-62.6,0.200,-0.300,180.000,1000.0
2025-09-03T15:16:46.453898,1.080,-1.590,12.240,-62.6,0.200,-0.300,180.000,1000.0
2025-09-03T15:16:46.682679,1.080,-1.590,12.240,-62.6,0.200,-0.300,180.000,1000.0
2025-09-03T15:16:46.684715,1.080,-1.590,12.240,-62.6,0.200,-0.300,180.000,1000.0
2025-09-03T15:16:46.685714,1.080,-1.590,12.240,-62.6,0.200,-0.300,180.000,1000.0
2025-09-03T15:16:46.687713,1.080,-1.590,50.640,1722.2,276.640,248.320,514.550,-2918.0
2025-09-03T15:16:46.729714,1.080,-1.590,12.230,-62.7,1.080,-1.590,12.230,-62.7
2025-09-03T15:16:46.730715,1.080,-1.590,12.230,-62.7,1.080,-1.590,12.230,-62.7
2025-09-03T15:16:46.731718,1.080,-1.590,12.230,-62.7,1.080,-1.590,12.230,-62.7
2025-09-03T15:16:46.732717,1.080,-1.590,12.230,-62.7,1.080,-1.590,12.230,-62.7
2025-09-03T15:16:47.701575,1.080,-1.590,12.230,-62.7,1.080,-1.590,12.230,-62.7
2025-09-03T15:16:47.702569,1.080,-1.590,12.230,-62.7,1.080,-1.590,12.230,-62.7
2025-09-03T15:16:47.704563,1.080,-1.590,12.230,-62.7,1.080,-1.590,12.230,-62.7
2025-09-03T15:16:47.705598,1.090,-1.590,12.230,-62.7,1.090,-1.590,12.230,-62.7
2025-09-03T15:16:47.706563,1.090,-1.590,12.230,-62.7,1.090,-1.590,12.230,-62.7
2025-09-03T15:16:48.683697,1.090,-1.600,12.230,-62.7,1.090,-1.600,12.230,-62.7
2025-09-03T15:16:48.685695,1.090,-1.600,12.230,-62.6,1.090,-1.600,12.230,-62.6
2025-09-03T15:16:48.686692,1.090,-1.600,12.230,-62.6,1.090,-1.600,12.230,-62.6
2025-09-03T15:16:48.688692,1.090,-1.610,12.230,-62.6,1.090,-1.610,12.230,-62.6
2025-09-03T15:16:48.689693,1.090,-1.610,12.230,-62.6,1.090,-1.610,12.230,-62.6
2025-09-03T15:16:49.676331,1.090,-1.610,12.230,-62.6,1.090,-1.610,12.230,-62.6
2025-09-03T15:16:49.678334,1.090,-1.610,12.230,-62.6,1.090,-1.610,12.230,-62.6
2025-09-03T15:16:49.680333,1.090,-1.620,12.230,-62.6,1.090,-1.620,12.230,-62.6
2025-09-03T15:16:49.681332,1.090,-1.620,12.230,-62.6,1.090,-1.620,12.230,-62.6
2025-09-03T15:16:49.683333,1.090,-1.610,12.230,-62.6,1.090,-1.610,12.230,-62.6
2025-09-03T15:16:50.667379,1.090,-1.610,12.230,-62.6,1.090,-1.610,12.230,-62.6
2025-09-03T15:16:50.668425,1.100,-1.620,12.230,-62.6,1.100,-1.620,12.230,-62.6
2025-09-03T15:16:50.669411,1.100,-1.620,12.230,-62.6,1.100,-1.620,12.230,-62.6
2025-09-03T15:16:50.671376,1.100,-1.620,12.230,-62.6,1.100,-1.620,12.230,-62.6
2025-09-03T15:16:50.673377,1.100,-1.620,12.230,-62.6,1.100,-1.620,12.230,-62.6
2025-09-03T15:16:51.645566,1.110,-1.620,12.230,-62.6,1.110,-1.620,12.230,-62.6
2025-09-03T15:16:51.647578,1.110,-1.620,12.230,-62.6,1.110,-1.620,12.230,-62.6
2025-09-03T15:16:51.648567,1.110,-1.630,12.230,-62.6,1.110,-1.630,12.230,-62.6
2025-09-03T15:16:51.650566,1.110,-1.630,12.230,-62.6,1.110,-1.630,12.230,-62.6
2025-09-03T15:16:51.651566,1.110,-1.630,12.230,-62.6,1.110,-1.630,12.230,-62.6
2025-09-03T15:16:52.644943,1.120,-1.630,12.230,-62.6,1.120,-1.630,12.230,-62.6
2025-09-03T15:16:52.645943,1.120,-1.630,12.230,-62.6,1.120,-1.630,12.230,-62.6
2025-09-03T15:16:52.647943,1.120,-1.630,12.230,-62.6,1.120,-1.630,12.230,-62.6
2025-09-03T15:16:52.648945,1.120,-1.630,12.230,-62.6,1.120,-1.630,12.230,-62.6
2025-09-03T15:16:52.649944,1.120,-1.630,12.230,-62.6,1.120,-1.630,12.230,-62.6
2025-09-03T15:16:53.627116,1.120,-1.630,12.230,-62.7,1.120,-1.630,12.230,-62.7
2025-09-03T15:16:53.628115,1.120,-1.630,12.230,-62.7,1.120,-1.630,12.230,-62.7
2025-09-03T15:16:53.630116,1.120,-1.630,12.230,-62.6,1.120,-1.630,12.230,-62.6
2025-09-03T15:16:53.632119,1.120,-1.630,12.230,-62.6,1.120,-1.630,12.230,-62.6
2025-09-03T15:16:53.633118,1.120,-1.630,12.230,-62.6,1.120,-1.630,12.230,-62.6
2025-09-03T15:16:54.616362,1.120,-1.630,12.230,-62.6,1.120,-1.630,12.230,-62.6
2025-09-03T15:16:54.617363,1.120,-1.630,12.230,-62.7,1.120,-1.630,12.230,-62.7
2025-09-03T15:16:54.619370,1.120,-1.630,12.230,-62.7,1.120,-1.630,12.230,-62.7
2025-09-03T15:16:54.620364,1.120,-1.630,12.230,-62.7,1.120,-1.630,12.230,-62.7
2025-09-03T15:16:54.622364,1.120,-1.630,12.230,-62.6,1.120,-1.630,12.230,-62.6
2025-09-03T15:16:55.609238,1.120,-1.630,332.230,1722.2,1.120,-1.630,332.230,1722.2
2025-09-03T15:16:55.632243,1.230,-1.550,11.850,-62.6,1.230,-1.550,11.850,-62.6
2025-09-03T15:16:55.634242,1.180,-1.540,12.050,-62.6,1.180,-1.540,12.050,-62.6
2025-09-03T15:16:55.635241,1.160,-1.540,12.360,-62.6,1.160,-1.540,12.360,-62.6
2025-09-03T15:16:55.636243,1.130,-1.480,13.010,-62.6,1.130,-1.480,13.010,-62.6
2025-09-03T15:16:56.403691,1.160,-1.410,13.860,-62.6,1.160,-1.410,13.860,-62.6
2025-09-03T15:16:56.406691,1.230,-1.310,14.860,-62.6,1.230,-1.310,14.860,-62.6
2025-09-03T15:16:56.408692,1.260,-1.170,15.860,-62.6,1.260,-1.170,15.860,-62.6
2025-09-03T15:16:56.410692,1.280,-0.950,16.960,-62.6,1.280,-0.950,16.960,-62.6
2025-09-03T15:16:56.411690,1.260,-0.800,17.520,-62.6,1.260,-0.800,17.520,-62.6
2025-09-03T15:16:57.181498,1.190,-0.410,18.550,-62.6,1.190,-0.410,18.550,-62.6
2025-09-03T15:16:57.183498,1.060,0.090,19.450,-62.6,1.060,0.090,19.450,-62.6
2025-09-03T15:16:57.185500,0.830,0.840,20.400,-62.6,0.830,0.840,20.400,-62.6
2025-09-03T15:16:57.186499,0.330,1.740,21.270,-62.6,0.330,1.740,21.270,-62.6
2025-09-03T15:16:57.188543,-0.720,2.670,21.930,-62.6,-0.720,2.670,21.930,-62.6
2025-09-03T15:16:57.957768,-1.910,3.280,22.210,-62.6,-1.910,3.280,22.210,-62.6
2025-09-03T15:16:57.959574,-2.890,3.450,22.220,-62.6,-2.890,3.450,22.220,-62.6
2025-09-03T15:16:57.961574,-4.360,3.350,21.990,-62.6,-4.360,3.350,21.990,-62.6
2025-09-03T15:16:57.962572,-5.740,3.170,21.810,-62.6,-5.740,3.170,21.810,-62.6
2025-09-03T15:16:57.964572,-7.570,3.100,21.870,-62.6,-7.570,3.100,21.870,-62.6
2025-09-03T15:16:58.731339,-9.150,3.120,22.180,-62.6,-9.150,3.120,22.180,-62.6
2025-09-03T15:16:58.732339,-10.670,3.300,22.510,-62.6,-10.670,3.300,22.510,-62.6
2025-09-03T15:16:58.733339,-12.610,3.520,22.960,-62.6,-12.610,3.520,22.960,-62.6
2025-09-03T15:16:58.734340,-14.070,3.660,23.390,-62.6,-14.070,3.660,23.390,-62.6
2025-09-03T15:16:58.756339,-3.680,-2.110,7.840,-62.7,-3.680,-2.110,7.840,-62.7
2025-09-03T15:16:58.757338,-3.750,-2.940,7.450,-62.7,-3.750,-2.940,7.450,-62.7
2025-09-03T15:16:58.758340,-4.010,-3.930,7.100,-62.7,-4.010,-3.930,7.100,-62.7
2025-09-03T15:16:58.760341,-4.370,-4.920,6.770,-62.7,-4.370,-4.920,6.770,-62.7
2025-09-03T15:16:58.762340,-4.830,-6.080,6.520,-62.7,-4.830,-6.080,6.520,-62.7
2025-09-03T15:16:59.307602,-5.240,-7.320,6.490,-62.8,-5.240,-7.320,6.490,-62.8
2025-09-03T15:16:59.310601,-5.600,-8.710,6.560,-62.8,-5.600,-8.710,6.560,-62.8
2025-09-03T15:16:59.313601,-5.930,-10.270,6.570,-62.8,-5.930,-10.270,6.570,-62.8
2025-09-03T15:16:59.315603,-6.210,-12.110,6.490,-62.8,-6.210,-12.110,6.490,-62.8
2025-09-03T15:16:59.316601,-6.460,-14.320,6.430,-62.8,-6.460,-14.320,6.430,-62.8
2025-09-03T15:16:59.864504,-6.640,-16.510,6.430,-62.8,-6.640,-16.510,6.430,-62.8
2025-09-03T15:16:59.865763,-6.820,-19.110,6.470,-62.8,-6.820,-19.110,6.470,-62.8
2025-09-03T15:16:59.866762,-6.990,-21.920,6.500,-62.8,-6.990,-21.920,6.500,-62.8
2025-09-03T15:16:59.868762,-7.240,-25.260,6.610,-62.8,-7.240,-25.260,6.610,-62.8
2025-09-03T15:16:59.869762,-7.460,-27.930,6.750,-62.9,-7.460,-27.930,6.750,-62.9
2025-09-03T15:17:00.424687,-7.770,-31.060,6.980,-62.9,-7.770,-31.060,6.980,-62.9
2025-09-03T15:17:00.426675,-8.180,-34.720,7.340,-62.9,-8.180,-34.720,7.340,-62.9
2025-09-03T15:17:00.428675,-8.580,-38.070,7.680,-62.9,-8.580,-38.070,7.680,-62.9
2025-09-03T15:17:00.430677,-8.990,-41.430,8.020,-62.9,-8.990,-41.430,8.020,-62.9
2025-09-03T15:17:00.432676,-9.330,-44.620,8.310,-62.9,-9.330,-44.620,8.310,-62.9
2025-09-03T15:17:00.983826,-9.550,-47.370,8.600,-62.9,-9.550,-47.370,8.600,-62.9
2025-09-03T15:17:00.985823,-9.570,-50.080,8.930,-62.9,-9.570,-50.080,8.930,-62.9
2025-09-03T15:17:00.987821,-9.290,-52.640,9.250,-62.9,-9.290,-52.640,9.250,-62.9
2025-09-03T15:17:00.988821,-8.950,-54.180,55.560,1722.2,-8.950,-54.180,55.560,1722.2
2025-09-03T15:17:01.057820,-1.570,-3.000,14.120,-62.6,-1.570,-3.000,14.120,-62.6
2025-09-03T15:17:01.058821,-1.570,-3.000,14.120,-62.6,-1.570,-3.000,14.120,-62.6
2025-09-03T15:17:01.060820,-1.570,-2.990,14.120,-62.6,-1.570,-2.990,14.120,-62.6
2025-09-03T15:17:01.061822,-1.570,-3.000,14.120,-62.6,-1.570,-3.000,14.120,-62.6
2025-09-03T15:17:01.062822,-1.570,-3.000,14.120,-62.6,-1.570,-3.000,14.120,-62.6
2025-09-03T15:17:01.385396,-1.570,-2.990,14.120,-62.6,-1.570,-2.990,14.120,-62.6
2025-09-03T15:17:01.387395,-1.590,-2.990,14.120,-62.6,-1.590,-2.990,14.120,-62.6
2025-09-03T15:17:01.388404,-1.590,-2.990,14.120,-62.6,-1.590,-2.990,14.120,-62.6
2025-09-03T15:17:01.390397,-1.590,-2.990,14.120,-62.6,-1.590,-2.990,14.120,-62.6
2025-09-03T15:17:01.391396,-1.590,-2.990,14.120,-62.6,-1.590,-2.990,14.120,-62.6
2025-09-03T15:17:01.719157,-1.590,-2.990,14.120,-62.6,-1.590,-2.990,14.120,-62.6
2025-09-03T15:17:01.721155,-1.600,-2.990,14.120,-62.6,-1.600,-2.990,14.120,-62.6
2025-09-03T15:17:01.723156,-1.610,-2.990,14.120,-62.6,-1.610,-2.990,14.120,-62.6
2025-09-03T15:17:01.724156,-1.610,-2.990,14.120,-62.6,-1.610,-2.990,14.120,-62.6
2025-09-03T15:17:01.725155,-1.600,-2.990,14.130,-62.6,-1.600,-2.990,14.130,-62.6
2025-09-03T15:17:02.066422,-1.610,-2.990,14.130,-62.6,-1.610,-2.990,14.130,-62.6
2025-09-03T15:17:02.072421,-1.610,-2.990,14.130,-62.6,-1.610,-2.990,14.130,-62.6
2025-09-03T15:17:02.075422,-1.610,-2.990,14.130,-62.6,-1.610,-2.990,14.130,-62.6
2025-09-03T15:17:02.077414,-1.610,-2.990,14.140,-62.6,-1.610,-2.990,14.140,-62.6
2025-09-03T15:17:02.078414,-1.610,-2.990,14.140,-62.6,-1.610,-2.990,14.140,-62.6
2025-09-03T15:17:02.400956,-1.610,-2.990,14.140,-62.6,-1.610,-2.990,14.140,-62.6
2025-09-03T15:17:02.402955,-1.610,-2.990,14.140,-62.6,-1.610,-2.990,14.140,-62.6
2025-09-03T15:17:02.403956,-1.610,-2.990,14.140,-62.6,-1.610,-2.990,14.140,-62.6
2025-09-03T15:17:02.404955,-1.610,-2.980,14.140,-62.6,-1.610,-2.980,14.140,-62.6
2025-09-03T15:17:02.405957,-1.620,-2.980,241.980,1722.2,-1.620,-2.980,241.980,1722.2
2025-09-03T15:17:02.426954,-1.610,-2.980,14.150,-62.7,0.200,-0.300,180.000,1000.0
2025-09-03T15:17:02.427954,-1.610,-2.980,14.150,-62.7,0.200,-0.300,180.000,1000.0
2025-09-03T15:17:02.428955,-1.610,-2.980,14.150,-62.7,0.200,-0.300,180.000,1000.0
2025-09-03T15:17:02.540899,-1.610,-2.990,14.150,-62.7,0.200,-0.300,180.000,1000.0
2025-09-03T15:17:02.541898,-1.610,-2.990,14.150,-62.7,0.200,-0.300,180.000,1000.0
2025-09-03T15:17:02.543897,-1.610,-2.990,14.150,-62.7,0.200,-0.300,180.360,1000.0
2025-09-03T15:17:02.544908,-1.620,-2.990,14.150,-62.7,0.200,-0.300,180.000,1000.0
2025-09-03T15:17:02.545898,-1.620,-2.990,14.150,-62.7,0.200,-0.300,180.000,1000.0
2025-09-03T15:17:02.664746,-1.620,-2.990,14.150,-62.7,0.200,-0.300,180.000,1000.0
2025-09-03T15:17:02.665755,-1.620,-2.990,14.150,-62.7,0.200,-0.300,180.000,1000.0
2025-09-03T15:17:02.666757,-1.620,-2.990,14.150,-62.7,0.200,-0.300,180.000,1000.0
2025-09-03T15:17:02.667749,-1.620,-2.990,14.150,-62.7,0.200,-0.300,180.000,1000.0
2025-09-03T15:17:02.669749,-1.620,-2.990,14.150,-62.7,0.200,-0.300,180.000,1000.0
2025-09-03T15:17:02.774711,-1.620,-2.990,14.150,-62.7,0.200,-0.300,180.000,1000.0
2025-09-03T15:17:02.776703,-1.620,-2.990,14.150,-62.7,0.200,-0.300,180.000,1000.0
2025-09-03T15:17:02.778703,-1.620,-2.990,14.150,-62.7,0.200,-0.300,180.000,1000.0
2025-09-03T15:17:02.779704,-1.620,-2.990,14.150,-62.7,0.200,-0.300,180.000,1000.0
2025-09-03T15:17:02.781704,-1.620,-2.990,14.150,-62.7,0.200,-0.300,180.000,1000.0
2025-09-03T15:17:02.902211,-1.620,-3.000,14.150,-62.7,0.200,-0.300,180.000,1000.0
2025-09-03T15:17:02.906200,-1.620,-3.000,14.150,-62.6,0.200,-0.300,180.000,1000.0
2025-09-03T15:17:02.909200,-1.620,-3.000,14.150,-62.6,0.200,-0.300,180.000,1000.0
2025-09-03T15:17:02.910197,-1.630,-3.000,14.150,-62.6,0.200,-0.300,180.000,1000.0
