Timestamp,Roll_Angle,Pitch_Angle,Yaw_Angle,Altitude,Roll_Setpoint,Pitch_Setpoint,Yaw_Setpoint,Altitude_Setpoint
2025-09-16T15:51:54.752708,-1.030,7.570,235.810,-61.1,0.400,-0.400,181.080,1000.0
2025-09-16T15:51:54.798711,-1.030,7.570,235.810,-61.1,0.400,-0.400,181.080,1000.0
2025-09-16T15:51:54.800710,-1.030,7.570,235.810,-61.1,0.400,-0.400,181.080,1000.0
2025-09-16T15:51:54.828718,-1.030,7.560,235.810,-61.1,0.400,-0.400,181.080,1000.0
2025-09-16T15:51:54.829717,-1.030,7.560,235.810,-61.1,0.400,-0.400,181.080,1000.0
2025-09-16T15:51:54.857718,-1.030,7.560,235.810,-61.1,0.400,-0.400,181.080,1000.0
2025-09-16T15:51:54.860717,-1.030,7.560,235.810,-61.0,0.400,-0.400,181.080,1000.0
2025-09-16T15:51:54.888724,-1.030,7.560,235.810,-61.0,0.400,-0.400,181.080,1000.0
2025-09-16T15:51:54.917718,-1.030,7.560,235.810,-61.0,0.400,-0.400,181.080,1000.0
2025-09-16T15:51:54.919717,-1.030,7.560,235.810,-61.0,0.400,-0.400,181.080,1000.0
2025-09-16T15:51:54.963542,-1.030,7.560,235.810,-61.0,0.400,-0.400,181.080,1000.0
2025-09-16T15:51:54.993541,-1.030,7.560,235.810,-61.0,0.400,-0.400,181.080,1000.0
2025-09-16T15:51:54.994540,-1.030,7.560,235.810,-61.1,0.400,-0.400,181.080,1000.0
2025-09-16T15:51:55.022545,-1.030,7.560,235.810,-61.1,0.400,-0.400,181.080,1000.0
2025-09-16T15:51:55.024542,-1.030,7.560,235.810,-61.1,0.400,-0.400,181.080,1000.0
2025-09-16T15:51:55.053532,-1.030,7.560,235.810,-61.1,0.400,-0.400,181.080,1000.0
2025-09-16T15:51:55.068531,-1.030,7.560,235.810,-61.1,0.400,-0.400,181.080,1000.0
2025-09-16T15:51:55.083564,-1.030,7.560,235.810,-61.1,0.400,-0.400,181.080,1000.0
2025-09-16T15:51:55.128975,-1.030,7.560,235.810,-61.1,0.400,-0.400,181.080,1000.0
2025-09-16T15:51:55.130316,-1.030,7.560,235.810,-61.1,0.400,-0.400,181.080,1000.0
2025-09-16T15:51:55.159743,-1.030,7.560,235.810,-61.1,0.400,-0.400,181.080,1000.0
2025-09-16T15:51:55.162734,-1.040,7.560,235.810,-61.1,0.400,-0.400,181.080,1000.0
2025-09-16T15:51:55.205120,-1.040,7.560,235.810,-61.1,0.400,-0.400,181.080,1000.0
2025-09-16T15:51:55.235409,-1.030,7.550,235.810,-61.1,0.400,-0.400,181.080,1000.0
2025-09-16T15:51:55.236408,-1.030,7.550,235.810,-61.1,0.400,-0.400,181.080,1000.0
2025-09-16T15:51:55.265306,-1.030,7.550,235.820,-61.1,0.400,-0.400,181.080,1000.0
2025-09-16T15:51:55.269051,-1.040,7.540,235.810,-61.1,0.400,-0.400,181.080,1000.0
2025-09-16T15:51:55.295274,-1.040,7.540,235.810,-61.1,0.400,-0.400,181.080,1000.0
2025-09-16T15:51:55.323912,-1.040,7.540,235.810,-61.1,0.400,-0.400,181.080,1000.0
2025-09-16T15:51:55.325917,-1.040,7.540,235.810,-61.1,0.400,-0.400,181.080,1000.0
2025-09-16T15:51:55.355417,-1.030,7.540,235.820,-61.1,0.400,-0.400,181.080,1000.0
2025-09-16T15:51:55.359429,-1.030,7.540,235.820,-61.1,0.400,-0.400,181.080,1000.0
2025-09-16T15:51:55.385538,-1.020,7.540,235.820,-61.1,0.400,-0.400,181.080,1000.0
2025-09-16T15:51:55.415686,-1.020,7.540,235.820,-61.1,0.400,-0.400,181.080,1000.0
2025-09-16T15:51:55.417687,-1.020,7.540,235.810,-61.1,0.400,-0.400,181.080,1000.0
2025-09-16T15:51:55.475462,-1.020,7.530,235.810,-61.1,0.400,-0.400,181.080,1000.0
2025-09-16T15:51:55.478460,-1.020,7.540,235.810,-61.1,0.400,-0.400,181.080,1000.0
2025-09-16T15:51:55.479462,-1.020,7.540,235.810,-61.1,0.400,-0.400,181.080,1000.0
2025-09-16T15:51:55.536196,-1.010,7.540,235.810,-61.1,0.400,-0.400,181.080,1000.0
2025-09-16T15:51:55.537188,-1.010,7.540,235.810,-61.1,0.400,-0.400,181.080,1000.0
2025-09-16T15:51:55.566561,-1.010,7.540,235.810,-61.1,0.400,-0.400,181.080,1000.0
2025-09-16T15:51:55.569556,-1.010,7.540,235.810,-61.1,0.400,-0.400,181.080,1000.0
2025-09-16T15:51:55.596282,-1.010,7.550,235.810,-61.1,0.400,-0.400,181.080,1000.0
2025-09-16T15:51:55.628632,-1.010,7.550,235.810,-61.1,0.400,-0.400,181.080,1000.0
2025-09-16T15:51:55.629632,-1.010,7.550,235.810,-61.1,0.400,-0.400,181.080,1000.0
2025-09-16T15:51:55.657358,-1.010,7.550,235.810,-61.1,0.400,-0.400,181.080,1000.0
2025-09-16T15:51:55.660350,-1.000,7.550,235.810,-61.1,0.400,-0.400,181.080,1000.0
2025-09-16T15:51:55.688378,-1.000,7.550,235.810,-61.1,0.400,-0.400,181.080,1000.0
2025-09-16T15:51:55.733380,-1.000,7.550,235.810,-61.1,0.400,-0.400,181.080,1000.0
2025-09-16T15:51:55.735379,-1.000,7.550,235.810,-61.1,0.400,-0.400,181.080,1000.0
2025-09-16T15:51:55.763561,-1.000,7.550,235.810,-61.1,0.400,-0.400,181.080,1000.0
2025-09-16T15:51:55.779561,-1.000,7.550,235.810,-61.1,0.400,-0.400,181.080,1000.0
2025-09-16T15:51:55.793561,-1.000,7.550,235.810,-61.1,0.400,-0.400,181.080,1000.0
2025-09-16T15:51:55.838574,-0.990,7.550,235.810,-61.1,0.400,-0.400,181.080,1000.0
2025-09-16T15:51:55.839574,-1.000,7.560,235.810,-61.1,0.400,-0.400,181.080,1000.0
2025-09-16T15:51:55.868801,-1.000,7.560,235.810,-61.1,0.400,-0.400,181.080,1000.0
2025-09-16T15:51:55.872801,-1.000,7.560,235.810,-61.1,0.400,-0.400,181.080,1000.0
2025-09-16T15:51:55.898569,-1.000,7.560,235.810,-61.1,0.400,-0.400,181.080,1000.0
2025-09-16T15:51:55.900573,-1.000,7.560,235.810,-61.1,0.400,-0.400,181.080,1000.0
2025-09-16T15:51:55.928839,-1.000,7.560,235.810,-61.1,0.400,-0.400,181.080,1000.0
2025-09-16T15:51:55.958530,-1.000,7.560,235.810,-61.0,0.400,-0.400,181.080,1000.0
2025-09-16T15:51:55.961529,-1.000,7.560,235.810,-61.0,0.400,-0.400,181.080,1000.0
2025-09-16T15:51:56.004511,-1.000,7.560,235.810,-61.0,0.400,-0.400,181.080,1000.0
2025-09-16T15:51:56.005511,-1.010,7.560,235.810,-61.1,0.400,-0.400,181.080,1000.0
2025-09-16T15:51:56.034659,-1.010,7.560,235.810,-61.1,0.400,-0.400,181.080,1000.0
2025-09-16T15:51:56.065180,-1.010,7.560,235.810,-61.1,0.400,-0.400,181.080,1000.0
2025-09-16T15:51:56.080181,-1.010,7.560,235.810,-61.1,0.400,-0.400,181.080,1000.0
2025-09-16T15:51:56.095182,-1.010,7.560,235.810,-61.1,0.400,-0.400,181.080,1000.0
2025-09-16T15:51:56.097181,-1.020,7.560,235.810,-61.1,0.400,-0.400,181.080,1000.0
2025-09-16T15:51:56.125138,-1.020,7.560,235.810,-61.1,0.400,-0.400,181.080,1000.0
2025-09-16T15:51:56.170199,-1.020,7.560,235.810,-61.1,0.400,-0.400,181.080,1000.0
2025-09-16T15:51:56.172336,-1.020,7.560,235.810,-61.1,0.400,-0.400,181.080,1000.0
2025-09-16T15:51:56.200211,-1.020,7.560,235.810,-61.1,0.400,-0.400,181.080,1000.0
2025-09-16T15:51:56.202212,-1.020,7.560,235.810,-61.1,0.400,-0.400,181.080,1000.0
2025-09-16T15:51:56.230118,-1.020,7.560,235.810,-61.1,0.400,-0.400,181.080,1000.0
2025-09-16T15:51:56.275822,-1.020,7.560,235.810,-61.1,0.400,-0.400,181.080,1000.0
2025-09-16T15:51:56.278819,-1.030,7.570,235.810,-61.1,0.400,-0.400,181.080,1000.0
2025-09-16T15:51:56.305636,-1.030,7.570,235.810,-61.1,0.400,-0.400,181.080,1000.0
2025-09-16T15:51:56.306635,-1.030,7.570,235.810,-61.1,0.400,-0.400,181.080,1000.0
2025-09-16T15:51:56.335836,-1.030,7.570,235.810,-61.1,0.400,-0.400,181.080,1000.0
2025-09-16T15:51:56.366031,-1.030,7.560,235.810,-61.1,0.400,-0.400,181.080,1000.0
2025-09-16T15:51:56.370738,-1.030,7.560,235.810,-61.1,0.400,-0.400,181.080,1000.0
2025-09-16T15:51:56.396748,-1.030,7.560,235.810,-61.1,0.400,-0.400,181.080,1000.0
2025-09-16T15:51:56.397747,-1.030,7.560,235.810,-61.1,0.400,-0.400,181.080,1000.0
2025-09-16T15:51:56.427313,-1.030,7.560,235.810,-61.1,0.400,-0.400,181.080,1000.0
2025-09-16T15:51:56.473312,-1.030,7.560,235.810,-61.1,0.400,-0.400,181.080,1000.0
2025-09-16T15:51:56.476311,-1.030,7.560,235.810,-61.1,0.400,-0.400,181.080,1000.0
2025-09-16T15:51:56.502226,-1.030,7.570,235.810,-61.1,0.400,-0.400,181.080,1000.0
2025-09-16T15:51:56.504229,-1.020,7.560,235.810,-61.1,0.400,-0.400,181.080,1000.0
2025-09-16T15:51:56.548355,-1.020,7.560,235.810,-61.1,0.400,-0.400,181.080,1000.0
2025-09-16T15:51:56.550356,-1.020,7.560,235.810,-61.1,0.400,-0.400,181.080,1000.0
2025-09-16T15:51:56.578356,-1.020,7.560,235.810,-61.1,0.400,-0.400,181.080,1000.0
2025-09-16T15:51:56.608359,-1.020,7.560,235.810,-61.1,0.400,-0.400,181.080,1000.0
2025-09-16T15:51:56.610355,-1.020,7.560,235.810,-61.1,0.400,-0.400,181.080,1000.0
2025-09-16T15:51:56.638355,-1.010,7.560,235.810,-61.1,0.400,-0.400,181.080,1000.0
2025-09-16T15:51:56.668355,-1.010,7.560,235.810,-61.1,0.400,-0.400,181.080,1000.0
2025-09-16T15:51:56.671354,-1.010,7.560,235.810,-61.1,0.400,-0.400,181.080,1000.0
2025-09-16T15:51:56.698386,-1.010,7.560,235.810,-61.1,0.400,-0.400,181.080,1000.0
2025-09-16T15:51:56.700395,-1.010,7.560,235.810,-61.1,0.400,-0.400,181.080,1000.0
2025-09-16T15:51:56.728529,-1.010,7.560,235.810,-61.1,0.400,-0.400,181.080,1000.0
2025-09-16T15:51:56.758324,-1.010,7.560,235.810,-61.1,0.400,-0.400,181.080,1000.0
2025-09-16T15:51:56.788550,-1.000,7.560,235.810,-61.1,0.400,-0.400,181.080,1000.0
2025-09-16T15:51:56.790549,-1.000,7.560,235.810,-61.1,0.400,-0.400,181.080,1000.0
2025-09-16T15:51:56.818786,-1.000,7.560,235.810,-61.1,0.400,-0.400,181.080,1000.0
2025-09-16T15:51:56.834505,-1.000,7.560,235.810,-61.1,0.400,-0.400,181.080,1000.0
2025-09-16T15:51:56.880291,-1.000,7.560,235.810,-61.1,0.400,-0.400,181.080,1000.0
2025-09-16T15:51:56.884293,-1.000,7.560,235.810,-61.1,0.400,-0.400,181.080,1000.0
2025-09-16T15:51:56.909298,-1.000,7.560,235.810,-61.1,0.400,-0.400,181.080,1000.0
2025-09-16T15:51:56.911291,-1.000,7.560,235.810,-61.1,0.400,-0.400,181.080,1000.0
2025-09-16T15:51:56.940028,-1.000,7.560,235.810,-61.1,0.400,-0.400,181.080,1000.0
2025-09-16T15:51:56.942028,-1.000,7.560,235.810,-61.1,0.400,-0.400,181.080,1000.0
2025-09-16T15:51:56.970915,-1.000,7.560,235.810,-61.1,0.400,-0.400,181.080,1000.0
2025-09-16T15:51:57.001099,-1.000,7.560,235.810,-61.1,0.400,-0.400,181.080,1000.0
2025-09-16T15:51:57.002112,-1.000,7.560,235.810,-61.1,0.400,-0.400,181.080,1000.0
2025-09-16T15:51:57.031066,-1.000,7.560,235.810,-61.1,0.400,-0.400,181.080,1000.0
2025-09-16T15:51:57.033082,-1.000,7.560,235.810,-61.1,0.400,-0.400,181.080,1000.0
2025-09-16T15:51:57.076140,-1.000,7.560,235.810,-61.1,0.400,-0.400,181.080,1000.0
2025-09-16T15:51:57.106608,-1.000,7.560,235.810,-61.1,0.400,-0.400,181.080,1000.0
2025-09-16T15:51:57.108605,-0.990,7.560,235.810,-61.1,0.400,-0.400,181.080,1000.0
2025-09-16T15:51:57.136970,-1.000,7.560,235.810,-61.2,0.400,-0.400,181.080,1000.0
2025-09-16T15:51:57.151991,-1.000,7.560,235.810,-61.2,0.400,-0.400,181.080,1000.0
2025-09-16T15:51:57.167001,-1.010,7.560,235.810,-61.2,0.400,-0.400,181.080,1000.0
2025-09-16T15:51:57.212182,-1.010,7.560,235.810,-61.1,0.400,-0.400,181.080,1000.0
2025-09-16T15:51:57.213182,-1.010,7.560,235.810,-61.1,0.400,-0.400,181.080,1000.0
2025-09-16T15:51:57.242154,-1.010,7.560,235.810,-61.1,0.400,-0.400,181.080,1000.0
2025-09-16T15:51:57.244154,-1.010,7.560,235.810,-61.1,0.400,-0.400,181.080,1000.0
2025-09-16T15:51:57.272195,-1.020,7.550,235.810,-61.1,0.400,-0.400,181.080,1000.0
2025-09-16T15:51:57.302330,-1.020,7.550,235.810,-61.1,0.400,-0.400,181.080,1000.0
2025-09-16T15:51:57.303330,-1.020,7.550,235.810,-61.1,0.400,-0.400,181.080,1000.0
2025-09-16T15:51:57.347480,-1.020,7.550,235.810,-61.1,0.400,-0.400,181.080,1000.0
2025-09-16T15:51:57.349472,-1.020,7.540,235.810,-61.1,0.400,-0.400,181.080,1000.0
2025-09-16T15:51:57.377719,-1.020,7.540,235.810,-61.1,0.400,-0.400,181.080,1000.0
2025-09-16T15:51:57.407914,-1.010,7.540,235.810,-61.1,0.400,-0.400,181.080,1000.0
2025-09-16T15:51:57.409914,-1.010,7.540,235.810,-61.1,0.400,-0.400,181.080,1000.0
2025-09-16T15:51:57.437495,-1.010,7.540,235.810,-61.1,0.400,-0.400,181.080,1000.0
2025-09-16T15:51:57.439489,-1.010,7.540,235.810,-61.1,0.400,-0.400,181.080,1000.0
2025-09-16T15:51:57.467909,-1.010,7.550,235.810,-61.1,0.400,-0.400,181.080,1000.0
2025-09-16T15:51:57.497581,-1.010,7.550,235.810,-61.1,0.400,-0.400,181.080,1000.0
2025-09-16T15:51:57.514116,-1.010,7.550,235.810,-61.1,0.400,-0.400,181.080,1000.0
2025-09-16T15:51:57.544495,-1.010,7.550,235.810,-61.1,0.400,-0.400,181.080,1000.0
2025-09-16T15:51:57.545495,-1.000,7.550,235.810,-61.1,0.400,-0.400,181.080,1000.0
2025-09-16T15:51:57.573750,-1.000,7.550,235.810,-61.0,0.400,-0.400,181.080,1000.0
2025-09-16T15:51:57.619527,-1.000,7.550,235.810,-61.0,0.400,-0.400,181.080,1000.0
2025-09-16T15:51:57.620525,-1.000,7.550,235.810,-61.0,0.400,-0.400,181.080,1000.0
2025-09-16T15:51:57.649438,-1.000,7.550,235.810,-61.0,0.400,-0.400,181.080,1000.0
2025-09-16T15:51:57.651440,-1.000,7.550,235.810,-61.0,0.400,-0.400,181.080,1000.0
2025-09-16T15:51:57.679289,-1.000,7.560,235.810,-61.0,0.400,-0.400,181.080,1000.0
2025-09-16T15:51:57.708300,-1.000,7.560,235.810,-61.0,0.400,-0.400,181.080,1000.0
2025-09-16T15:51:57.710292,-1.000,7.560,235.810,-61.0,0.400,-0.400,181.080,1000.0
2025-09-16T15:51:57.738297,-1.000,7.560,235.810,-61.0,0.400,-0.400,181.080,1000.0
2025-09-16T15:51:57.740281,-1.000,7.560,235.810,-61.1,0.400,-0.400,181.080,1000.0
2025-09-16T15:51:57.769369,-1.000,7.560,235.810,-61.1,0.400,-0.400,181.080,1000.0
2025-09-16T15:51:57.799137,-1.000,7.560,235.810,-61.0,0.400,-0.400,181.080,1000.0
2025-09-16T15:51:57.813889,-1.000,7.560,235.810,-61.0,0.400,-0.400,181.080,1000.0
2025-09-16T15:51:57.858162,-1.000,7.560,235.810,-61.0,0.400,-0.400,181.080,1000.0
2025-09-16T15:51:57.860152,-1.000,7.560,235.810,-61.0,0.400,-0.400,181.080,1000.0
2025-09-16T15:51:57.889110,-1.000,7.560,235.810,-61.0,0.400,-0.400,181.080,1000.0
2025-09-16T15:51:57.891108,-1.000,7.560,235.810,-61.1,0.400,-0.400,181.080,1000.0
2025-09-16T15:51:57.919267,-1.000,7.560,235.810,-61.1,0.400,-0.400,181.080,1000.0
2025-09-16T15:51:57.949335,-1.000,7.550,235.810,-61.1,0.400,-0.400,181.080,1000.0
2025-09-16T15:51:57.951338,-1.000,7.550,235.810,-61.1,0.400,-0.400,181.080,1000.0
2025-09-16T15:51:57.979036,-1.010,7.550,235.810,-61.1,0.400,-0.400,181.080,1000.0
2025-09-16T15:51:57.980034,-1.010,7.550,235.810,-61.1,0.400,-0.400,181.080,1000.0
2025-09-16T15:51:58.009035,-1.010,7.540,235.810,-61.1,0.400,-0.400,181.080,1000.0
2025-09-16T15:51:58.039696,-1.010,7.540,235.810,-61.1,0.400,-0.400,181.080,1000.0
2025-09-16T15:51:58.040698,-1.020,7.540,235.810,-61.1,0.400,-0.400,181.080,1000.0
2025-09-16T15:51:58.084460,-1.020,7.540,235.810,-61.1,0.400,-0.400,181.080,1000.0
2025-09-16T15:51:58.086478,-1.020,7.540,235.810,-61.1,0.400,-0.400,181.080,1000.0
2025-09-16T15:51:58.114737,-1.020,7.540,235.810,-61.1,0.400,-0.400,181.080,1000.0
2025-09-16T15:51:58.145319,-1.020,7.540,235.810,-61.1,0.400,-0.400,181.080,1000.0
2025-09-16T15:51:58.159288,-1.020,7.540,235.810,-61.1,0.400,-0.400,181.080,1000.0
2025-09-16T15:51:58.175284,-1.020,7.540,235.810,-61.1,0.400,-0.400,181.080,1000.0
2025-09-16T15:51:58.177281,-1.030,7.540,235.810,-61.1,0.400,-0.400,181.080,1000.0
2025-09-16T15:51:58.219280,-1.030,7.540,235.810,-61.1,0.400,-0.400,181.080,1000.0
2025-09-16T15:51:58.249987,-1.030,7.540,235.810,-61.1,0.400,-0.400,181.080,1000.0
2025-09-16T15:51:58.250988,-1.030,7.540,235.810,-61.1,0.400,-0.400,181.080,1000.0
2025-09-16T15:51:58.279985,-1.030,7.550,235.810,-61.1,0.400,-0.400,181.080,1000.0
2025-09-16T15:51:58.280997,-1.030,7.550,235.810,-61.0,0.400,-0.400,181.080,1000.0
2025-09-16T15:51:58.309984,-1.030,7.550,235.810,-61.0,0.400,-0.400,181.080,1000.0
2025-09-16T15:51:58.354037,-1.030,7.550,235.810,-61.0,0.400,-0.400,181.080,1000.0
2025-09-16T15:51:58.356035,-1.030,7.550,235.810,-61.0,0.400,-0.400,181.080,1000.0
2025-09-16T15:51:58.385032,-1.030,7.550,235.810,-61.0,0.400,-0.400,181.080,1000.0
2025-09-16T15:51:58.386032,-1.030,7.550,235.810,-61.0,0.400,-0.400,181.080,1000.0
2025-09-16T15:51:58.414029,-1.030,7.550,235.810,-61.0,0.400,-0.400,181.080,1000.0
2025-09-16T15:51:58.443881,-1.030,7.550,235.810,-61.0,0.400,-0.400,181.080,1000.0
2025-09-16T15:51:58.445885,-1.030,7.550,235.810,-61.0,0.400,-0.400,181.080,1000.0
2025-09-16T15:51:58.474875,-1.030,7.560,235.810,-61.0,0.400,-0.400,181.080,1000.0
2025-09-16T15:51:58.475876,-1.030,7.560,235.810,-61.0,0.400,-0.400,181.080,1000.0
2025-09-16T15:51:58.504886,-1.020,7.560,235.810,-61.0,0.400,-0.400,181.080,1000.0
2025-09-16T15:51:58.550007,-1.020,7.560,235.810,-61.0,0.400,-0.400,181.080,1000.0
2025-09-16T15:51:58.552007,-1.020,7.560,235.810,-61.0,0.400,-0.400,181.080,1000.0
2025-09-16T15:51:58.594014,-1.020,7.560,235.810,-61.0,0.400,-0.400,181.080,1000.0
2025-09-16T15:51:58.596008,-1.010,7.560,235.810,-61.0,0.400,-0.400,181.080,1000.0
2025-09-16T15:51:58.625040,-1.010,7.560,235.810,-61.0,0.400,-0.400,181.080,1000.0
2025-09-16T15:51:58.626048,-1.010,7.560,235.810,-61.0,0.400,-0.400,181.080,1000.0
2025-09-16T15:51:58.655009,-1.010,7.560,235.810,-61.0,0.400,-0.400,181.080,1000.0
2025-09-16T15:51:58.685044,-1.010,7.560,235.810,-61.0,0.400,-0.400,181.080,1000.0
2025-09-16T15:51:58.687041,-1.010,7.560,235.810,-61.0,0.400,-0.400,181.080,1000.0
2025-09-16T15:51:58.715397,-1.010,7.560,235.810,-61.0,0.400,-0.400,181.080,1000.0
2025-09-16T15:51:58.745846,-1.010,7.560,235.810,-61.0,0.400,-0.400,181.080,1000.0
2025-09-16T15:51:58.747845,-1.010,7.560,235.810,-61.0,0.400,-0.400,181.080,1000.0
2025-09-16T15:51:58.775845,-1.000,7.560,235.810,-61.0,0.400,-0.400,181.080,1000.0
2025-09-16T15:51:58.776846,-1.000,7.560,235.810,-61.0,0.400,-0.400,181.080,1000.0
2025-09-16T15:51:58.820608,-1.000,7.560,235.810,-61.0,0.400,-0.400,181.080,1000.0
2025-09-16T15:51:58.821609,-1.000,7.560,235.810,-61.0,0.400,-0.400,181.080,1000.0
2025-09-16T15:51:58.850846,-1.000,7.560,235.810,-61.0,0.400,-0.400,181.080,1000.0
2025-09-16T15:51:58.896681,-1.010,7.560,235.810,-61.0,0.400,-0.400,181.080,1000.0
2025-09-16T15:51:58.897682,-1.010,7.560,235.810,-61.0,0.400,-0.400,181.080,1000.0
2025-09-16T15:51:58.926907,-1.010,7.560,235.810,-61.0,0.400,-0.400,181.080,1000.0
2025-09-16T15:51:58.927905,-1.010,7.560,235.810,-61.0,0.400,-0.400,181.080,1000.0
2025-09-16T15:51:58.957395,-1.010,7.560,235.810,-61.0,0.400,-0.400,181.080,1000.0
2025-09-16T15:51:58.988077,-1.020,7.560,235.810,-61.0,0.400,-0.400,181.080,1000.0
2025-09-16T15:51:58.990077,-1.020,7.560,235.810,-61.0,0.400,-0.400,181.080,1000.0
2025-09-16T15:51:59.018102,-1.020,7.560,235.810,-61.0,0.400,-0.400,181.080,1000.0
2025-09-16T15:51:59.019103,-1.020,7.560,235.810,-61.0,0.400,-0.400,181.080,1000.0
2025-09-16T15:51:59.049356,-1.020,7.560,235.810,-61.0,0.400,-0.400,181.080,1000.0
2025-09-16T15:51:59.079280,-1.020,7.560,235.810,-61.0,0.400,-0.400,181.080,1000.0
2025-09-16T15:51:59.080281,-1.020,7.560,235.810,-61.0,0.400,-0.400,181.080,1000.0
2025-09-16T15:51:59.109790,-1.020,7.560,235.810,-61.0,0.400,-0.400,181.080,1000.0
2025-09-16T15:51:59.110791,-1.020,7.560,235.810,-61.0,0.400,-0.400,181.080,1000.0
2025-09-16T15:51:59.155942,-1.020,7.560,235.810,-61.0,0.400,-0.400,181.080,1000.0
2025-09-16T15:51:59.185996,-1.030,7.560,235.810,-61.0,0.400,-0.400,181.080,1000.0
2025-09-16T15:51:59.187995,-1.030,7.560,235.810,-61.0,0.400,-0.400,181.080,1000.0
2025-09-16T15:51:59.216122,-1.030,7.560,235.810,-61.0,0.400,-0.400,181.080,1000.0
2025-09-16T15:51:59.229956,-1.030,7.560,235.810,-61.0,0.400,-0.400,181.080,1000.0
2025-09-16T15:51:59.259923,-1.030,7.560,235.810,-61.0,0.400,-0.400,181.080,1000.0
2025-09-16T15:51:59.290921,-1.030,7.560,235.810,-61.0,0.400,-0.400,181.080,1000.0
2025-09-16T15:51:59.291922,-1.020,7.560,235.810,-61.0,0.400,-0.400,181.080,1000.0
2025-09-16T15:51:59.320918,-1.030,7.560,235.810,-61.0,0.400,-0.400,181.080,1000.0
2025-09-16T15:51:59.321919,-1.030,7.560,235.810,-61.0,0.400,-0.400,181.080,1000.0
2025-09-16T15:51:59.351229,-1.030,7.560,235.810,-61.0,0.400,-0.400,181.080,1000.0
2025-09-16T15:51:59.396013,-1.030,7.560,235.810,-61.0,0.400,-0.400,181.080,1000.0
2025-09-16T15:51:59.397024,-1.030,7.560,235.810,-61.0,0.400,-0.400,181.080,1000.0
2025-09-16T15:51:59.424954,-1.030,7.560,235.810,-61.0,0.400,-0.400,181.080,1000.0
2025-09-16T15:51:59.426955,-1.030,7.560,235.810,-61.0,0.400,-0.400,181.080,1000.0
2025-09-16T15:51:59.455786,-1.020,7.560,235.810,-61.0,0.400,-0.400,181.080,1000.0
2025-09-16T15:51:59.485856,-1.020,7.560,235.810,-61.0,0.400,-0.400,181.080,1000.0
2025-09-16T15:51:59.488853,-1.020,7.560,235.810,-61.0,0.400,-0.400,181.080,1000.0
2025-09-16T15:51:59.515910,-1.020,7.560,235.810,-61.0,0.400,-0.400,181.080,1000.0
2025-09-16T15:51:59.517910,-1.010,7.560,235.810,-61.0,0.400,-0.400,181.080,1000.0
2025-09-16T15:51:59.545908,-1.010,7.560,235.810,-61.0,0.400,-0.400,181.080,1000.0
2025-09-16T15:51:59.590907,-1.010,7.560,235.810,-61.0,0.400,-0.400,181.080,1000.0
2025-09-16T15:51:59.592908,-1.010,7.560,235.810,-61.0,0.400,-0.400,181.080,1000.0
2025-09-16T15:51:59.635908,-1.010,7.560,235.810,-61.0,0.400,-0.400,181.080,1000.0
2025-09-16T15:51:59.636872,-1.010,7.560,235.810,-61.0,0.400,-0.400,181.080,1000.0
2025-09-16T15:51:59.666939,-1.010,7.560,235.810,-61.0,0.400,-0.400,181.080,1000.0
2025-09-16T15:51:59.696974,-1.010,7.560,235.810,-61.0,0.400,-0.400,181.080,1000.0
2025-09-16T15:51:59.697976,-1.010,7.560,235.810,-61.0,0.400,-0.400,181.080,1000.0
2025-09-16T15:51:59.726847,-1.010,7.560,235.810,-61.0,0.400,-0.400,181.080,1000.0
2025-09-16T15:51:59.728858,-1.010,7.560,235.810,-61.0,0.400,-0.400,181.080,1000.0
2025-09-16T15:51:59.757018,-1.000,7.560,235.810,-61.0,0.400,-0.400,181.080,1000.0
2025-09-16T15:51:59.759018,-1.000,7.560,235.810,-61.0,0.400,-0.400,181.080,1000.0
2025-09-16T15:51:59.787214,-1.000,7.560,235.810,-61.0,0.400,-0.400,181.080,1000.0
2025-09-16T15:51:59.818160,-1.000,7.560,235.810,-61.0,0.400,-0.400,181.080,1000.0
2025-09-16T15:51:59.820158,-1.000,7.560,235.810,-61.0,0.400,-0.400,181.080,1000.0
2025-09-16T15:51:59.848918,-1.000,7.560,235.810,-61.0,0.400,-0.400,181.080,1000.0
2025-09-16T15:51:59.862825,-1.000,7.560,235.810,-61.0,0.400,-0.400,181.080,1000.0
2025-09-16T15:51:59.878842,-1.000,7.560,235.810,-61.0,0.400,-0.400,181.080,1000.0
2025-09-16T15:51:59.938318,-1.000,7.560,235.810,-61.0,0.400,-0.400,181.080,1000.0
2025-09-16T15:51:59.940318,-1.000,7.560,235.810,-61.0,0.400,-0.400,181.080,1000.0
2025-09-16T15:51:59.969227,-1.000,7.560,235.810,-61.0,0.400,-0.400,181.080,1000.0
2025-09-16T15:51:59.972088,-1.000,7.560,235.810,-61.1,0.400,-0.400,181.080,1000.0
2025-09-16T15:51:59.998097,-1.000,7.550,235.810,-61.0,0.400,-0.400,181.080,1000.0
2025-09-16T15:52:00.029112,-1.000,7.550,235.810,-61.0,0.400,-0.400,181.080,1000.0
2025-09-16T15:52:00.030111,-1.000,7.550,235.810,-61.1,0.400,-0.400,181.080,1000.0
2025-09-16T15:52:00.058973,-1.000,7.550,235.810,-61.1,0.400,-0.400,181.080,1000.0
2025-09-16T15:52:00.060974,-1.000,7.540,235.810,-61.1,0.400,-0.400,181.080,1000.0
2025-09-16T15:52:00.089126,-1.000,7.540,235.810,-61.1,0.400,-0.400,181.080,1000.0
2025-09-16T15:52:00.119414,-1.010,7.540,235.810,-61.1,0.400,-0.400,181.080,1000.0
2025-09-16T15:52:00.120415,-1.010,7.540,235.810,-61.1,0.400,-0.400,181.080,1000.0
2025-09-16T15:52:00.164659,-1.010,7.540,235.810,-61.1,0.400,-0.400,181.080,1000.0
2025-09-16T15:52:00.167659,-1.020,7.530,235.810,-61.1,0.400,-0.400,181.080,1000.0
2025-09-16T15:52:00.195248,-1.020,7.530,235.810,-61.1,0.400,-0.400,181.080,1000.0
2025-09-16T15:52:00.224977,-1.020,7.530,235.810,-61.0,0.400,-0.400,181.080,1000.0
2025-09-16T15:52:00.240271,-1.020,7.530,235.810,-61.0,0.400,-0.400,181.080,1000.0
2025-09-16T15:52:00.270317,-1.020,7.530,235.810,-61.0,0.400,-0.400,181.080,1000.0
2025-09-16T15:52:00.272318,-1.020,7.540,235.810,-61.0,0.400,-0.400,181.080,1000.0
2025-09-16T15:52:00.300924,-1.020,7.540,235.810,-61.0,0.400,-0.400,181.080,1000.0
2025-09-16T15:52:00.331140,-1.020,7.540,235.810,-61.0,0.400,-0.400,181.080,1000.0
2025-09-16T15:52:00.332144,-1.030,7.540,235.810,-61.0,0.400,-0.400,181.080,1000.0
2025-09-16T15:52:00.361987,-1.030,7.540,235.810,-61.0,0.400,-0.400,181.080,1000.0
2025-09-16T15:52:00.363986,-1.030,7.540,235.810,-61.0,0.400,-0.400,181.080,1000.0
2025-09-16T15:52:00.391000,-1.030,7.540,235.810,-61.0,0.400,-0.400,181.080,1000.0
2025-09-16T15:52:00.422571,-1.030,7.550,235.810,-61.0,0.400,-0.400,181.080,1000.0
2025-09-16T15:52:00.423569,-1.030,7.550,235.810,-61.0,0.400,-0.400,181.080,1000.0
2025-09-16T15:52:00.467578,-1.020,7.550,235.810,-61.0,0.400,-0.400,181.080,1000.0
2025-09-16T15:52:00.471575,-1.020,7.550,235.810,-61.0,0.400,-0.400,181.080,1000.0
2025-09-16T15:52:00.497617,-1.020,7.550,235.810,-61.0,0.400,-0.400,181.080,1000.0
2025-09-16T15:52:00.527315,-1.020,7.550,235.810,-61.0,0.400,-0.400,181.080,1000.0
2025-09-16T15:52:00.528315,-1.020,7.550,235.810,-61.0,0.400,-0.400,181.080,1000.0
2025-09-16T15:52:00.557333,-1.010,7.560,235.810,-61.0,0.400,-0.400,181.080,1000.0
2025-09-16T15:52:00.573288,-1.010,7.560,235.810,-61.0,0.400,-0.400,181.080,1000.0
2025-09-16T15:52:00.587677,-1.010,7.560,235.810,-61.0,0.400,-0.400,181.080,1000.0
2025-09-16T15:52:00.633055,-1.010,7.560,235.810,-61.0,0.400,-0.400,181.080,1000.0
2025-09-16T15:52:00.635050,-1.010,7.550,235.810,-61.0,0.400,-0.400,181.080,1000.0
2025-09-16T15:52:00.663050,-1.010,7.560,235.810,-61.0,0.400,-0.400,181.080,1000.0
2025-09-16T15:52:00.666047,-1.010,7.560,235.810,-61.0,0.400,-0.400,181.080,1000.0
2025-09-16T15:52:00.707987,-1.010,7.560,235.810,-61.0,0.400,-0.400,181.080,1000.0
2025-09-16T15:52:00.738190,-1.010,7.560,235.810,-61.0,0.400,-0.400,181.080,1000.0
2025-09-16T15:52:00.739188,-1.020,7.550,235.810,-61.0,0.400,-0.400,181.080,1000.0
2025-09-16T15:52:00.768227,-1.020,7.550,235.810,-61.0,0.400,-0.400,181.080,1000.0
2025-09-16T15:52:00.772230,-1.020,7.550,235.810,-61.0,0.400,-0.400,181.080,1000.0
2025-09-16T15:52:00.797933,-1.020,7.550,235.810,-61.0,0.400,-0.400,181.080,1000.0
2025-09-16T15:52:00.828854,-1.020,7.550,235.810,-61.0,0.400,-0.400,181.080,1000.0
2025-09-16T15:52:00.829853,-1.020,7.540,235.810,-61.0,0.400,-0.400,181.080,1000.0
2025-09-16T15:52:00.858458,-1.020,7.540,235.810,-61.0,0.400,-0.400,181.080,1000.0
2025-09-16T15:52:00.873292,-1.020,7.540,235.820,-61.0,0.400,-0.400,181.080,1000.0
2025-09-16T15:52:00.890293,-1.020,7.540,235.820,-61.0,0.400,-0.400,181.080,1000.0
2025-09-16T15:52:00.904321,-1.020,7.540,235.820,-61.0,0.400,-0.400,181.080,1000.0
2025-09-16T15:52:00.919567,-1.030,7.530,235.820,-61.0,0.400,-0.400,181.080,1000.0
2025-09-16T15:52:00.979655,-1.030,7.530,235.820,-61.0,0.400,-0.400,181.080,1000.0
2025-09-16T15:52:00.982654,-1.030,7.530,235.820,-61.0,0.400,-0.400,181.080,1000.0
2025-09-16T15:52:01.009498,-1.030,7.530,235.820,-61.0,0.400,-0.400,181.080,1000.0
2025-09-16T15:52:01.010503,-1.030,7.530,235.820,-61.0,0.400,-0.400,181.080,1000.0
2025-09-16T15:52:01.038542,-1.030,7.530,235.820,-61.0,0.400,-0.400,181.080,1000.0
2025-09-16T15:52:01.069438,-1.020,7.530,235.820,-61.0,0.400,-0.400,181.080,1000.0
2025-09-16T15:52:01.072434,-1.020,7.530,235.820,-61.0,0.400,-0.400,181.080,1000.0
2025-09-16T15:52:01.100341,-1.020,7.530,235.810,-61.0,0.400,-0.400,181.080,1000.0
2025-09-16T15:52:01.102348,-1.020,7.530,235.810,-61.0,0.400,-0.400,181.080,1000.0
2025-09-16T15:52:01.130442,-1.020,7.530,235.810,-61.0,0.400,-0.400,181.080,1000.0
2025-09-16T15:52:01.160675,-1.010,7.540,235.810,-61.0,0.400,-0.400,181.080,1000.0
2025-09-16T15:52:01.174675,-1.010,7.540,235.810,-61.0,0.400,-0.400,181.080,1000.0
2025-09-16T15:52:01.190460,-1.010,7.540,235.810,-61.0,0.400,-0.400,181.080,1000.0
2025-09-16T15:52:01.192459,-1.010,7.550,235.810,-61.0,0.400,-0.400,181.080,1000.0
2025-09-16T15:52:01.235126,-1.010,7.550,235.810,-61.0,0.400,-0.400,181.080,1000.0
2025-09-16T15:52:01.265263,-1.010,7.550,235.810,-61.0,0.400,-0.400,181.080,1000.0
2025-09-16T15:52:01.282445,-1.010,7.550,235.810,-61.0,0.400,-0.400,181.080,1000.0
2025-09-16T15:52:01.310445,-1.000,7.550,235.810,-61.0,0.400,-0.400,181.080,1000.0
2025-09-16T15:52:01.311445,-1.000,7.550,235.810,-61.0,0.400,-0.400,181.080,1000.0
2025-09-16T15:52:01.339493,-1.000,7.550,235.810,-61.0,0.400,-0.400,181.080,1000.0
2025-09-16T15:52:01.370602,-1.000,7.550,235.810,-61.0,0.400,-0.400,181.080,1000.0
2025-09-16T15:52:01.373600,-1.000,7.550,235.810,-61.0,0.400,-0.400,181.080,1000.0
2025-09-16T15:52:01.399640,-1.000,7.550,235.810,-61.0,0.400,-0.400,181.080,1000.0
2025-09-16T15:52:01.401652,-1.000,7.550,235.810,-61.0,0.400,-0.400,181.080,1000.0
2025-09-16T15:52:01.430399,-1.000,7.560,235.810,-61.0,0.400,-0.400,181.080,1000.0
2025-09-16T15:52:01.475956,-1.000,7.560,235.810,-61.0,0.400,-0.400,181.080,1000.0
2025-09-16T15:52:01.478967,-1.000,7.560,235.810,-61.0,0.400,-0.400,181.080,1000.0
2025-09-16T15:52:01.505030,-1.000,7.560,235.810,-61.0,0.400,-0.400,181.080,1000.0
2025-09-16T15:52:01.507030,-1.000,7.560,235.810,-61.0,0.400,-0.400,181.080,1000.0
2025-09-16T15:52:01.536525,-1.000,7.560,235.810,-61.0,0.400,-0.400,181.080,1000.0
2025-09-16T15:52:01.566845,-1.000,7.560,235.810,-61.0,0.400,-0.400,181.080,1000.0
2025-09-16T15:52:01.584125,-1.000,7.560,235.810,-60.9,0.400,-0.400,181.080,1000.0
2025-09-16T15:52:01.597124,-1.000,7.560,235.810,-60.9,0.400,-0.400,181.080,1000.0
2025-09-16T15:52:01.612124,-1.000,7.560,235.810,-60.9,0.400,-0.400,181.080,1000.0
2025-09-16T15:52:01.641124,-1.000,7.560,235.810,-60.9,0.400,-0.400,181.080,1000.0
2025-09-16T15:52:01.643123,-1.000,7.560,235.810,-60.9,0.400,-0.400,181.080,1000.0
2025-09-16T15:52:01.671124,-0.990,7.560,235.810,-60.9,0.400,-0.400,181.080,1000.0
2025-09-16T15:52:01.702426,-0.990,7.560,235.810,-60.9,0.400,-0.400,181.080,1000.0
2025-09-16T15:52:01.704429,-0.990,7.560,235.810,-60.9,0.400,-0.400,181.080,1000.0
2025-09-16T15:52:01.747879,-0.990,7.560,235.810,-60.9,0.400,-0.400,181.080,1000.0
2025-09-16T15:52:01.777934,-0.990,7.560,235.810,-60.9,0.400,-0.400,181.080,1000.0
2025-09-16T15:52:01.780932,-0.990,7.560,235.810,-60.9,0.400,-0.400,181.080,1000.0
2025-09-16T15:52:01.807939,-0.990,7.560,235.810,-60.9,0.400,-0.400,181.080,1000.0
2025-09-16T15:52:01.808461,-0.990,7.560,235.810,-60.9,0.400,-0.400,181.080,1000.0
2025-09-16T15:52:01.838459,-0.990,7.560,235.810,-60.9,0.400,-0.400,181.080,1000.0
2025-09-16T15:52:01.839468,-0.990,7.560,235.810,-61.0,0.400,-0.400,181.080,1000.0
2025-09-16T15:52:01.868373,-0.990,7.560,235.810,-61.0,0.400,-0.400,181.080,1000.0
2025-09-16T15:52:01.898375,-0.990,7.560,235.810,-60.9,0.400,-0.400,181.080,1000.0
2025-09-16T15:52:01.900371,-0.990,7.560,235.810,-60.9,0.400,-0.400,181.080,1000.0
2025-09-16T15:52:01.927400,-0.990,7.560,235.810,-60.9,0.400,-0.400,181.080,1000.0
2025-09-16T15:52:01.929412,-0.990,7.560,235.810,-60.9,0.400,-0.400,181.080,1000.0
2025-09-16T15:52:01.958534,-0.990,7.560,235.810,-60.9,0.400,-0.400,181.080,1000.0
2025-09-16T15:52:02.018919,-0.990,7.560,235.810,-60.9,0.400,-0.400,181.080,1000.0
2025-09-16T15:52:02.020916,-0.990,7.560,235.810,-60.9,0.400,-0.400,181.080,1000.0
2025-09-16T15:52:02.048606,-0.990,7.560,235.810,-60.9,0.400,-0.400,181.080,1000.0
2025-09-16T15:52:02.049642,-0.990,7.560,235.810,-60.9,0.400,-0.400,181.080,1000.0
2025-09-16T15:52:02.078605,-0.990,7.560,235.810,-60.9,0.400,-0.400,181.080,1000.0
2025-09-16T15:52:02.108647,-0.990,7.560,235.810,-60.9,0.400,-0.400,181.080,1000.0
2025-09-16T15:52:02.109633,-0.990,7.560,235.810,-60.9,0.400,-0.400,181.080,1000.0
2025-09-16T15:52:02.137717,-0.990,7.560,235.810,-60.9,0.400,-0.400,181.080,1000.0
2025-09-16T15:52:02.139717,-0.990,7.560,235.810,-60.9,0.400,-0.400,181.080,1000.0
2025-09-16T15:52:02.168405,-0.990,7.560,235.810,-60.9,0.400,-0.400,181.080,1000.0
2025-09-16T15:52:02.197457,-0.990,7.560,235.810,-60.9,0.400,-0.400,181.080,1000.0
2025-09-16T15:52:02.199493,-0.990,7.560,235.810,-60.9,0.400,-0.400,181.080,1000.0
2025-09-16T15:52:02.243559,-0.990,7.560,235.810,-60.9,0.400,-0.400,181.080,1000.0
2025-09-16T15:52:02.244547,-0.990,7.560,235.810,-60.9,0.400,-0.400,181.080,1000.0
2025-09-16T15:52:02.274017,-0.990,7.560,235.810,-60.9,0.400,-0.400,181.080,1000.0
2025-09-16T15:52:02.319393,-0.990,7.560,235.810,-60.9,0.400,-0.400,181.080,1000.0
2025-09-16T15:52:02.321392,-0.990,7.560,235.810,-60.9,0.400,-0.400,181.080,1000.0
2025-09-16T15:52:02.349037,-0.990,7.560,235.810,-60.9,0.400,-0.400,181.080,1000.0
2025-09-16T15:52:02.350037,-0.990,7.560,235.810,-60.9,0.400,-0.400,181.080,1000.0
2025-09-16T15:52:02.379366,-0.990,7.560,235.810,-60.9,0.400,-0.400,181.080,1000.0
2025-09-16T15:52:02.409876,-0.990,7.560,235.810,-60.9,0.400,-0.400,181.080,1000.0
2025-09-16T15:52:02.410875,-0.990,7.560,235.810,-61.0,0.400,-0.400,181.080,1000.0
2025-09-16T15:52:02.440018,-0.990,7.560,235.810,-61.0,0.400,-0.400,181.080,1000.0
2025-09-16T15:52:02.441018,-0.990,7.560,235.810,-61.0,0.400,-0.400,181.080,1000.0
2025-09-16T15:52:02.470310,-0.990,7.560,235.810,-61.0,0.400,-0.400,181.080,1000.0
2025-09-16T15:52:02.514305,-0.990,7.560,235.810,-61.0,0.400,-0.400,181.080,1000.0
2025-09-16T15:52:02.516307,-0.990,7.560,235.810,-61.0,0.400,-0.400,181.080,1000.0
2025-09-16T15:52:02.545296,-0.990,7.560,235.810,-61.0,0.400,-0.400,181.080,1000.0
2025-09-16T15:52:02.546294,-0.990,7.560,235.810,-61.0,0.400,-0.400,181.080,1000.0
2025-09-16T15:52:02.575293,-0.990,7.560,235.810,-61.0,0.400,-0.400,181.080,1000.0
2025-09-16T15:52:02.604151,-0.990,7.560,235.810,-61.0,0.400,-0.400,181.080,1000.0
2025-09-16T15:52:02.606150,-0.990,7.560,235.810,-61.0,0.400,-0.400,181.080,1000.0
2025-09-16T15:52:02.649462,-0.990,7.560,235.810,-61.0,0.400,-0.400,181.080,1000.0
2025-09-16T15:52:02.651301,-0.990,7.560,235.810,-61.0,0.400,-0.400,181.080,1000.0
2025-09-16T15:52:02.665359,-0.990,7.560,235.810,-61.0,0.400,-0.400,181.080,1000.0
2025-09-16T15:52:02.709983,-0.990,7.560,235.810,-61.0,0.400,-0.400,181.080,1000.0
2025-09-16T15:52:02.711975,-0.990,7.560,235.810,-61.0,0.400,-0.400,181.080,1000.0
2025-09-16T15:52:02.741309,-0.990,7.550,235.810,-61.0,0.400,-0.400,181.080,1000.0
2025-09-16T15:52:02.742308,-0.990,7.550,235.810,-61.0,0.400,-0.400,181.080,1000.0
2025-09-16T15:52:02.787096,-0.990,7.550,235.810,-61.0,0.400,-0.400,181.080,1000.0
2025-09-16T15:52:02.790095,-0.990,7.550,235.810,-61.0,0.400,-0.400,181.080,1000.0
2025-09-16T15:52:02.816427,-0.990,7.550,235.810,-61.0,0.400,-0.400,181.080,1000.0
2025-09-16T15:52:02.847399,-0.990,7.550,235.810,-61.0,0.400,-0.400,181.080,1000.0
2025-09-16T15:52:02.848399,-0.990,7.540,235.810,-61.0,0.400,-0.400,181.080,1000.0
2025-09-16T15:52:02.877518,-0.990,7.540,235.810,-61.0,0.400,-0.400,181.080,1000.0
2025-09-16T15:52:02.878518,-1.010,7.540,235.830,-61.0,0.400,-0.400,181.080,1000.0
2025-09-16T15:52:02.906763,-1.040,7.540,235.830,-60.9,0.400,-0.400,181.080,1000.0
2025-09-16T15:52:02.938702,-1.080,7.540,235.850,-60.9,0.400,-0.400,181.080,1000.0
2025-09-16T15:52:02.953472,-1.150,7.530,235.890,-61.0,0.400,-0.400,181.080,1000.0
2025-09-16T15:52:02.968566,-1.240,7.530,235.940,-61.0,0.400,-0.400,181.080,1000.0
2025-09-16T15:52:02.983281,-1.350,7.520,236.000,-61.0,0.400,-0.400,181.080,1000.0
2025-09-16T15:52:02.998282,-1.490,7.520,236.080,-61.0,0.400,-0.400,181.080,1000.0
2025-09-16T15:52:03.058106,-1.750,7.530,236.250,-61.0,0.400,-0.400,181.080,1000.0
2025-09-16T15:52:03.060106,-2.130,7.600,236.490,-61.0,0.400,-0.400,181.080,1000.0
2025-09-16T15:52:03.088273,-2.710,7.790,236.900,-61.0,0.400,-0.400,181.080,1000.0
2025-09-16T15:52:03.091279,-3.510,8.200,237.460,-60.9,0.400,-0.400,181.080,1000.0
2025-09-16T15:52:03.118623,-4.640,8.880,238.220,-60.9,0.400,-0.400,181.080,1000.0
2025-09-16T15:52:03.149089,-5.950,9.560,239.010,-60.9,0.400,-0.400,181.080,1000.0
2025-09-16T15:52:03.150095,-6.420,10.060,238.940,-60.9,0.400,-0.400,181.080,1000.0
2025-09-16T15:52:03.179453,-6.940,10.350,238.900,-60.9,0.400,-0.400,181.080,1000.0
2025-09-16T15:52:03.180455,-7.310,10.490,239.030,-60.9,0.400,-0.400,181.080,1000.0
2025-09-16T15:52:03.208293,-7.390,10.220,239.630,-60.9,0.400,-0.400,181.080,1000.0
2025-09-16T15:52:03.238876,-7.420,9.720,240.470,-60.9,0.400,-0.400,181.080,1000.0
2025-09-16T15:52:03.239876,-7.510,9.160,241.500,-60.9,0.400,-0.400,181.080,1000.0
2025-09-16T15:52:03.284622,-7.740,8.650,242.870,-60.9,0.400,-0.400,181.080,1000.0
2025-09-16T15:52:03.288622,-7.790,8.480,244.310,-60.9,0.400,-0.400,181.080,1000.0
2025-09-16T15:52:03.314208,-7.550,8.530,245.710,-60.9,0.400,-0.400,181.080,1000.0
2025-09-16T15:52:03.359881,-7.100,8.620,246.980,-60.9,0.400,-0.400,181.080,1000.0
2025-09-16T15:52:03.361879,-6.310,8.780,248.150,-60.9,0.400,-0.400,181.080,1000.0
2025-09-16T15:52:03.391918,-5.100,8.990,248.780,-60.9,0.400,-0.400,181.080,1000.0
2025-09-16T15:52:03.393918,-3.740,9.170,248.740,-60.9,0.400,-0.400,181.080,1000.0
2025-09-16T15:52:03.420188,-2.140,9.270,248.240,-60.9,0.400,-0.400,181.080,1000.0
2025-09-16T15:52:03.450235,-0.460,9.310,247.240,-60.9,0.400,-0.400,181.080,1000.0
2025-09-16T15:52:03.451236,0.740,9.300,246.120,-60.9,0.400,-0.400,181.080,1000.0
2025-09-16T15:52:03.480603,2.390,9.220,243.910,-60.9,0.400,-0.400,181.080,1000.0
2025-09-16T15:52:03.481603,3.790,9.080,241.240,-60.9,0.400,-0.400,181.080,1000.0
2025-09-16T15:52:03.510206,4.800,8.930,238.700,-60.9,0.400,-0.400,181.080,1000.0
2025-09-16T15:52:03.541159,5.590,8.790,236.080,-61.0,0.400,-0.400,181.080,1000.0
2025-09-16T15:52:03.542572,6.210,8.730,233.430,-61.0,0.400,-0.400,181.080,1000.0
2025-09-16T15:52:03.587563,6.580,8.860,231.170,-61.0,0.400,-0.400,181.080,1000.0
2025-09-16T15:52:03.590560,6.710,9.210,229.300,-61.0,0.400,-0.400,181.080,1000.0
2025-09-16T15:52:03.617165,6.560,9.790,228.170,-61.0,0.400,-0.400,181.080,1000.0
2025-09-16T15:52:03.647561,6.180,10.400,227.970,-61.0,0.400,-0.400,181.080,1000.0
2025-09-16T15:52:03.662734,5.330,11.130,228.610,-61.0,0.400,-0.400,181.080,1000.0
2025-09-16T15:52:03.677344,4.360,11.570,229.940,-61.0,0.400,-0.400,181.080,1000.0
2025-09-16T15:52:03.692582,3.060,11.910,232.090,-61.0,0.400,-0.400,181.080,1000.0
2025-09-16T15:52:03.723413,1.350,12.290,235.160,-61.0,0.400,-0.400,181.080,1000.0
2025-09-16T15:52:03.724410,-0.700,12.780,239.100,-61.0,0.400,-0.400,181.080,1000.0
2025-09-16T15:52:03.752938,-2.880,13.190,243.360,-61.0,0.400,-0.400,181.080,1000.0
2025-09-16T15:52:03.783330,-5.220,13.350,247.860,-61.0,0.400,-0.400,181.080,1000.0
2025-09-16T15:52:03.784330,-7.020,13.250,251.340,-61.0,0.400,-0.400,181.080,1000.0
2025-09-16T15:52:03.813372,-9.250,12.760,256.390,-61.0,0.400,-0.400,181.080,1000.0
2025-09-16T15:52:03.857719,-10.080,12.300,259.550,-61.0,0.400,-0.400,181.080,1000.0
2025-09-16T15:52:03.859719,-10.110,12.010,261.480,-61.0,0.400,-0.400,181.080,1000.0
2025-09-16T15:52:03.888866,-9.650,11.880,262.100,-61.0,0.400,-0.400,181.080,1000.0
2025-09-16T15:52:03.890866,-8.660,11.770,261.560,-61.0,0.400,-0.400,181.080,1000.0
2025-09-16T15:52:03.920317,-7.390,11.700,259.790,-61.0,0.400,-0.400,181.080,1000.0
2025-09-16T15:52:03.922316,-6.050,11.670,257.140,-61.0,0.400,-0.400,181.080,1000.0
2025-09-16T15:52:03.950264,-4.730,11.580,253.830,-61.0,0.400,-0.400,181.080,1000.0
2025-09-16T15:52:03.980837,-3.590,11.390,250.410,-61.0,0.400,-0.400,181.080,1000.0
2025-09-16T15:52:03.996511,-2.550,11.130,247.170,-61.0,0.400,-0.400,181.080,1000.0
2025-09-16T15:52:04.011507,-1.610,10.890,244.210,-61.0,0.400,-0.400,181.080,1000.0
2025-09-16T15:52:04.026532,-0.780,10.680,241.690,-61.0,0.400,-0.400,181.080,1000.0
2025-09-16T15:52:04.056730,-0.240,10.500,239.840,-61.0,0.400,-0.400,181.080,1000.0
2025-09-16T15:52:04.087077,0.090,10.290,238.170,-61.0,0.400,-0.400,181.080,1000.0
2025-09-16T15:52:04.090076,0.510,9.940,236.810,-61.0,0.400,-0.400,181.080,1000.0
2025-09-16T15:52:04.118292,0.400,9.820,236.150,-61.0,0.400,-0.400,181.080,1000.0
2025-09-16T15:52:04.119295,0.020,9.770,236.040,-61.0,0.400,-0.400,181.080,1000.0
2025-09-16T15:52:04.149076,-0.540,9.780,236.530,-61.0,0.400,-0.400,181.080,1000.0
2025-09-16T15:52:04.193201,-1.340,9.850,237.570,-61.0,0.400,-0.400,181.080,1000.0
2025-09-16T15:52:04.195192,-2.270,9.950,239.020,-61.0,0.400,-0.400,181.080,1000.0
2025-09-16T15:52:04.224180,-3.330,10.040,240.790,-61.0,0.400,-0.400,181.080,1000.0
2025-09-16T15:52:04.225180,-4.390,10.160,242.650,-61.0,0.400,-0.400,181.080,1000.0
2025-09-16T15:52:04.255291,-5.850,10.290,245.400,-61.0,0.400,-0.400,181.080,1000.0
2025-09-16T15:52:04.270423,-6.850,10.290,247.630,-61.0,0.400,-0.400,181.080,1000.0
2025-09-16T15:52:04.285601,-7.890,10.180,250.500,-61.0,0.400,-0.400,181.080,1000.0
2025-09-16T15:52:04.315559,-8.880,10.140,253.030,-61.0,0.400,-0.400,181.080,1000.0
2025-09-16T15:52:04.329895,-9.650,10.180,255.320,-61.0,0.400,-0.400,181.080,1000.0
2025-09-16T15:52:04.345890,-10.300,10.260,257.520,-61.0,0.400,-0.400,181.080,1000.0
2025-09-16T15:52:04.391895,-10.640,10.260,259.520,-61.0,0.400,-0.400,181.080,1000.0
2025-09-16T15:52:04.394906,-10.910,10.260,261.220,-61.0,0.400,-0.400,181.080,1000.0
2025-09-16T15:52:04.421007,-10.770,10.210,262.480,-61.0,0.400,-0.400,181.080,1000.0
2025-09-16T15:52:04.422007,-10.290,10.160,263.160,-61.0,0.400,-0.400,181.080,1000.0
2025-09-16T15:52:04.467172,-9.570,10.150,263.240,-61.0,0.400,-0.400,181.080,1000.0
2025-09-16T15:52:04.497570,-8.660,10.240,262.800,-61.0,0.400,-0.400,181.080,1000.0
2025-09-16T15:52:04.498572,-7.690,10.380,261.870,-61.0,0.400,-0.400,181.080,1000.0
2025-09-16T15:52:04.528278,-6.580,10.470,260.520,-61.0,0.400,-0.400,181.080,1000.0
2025-09-16T15:52:04.529265,-5.360,10.380,258.930,-61.0,0.400,-0.400,181.080,1000.0
2025-09-16T15:52:04.558820,-4.200,10.150,257.160,-61.0,0.400,-0.400,181.080,1000.0
2025-09-16T15:52:04.560807,-3.060,9.840,255.320,-61.0,0.400,-0.400,181.080,1000.0
2025-09-16T15:52:04.589359,-2.240,9.580,253.850,-61.0,0.400,-0.400,181.080,1000.0
2025-09-16T15:52:04.619137,-1.120,9.240,251.500,-61.0,0.400,-0.400,181.080,1000.0
2025-09-16T15:52:04.620142,-0.140,8.920,249.600,-61.0,0.400,-0.400,181.080,1000.0
2025-09-16T15:52:04.649626,0.800,8.540,247.730,-61.0,0.400,-0.400,181.080,1000.0
2025-09-16T15:52:04.667144,1.760,8.070,245.810,-61.0,0.400,-0.400,181.080,1000.0
2025-09-16T15:52:04.680137,2.760,7.470,243.830,-61.0,0.400,-0.400,181.080,1000.0
2025-09-16T15:52:04.725135,3.790,6.790,241.680,-61.0,0.400,-0.400,181.080,1000.0
2025-09-16T15:52:04.727143,4.640,6.190,239.830,-61.0,0.400,-0.400,181.080,1000.0
2025-09-16T15:52:04.770135,5.630,5.350,237.310,-61.1,0.400,-0.400,181.080,1000.0
2025-09-16T15:52:04.774136,6.470,4.450,235.010,-61.1,0.400,-0.400,181.080,1000.0
2025-09-16T15:52:04.800149,7.100,3.580,232.820,-61.1,0.400,-0.400,181.080,1000.0
2025-09-16T15:52:04.830331,7.530,2.780,230.900,-61.1,0.400,-0.400,181.080,1000.0
2025-09-16T15:52:04.832060,7.700,2.200,229.440,-61.1,0.400,-0.400,181.080,1000.0
2025-09-16T15:52:04.860248,7.700,1.780,228.540,-61.1,0.400,-0.400,181.080,1000.0
2025-09-16T15:52:04.864249,7.430,1.630,228.190,-61.1,0.400,-0.400,181.080,1000.0
2025-09-16T15:52:04.891532,7.030,1.650,228.330,-61.1,0.400,-0.400,181.080,1000.0
2025-09-16T15:52:04.920907,6.400,1.880,229.080,-61.1,0.400,-0.400,181.080,1000.0
2025-09-16T15:52:04.921910,5.760,2.250,230.230,-61.1,0.400,-0.400,181.080,1000.0
2025-09-16T15:52:04.951008,4.850,2.840,232.240,-61.1,0.400,-0.400,181.080,1000.0
2025-09-16T15:52:04.954985,4.110,3.340,234.070,-61.1,0.400,-0.400,181.080,1000.0
2025-09-16T15:52:04.981420,3.310,3.830,236.180,-61.1,0.400,-0.400,181.080,1000.0
2025-09-16T15:52:05.027189,2.700,4.210,237.770,-61.1,0.400,-0.400,181.080,1000.0
2025-09-16T15:52:05.028187,1.940,4.790,240.020,-61.1,0.400,-0.400,181.080,1000.0
2025-09-16T15:52:05.072838,1.710,5.220,241.980,-61.1,0.400,-0.400,181.080,1000.0
2025-09-16T15:52:05.075824,1.890,5.330,242.740,-61.1,0.400,-0.400,181.080,1000.0
2025-09-16T15:52:05.102566,2.400,5.300,242.950,-61.1,0.400,-0.400,181.080,1000.0
2025-09-16T15:52:05.133308,3.290,5.130,242.310,-61.1,0.400,-0.400,181.080,1000.0
2025-09-16T15:52:05.134309,4.110,4.930,241.240,-61.1,0.400,-0.400,181.080,1000.0
2025-09-16T15:52:05.163319,5.010,4.680,239.370,-61.1,0.400,-0.400,181.080,1000.0
2025-09-16T15:52:05.165319,5.610,4.440,237.620,-61.1,0.400,-0.400,181.080,1000.0
2025-09-16T15:52:05.193283,6.250,4.050,235.250,-61.0,0.400,-0.400,181.080,1000.0
2025-09-16T15:52:05.222847,6.690,3.690,233.530,-61.0,0.400,-0.400,181.080,1000.0
2025-09-16T15:52:05.224845,7.180,3.220,231.630,-61.0,0.400,-0.400,181.080,1000.0
2025-09-16T15:52:05.253546,7.460,2.890,230.260,-61.0,0.400,-0.400,181.080,1000.0
2025-09-16T15:52:05.256542,7.620,2.740,229.360,-61.0,0.400,-0.400,181.080,1000.0
2025-09-16T15:52:05.298514,7.640,2.740,228.680,-61.0,0.400,-0.400,181.080,1000.0
2025-09-16T15:52:05.328516,7.390,2.900,228.610,-61.0,0.400,-0.400,181.080,1000.0
2025-09-16T15:52:05.329516,6.840,3.180,229.140,-61.0,0.400,-0.400,181.080,1000.0
2025-09-16T15:52:05.358561,6.070,3.560,230.260,-61.0,0.400,-0.400,181.080,1000.0
2025-09-16T15:52:05.375497,5.050,4.100,231.980,-61.0,0.400,-0.400,181.080,1000.0
2025-09-16T15:52:05.404497,3.900,4.700,234.010,-61.0,0.400,-0.400,181.080,1000.0
2025-09-16T15:52:05.434588,2.470,5.460,236.550,-61.0,0.400,-0.400,181.080,1000.0
2025-09-16T15:52:05.435566,1.110,6.220,239.100,-61.0,0.400,-0.400,181.080,1000.0
2025-09-16T15:52:05.465379,-0.500,6.990,242.370,-61.0,0.400,-0.400,181.080,1000.0
2025-09-16T15:52:05.468379,-1.690,7.390,245.050,-61.0,0.400,-0.400,181.080,1000.0
2025-09-16T15:52:05.495381,-2.580,7.590,247.410,-61.0,0.400,-0.400,181.080,1000.0
2025-09-16T15:52:05.524916,-2.990,7.710,249.190,-61.0,0.400,-0.400,181.080,1000.0
2025-09-16T15:52:05.526918,-2.830,7.740,250.090,-61.0,0.400,-0.400,181.080,1000.0
2025-09-16T15:52:05.571197,-2.240,7.670,250.100,-61.0,0.400,-0.400,181.080,1000.0
2025-09-16T15:52:05.575195,-1.280,7.460,249.290,-61.0,0.400,-0.400,181.080,1000.0
2025-09-16T15:52:05.601195,0.020,7.100,247.640,-61.0,0.400,-0.400,181.080,1000.0
2025-09-16T15:52:05.602194,1.460,6.570,245.290,-61.0,0.400,-0.400,181.080,1000.0
2025-09-16T15:52:05.630988,2.910,5.860,242.280,-61.0,0.400,-0.400,181.080,1000.0
2025-09-16T15:52:05.659986,4.190,4.950,238.920,-61.0,0.400,-0.400,181.080,1000.0
2025-09-16T15:52:05.674992,5.240,3.900,235.480,-61.0,0.400,-0.400,181.080,1000.0
2025-09-16T15:52:05.689993,6.090,2.860,232.270,-61.0,0.400,-0.400,181.080,1000.0
2025-09-16T15:52:05.736026,6.690,2.030,229.660,-61.0,0.400,-0.400,181.080,1000.0
2025-09-16T15:52:05.736986,7.020,1.520,227.830,-61.0,0.400,-0.400,181.080,1000.0
2025-09-16T15:52:05.765995,7.150,1.280,226.700,-61.0,0.400,-0.400,181.080,1000.0
2025-09-16T15:52:05.768996,7.160,1.200,226.090,-61.0,0.400,-0.400,181.080,1000.0
2025-09-16T15:52:05.811288,7.020,1.190,226.010,-61.0,0.400,-0.400,181.080,1000.0
2025-09-16T15:52:05.813138,6.730,1.230,226.470,-61.0,0.400,-0.400,181.080,1000.0
2025-09-16T15:52:05.841287,6.320,1.300,227.380,-61.0,0.400,-0.400,181.080,1000.0
2025-09-16T15:52:05.871827,5.820,1.450,228.520,-61.0,0.400,-0.400,181.080,1000.0
2025-09-16T15:52:05.874824,5.240,1.640,229.750,-61.0,0.400,-0.400,181.080,1000.0
2025-09-16T15:52:05.901884,4.720,1.800,230.900,-61.0,0.400,-0.400,181.080,1000.0
2025-09-16T15:52:05.903889,4.340,1.820,231.820,-61.0,0.400,-0.400,181.080,1000.0
2025-09-16T15:52:05.933592,4.130,1.710,232.450,-61.0,0.400,-0.400,181.080,1000.0
2025-09-16T15:52:05.964580,4.080,1.550,232.780,-61.0,0.400,-0.400,181.080,1000.0
2025-09-16T15:52:05.967579,4.150,1.320,232.850,-61.0,0.400,-0.400,181.080,1000.0
2025-09-16T15:52:05.993616,4.280,1.130,232.650,-61.0,0.400,-0.400,181.080,1000.0
2025-09-16T15:52:05.995615,4.500,0.980,232.350,-61.0,0.400,-0.400,181.080,1000.0
2025-09-16T15:52:06.024812,4.810,0.830,232.060,-61.0,0.400,-0.400,181.080,1000.0
2025-09-16T15:52:06.070481,5.240,0.720,231.860,-61.0,0.400,-0.400,181.080,1000.0
2025-09-16T15:52:06.075481,5.700,0.660,231.720,-61.0,0.400,-0.400,181.080,1000.0
2025-09-16T15:52:06.115561,6.230,0.620,231.610,-61.0,0.400,-0.400,181.080,1000.0
2025-09-16T15:52:06.116574,6.840,0.590,231.580,-61.0,0.400,-0.400,181.080,1000.0
2025-09-16T15:52:06.145723,7.600,0.560,231.650,-61.0,0.400,-0.400,181.080,1000.0
2025-09-16T15:52:06.175923,8.590,0.510,231.750,-61.0,0.400,-0.400,181.080,1000.0
2025-09-16T15:52:06.178924,9.820,0.440,231.790,-61.0,0.400,-0.400,181.080,1000.0
2025-09-16T15:52:06.206594,11.280,0.370,231.740,-61.0,0.400,-0.400,181.080,1000.0
2025-09-16T15:52:06.207593,13.090,0.290,231.670,-61.0,0.400,-0.400,181.080,1000.0
2025-09-16T15:52:06.237731,15.270,0.220,231.620,-61.0,0.400,-0.400,181.080,1000.0
2025-09-16T15:52:06.267666,17.740,0.180,231.610,-61.0,0.400,-0.400,181.080,1000.0
2025-09-16T15:52:06.270671,20.340,0.170,231.630,-61.0,0.400,-0.400,181.080,1000.0
2025-09-16T15:52:06.297670,22.990,0.150,231.700,-61.0,0.400,-0.400,181.080,1000.0
2025-09-16T15:52:06.298670,25.280,0.150,231.800,-61.0,0.400,-0.400,181.080,1000.0
2025-09-16T15:52:06.328103,28.230,0.220,232.060,-61.0,0.400,-0.400,181.080,1000.0
2025-09-16T15:52:06.358487,29.700,0.970,198.270,-61.0,0.400,-0.400,181.080,1000.0
2025-09-16T15:52:06.374844,31.710,1.250,197.380,-61.0,0.400,-0.400,181.080,1000.0
2025-09-16T15:52:06.418568,33.520,1.440,197.610,-61.0,0.400,-0.400,181.080,1000.0
2025-09-16T15:52:06.420560,35.360,1.590,198.260,-61.0,0.400,-0.400,181.080,1000.0
2025-09-16T15:52:06.422579,37.020,1.750,198.790,-61.0,0.400,-0.400,181.080,1000.0
2025-09-16T15:52:06.480001,38.560,1.920,199.740,-61.0,0.400,-0.400,181.080,1000.0
2025-09-16T15:52:06.482994,40.140,1.960,199.750,-61.0,0.400,-0.400,181.080,1000.0
2025-09-16T15:52:06.510004,41.710,1.930,199.810,-61.0,0.400,-0.400,181.080,1000.0
2025-09-16T15:52:06.511003,43.160,1.880,199.830,-61.0,0.400,-0.400,181.080,1000.0
2025-09-16T15:52:06.539778,44.450,1.790,199.810,-61.0,0.400,-0.400,181.080,1000.0
2025-09-16T15:52:06.570361,45.730,1.640,199.740,-61.0,0.400,-0.400,181.080,1000.0
2025-09-16T15:52:06.575357,46.780,1.780,199.910,-61.0,0.400,-0.400,181.080,1000.0
2025-09-16T15:52:06.600082,47.750,1.870,200.040,-61.0,0.400,-0.400,181.080,1000.0
2025-09-16T15:52:06.601927,48.450,2.230,200.410,-61.1,0.400,-0.400,181.080,1000.0
2025-09-16T15:52:06.631569,49.060,2.510,200.690,-61.1,0.400,-0.400,181.080,1000.0
2025-09-16T15:52:06.632567,49.580,2.650,200.880,-61.1,0.400,-0.400,181.080,1000.0
2025-09-16T15:52:06.661801,49.990,2.750,201.070,-61.1,0.400,-0.400,181.080,1000.0
2025-09-16T15:52:06.706952,50.250,2.900,201.330,-61.1,0.400,-0.400,181.080,1000.0
2025-09-16T15:52:06.708954,50.400,3.050,201.570,-61.0,0.400,-0.400,181.080,1000.0
2025-09-16T15:52:06.737282,50.470,3.190,201.740,-61.0,0.400,-0.400,181.080,1000.0
2025-09-16T15:52:06.750956,50.540,3.250,201.830,-61.0,0.400,-0.400,181.080,1000.0
2025-09-16T15:52:06.766957,50.500,3.470,202.010,-61.0,0.400,-0.400,181.080,1000.0
2025-09-16T15:52:06.811956,50.510,3.650,202.140,-61.0,0.400,-0.400,181.080,1000.0
2025-09-16T15:52:06.812957,50.590,3.730,202.180,-61.0,0.400,-0.400,181.080,1000.0
2025-09-16T15:52:06.841814,50.150,4.980,206.820,-61.0,0.400,-0.400,181.080,1000.0
2025-09-16T15:52:06.842812,49.700,5.850,210.310,-61.0,0.400,-0.400,181.080,1000.0
2025-09-16T15:52:06.872019,49.440,6.070,211.190,-61.0,0.400,-0.400,181.080,1000.0
2025-09-16T15:52:06.901777,49.140,6.110,211.420,-61.0,0.400,-0.400,181.080,1000.0
2025-09-16T15:52:06.902781,48.680,6.310,212.310,-61.0,0.400,-0.400,181.080,1000.0
2025-09-16T15:52:06.947236,48.290,6.430,212.910,-61.0,0.400,-0.400,181.080,1000.0
2025-09-16T15:52:06.948238,48.070,6.390,212.970,-61.0,0.400,-0.400,181.080,1000.0
2025-09-16T15:52:06.977502,47.830,6.440,212.990,-61.0,0.400,-0.400,181.080,1000.0
2025-09-16T15:52:07.007791,47.650,6.510,213.040,-61.0,0.400,-0.400,181.080,1000.0
2025-09-16T15:52:07.009522,47.570,6.490,213.020,-61.0,0.400,-0.400,181.080,1000.0
2025-09-16T15:52:07.038723,47.510,6.450,213.000,-61.1,0.400,-0.400,181.080,1000.0
2025-09-16T15:52:07.040719,47.500,6.480,213.030,-61.1,0.400,-0.400,181.080,1000.0
2025-09-16T15:52:07.067491,47.550,6.540,213.120,-61.1,0.400,-0.400,181.080,1000.0
2025-09-16T15:52:07.099389,47.600,6.900,213.440,-61.1,0.400,-0.400,181.080,1000.0
2025-09-16T15:52:07.114107,47.750,7.230,213.770,-61.1,0.400,-0.400,181.080,1000.0
2025-09-16T15:52:07.143984,48.000,7.610,214.150,-61.1,0.400,-0.400,181.080,1000.0
2025-09-16T15:52:07.145985,48.310,7.920,214.480,-61.1,0.400,-0.400,181.080,1000.0
2025-09-16T15:52:07.175278,48.740,8.410,214.970,-61.1,0.400,-0.400,181.080,1000.0
2025-09-16T15:52:07.205598,49.350,8.870,215.450,-61.1,0.400,-0.400,181.080,1000.0
2025-09-16T15:52:07.207599,50.080,9.660,216.470,-61.1,0.400,-0.400,181.080,1000.0
2025-09-16T15:52:07.250690,50.840,10.540,217.660,-61.1,0.400,-0.400,181.080,1000.0
2025-09-16T15:52:07.252318,51.580,11.550,218.730,-61.1,0.400,-0.400,181.080,1000.0
2025-09-16T15:52:07.281367,52.370,12.630,220.080,-61.1,0.400,-0.400,181.080,1000.0
2025-09-16T15:52:07.282368,53.310,13.870,221.700,-61.1,0.400,-0.400,181.080,1000.0
2025-09-16T15:52:07.311254,54.200,15.230,223.370,-61.1,0.400,-0.400,181.080,1000.0
2025-09-16T15:52:07.341431,55.080,16.510,224.880,-61.1,0.400,-0.400,181.080,1000.0
2025-09-16T15:52:07.342431,56.030,17.420,225.980,-61.1,0.400,-0.400,181.080,1000.0
2025-09-16T15:52:07.371279,57.070,18.880,227.660,-61.1,0.400,-0.400,181.080,1000.0
2025-09-16T15:52:07.400278,57.840,20.340,229.290,-61.1,0.400,-0.400,181.080,1000.0
2025-09-16T15:52:07.415625,58.630,21.760,230.850,-61.1,0.400,-0.400,181.080,1000.0
2025-09-16T15:52:07.447325,59.170,23.420,232.610,-61.1,0.400,-0.400,181.080,1000.0
2025-09-16T15:52:07.448327,59.890,24.930,234.190,-61.1,0.400,-0.400,181.080,1000.0
2025-09-16T15:52:07.477357,60.580,26.420,235.730,-61.1,0.400,-0.400,181.080,1000.0
2025-09-16T15:52:07.522790,61.230,28.030,237.390,-61.1,0.400,-0.400,181.080,1000.0
2025-09-16T15:52:07.524788,61.860,29.830,239.220,-61.1,0.400,-0.400,181.080,1000.0
2025-09-16T15:52:07.553484,62.400,31.110,240.560,-61.1,0.400,-0.400,181.080,1000.0
2025-09-16T15:52:07.555487,63.250,33.370,242.960,-61.1,0.400,-0.400,181.080,1000.0
2025-09-16T15:52:07.583592,63.580,35.640,245.190,-61.1,0.400,-0.400,181.080,1000.0
2025-09-16T15:52:07.612656,63.910,37.920,247.360,-61.1,0.400,-0.400,181.080,1000.0
2025-09-16T15:52:07.613656,64.030,40.370,249.580,-61.1,0.400,-0.400,181.080,1000.0
2025-09-16T15:52:07.643305,64.350,42.470,251.630,-61.1,0.400,-0.400,181.080,1000.0
2025-09-16T15:52:07.644307,64.630,44.410,253.560,-61.1,0.400,-0.400,181.080,1000.0
2025-09-16T15:52:07.673647,64.920,46.350,255.490,-61.1,0.400,-0.400,181.080,1000.0
2025-09-16T15:52:07.675646,65.130,48.170,257.250,-61.1,0.400,-0.400,181.080,1000.0
2025-09-16T15:52:07.703952,65.280,49.730,258.710,-61.1,0.400,-0.400,181.080,1000.0
2025-09-16T15:52:07.733869,65.300,51.050,259.850,-61.1,0.400,-0.400,181.080,1000.0
2025-09-16T15:52:07.750239,65.340,52.130,260.720,-61.1,0.400,-0.400,181.080,1000.0
2025-09-16T15:52:07.765526,65.750,53.390,261.980,-61.1,0.400,-0.400,181.080,1000.0
2025-09-16T15:52:07.780705,65.740,54.500,262.920,-61.1,0.400,-0.400,181.080,1000.0
2025-09-16T15:52:07.825548,65.670,55.490,263.830,-61.1,0.400,-0.400,181.080,1000.0
2025-09-16T15:52:07.856255,65.530,56.460,264.710,-61.1,0.400,-0.400,181.080,1000.0
2025-09-16T15:52:07.858262,65.360,57.470,265.530,-61.1,0.400,-0.400,181.080,1000.0
2025-09-16T15:52:07.886162,65.260,58.440,266.370,-61.2,0.400,-0.400,181.080,1000.0
2025-09-16T15:52:07.891164,64.860,59.350,266.800,-61.2,0.400,-0.400,181.080,1000.0
2025-09-16T15:52:07.916175,64.570,60.060,267.030,-61.2,0.400,-0.400,181.080,1000.0
2025-09-16T15:52:07.947009,64.360,60.590,266.970,-61.2,0.400,-0.400,181.080,1000.0
2025-09-16T15:52:07.948946,64.190,60.960,266.610,-61.2,0.400,-0.400,181.080,1000.0
2025-09-16T15:52:07.977606,63.950,61.170,265.900,-61.2,0.400,-0.400,181.080,1000.0
2025-09-16T15:52:07.978997,63.660,61.260,264.990,-61.2,0.400,-0.400,181.080,1000.0
2025-09-16T15:52:08.008009,63.550,61.170,264.180,-61.2,0.400,-0.400,181.080,1000.0
2025-09-16T15:52:08.038516,63.340,61.010,263.300,-61.2,0.400,-0.400,181.080,1000.0
2025-09-16T15:52:08.040520,62.830,60.860,262.260,-61.2,0.400,-0.400,181.080,1000.0
2025-09-16T15:52:08.067841,62.270,60.700,261.320,-61.2,0.400,-0.400,181.080,1000.0
2025-09-16T15:52:08.083533,61.640,60.610,260.500,-61.2,0.400,-0.400,181.080,1000.0
2025-09-16T15:52:08.114264,61.010,60.680,259.900,-61.2,0.400,-0.400,181.080,1000.0
2025-09-16T15:52:08.159478,60.630,60.740,259.660,-61.2,0.400,-0.400,181.080,1000.0
2025-09-16T15:52:08.161477,60.170,60.860,259.450,-61.2,0.400,-0.400,181.080,1000.0
2025-09-16T15:52:08.189293,59.850,60.970,259.390,-61.2,0.400,-0.400,181.080,1000.0
2025-09-16T15:52:08.193328,59.620,61.190,259.470,-61.2,0.400,-0.400,181.080,1000.0
2025-09-16T15:52:08.219329,59.270,61.660,259.600,-61.2,0.400,-0.400,181.080,1000.0
2025-09-16T15:52:08.250290,58.940,62.240,259.800,-61.2,0.400,-0.400,181.080,1000.0
2025-09-16T15:52:08.251290,58.810,62.770,260.100,-61.2,0.400,-0.400,181.080,1000.0
2025-09-16T15:52:08.280386,58.800,63.310,260.490,-61.2,0.400,-0.400,181.080,1000.0
2025-09-16T15:52:08.281384,58.750,63.820,260.870,-61.2,0.400,-0.400,181.080,1000.0
2025-09-16T15:52:08.311352,58.600,64.280,261.150,-61.2,0.400,-0.400,181.080,1000.0
2025-09-16T15:52:08.341157,58.380,64.640,261.300,-61.2,0.400,-0.400,181.080,1000.0
2025-09-16T15:52:08.342149,58.100,64.990,261.400,-61.2,0.400,-0.400,181.080,1000.0
2025-09-16T15:52:08.374779,57.860,65.290,261.460,-61.2,0.400,-0.400,181.080,1000.0
2025-09-16T15:52:08.375777,57.660,65.530,261.500,-61.2,0.400,-0.400,181.080,1000.0
2025-09-16T15:52:08.417510,57.390,65.740,261.540,-61.1,0.400,-0.400,181.080,1000.0
2025-09-16T15:52:08.447551,57.090,65.960,261.680,-61.1,0.400,-0.400,181.080,1000.0
2025-09-16T15:52:08.463064,56.700,66.270,261.890,-61.1,0.400,-0.400,181.080,1000.0
2025-09-16T15:52:08.493560,56.530,66.530,262.020,-61.1,0.400,-0.400,181.080,1000.0
2025-09-16T15:52:08.495555,56.310,66.790,262.180,-61.2,0.400,-0.400,181.080,1000.0
2025-09-16T15:52:08.523297,56.050,67.000,262.390,-61.2,0.400,-0.400,181.080,1000.0
2025-09-16T15:52:08.553307,54.770,67.830,263.210,-61.2,0.400,-0.400,181.080,1000.0
2025-09-16T15:52:08.555304,53.580,68.550,263.930,-61.2,0.400,-0.400,181.080,1000.0
2025-09-16T15:52:08.583910,52.810,68.970,264.360,-61.2,0.400,-0.400,181.080,1000.0
2025-09-16T15:52:08.585910,52.240,69.240,264.610,-61.2,0.400,-0.400,181.080,1000.0
2025-09-16T15:52:08.614273,51.630,69.520,264.850,-61.2,0.400,-0.400,181.080,1000.0
2025-09-16T15:52:08.615272,51.210,69.690,264.990,-61.2,0.400,-0.400,181.080,1000.0
2025-09-16T15:52:08.644458,50.780,69.880,265.120,-61.2,0.400,-0.400,181.080,1000.0
2025-09-16T15:52:08.689729,50.340,70.060,265.220,-61.2,0.400,-0.400,181.080,1000.0
2025-09-16T15:52:08.692728,49.050,70.720,265.680,-61.2,0.400,-0.400,181.080,1000.0
2025-09-16T15:52:08.720325,48.290,71.070,265.860,-61.2,0.400,-0.400,181.080,1000.0
2025-09-16T15:52:08.723331,47.570,71.340,265.950,-61.2,0.400,-0.400,181.080,1000.0
2025-09-16T15:52:08.749247,46.780,71.520,265.900,-61.2,0.400,-0.400,181.080,1000.0
2025-09-16T15:52:08.779318,46.340,71.450,265.600,-61.2,0.400,-0.400,181.080,1000.0
2025-09-16T15:52:08.795319,45.860,71.210,265.050,-61.2,0.400,-0.400,181.080,1000.0
2025-09-16T15:52:08.824463,45.370,70.810,264.270,-61.2,0.400,-0.400,181.080,1000.0
2025-09-16T15:52:08.826463,44.890,70.340,263.370,-61.2,0.400,-0.400,181.080,1000.0
2025-09-16T15:52:08.855465,43.660,70.240,262.620,-61.2,0.400,-0.400,181.080,1000.0
2025-09-16T15:52:08.885994,42.810,69.680,261.370,-61.2,0.400,-0.400,181.080,1000.0
2025-09-16T15:52:08.888527,41.970,68.740,259.710,-61.2,0.400,-0.400,181.080,1000.0
2025-09-16T15:52:08.916544,41.190,68.100,258.520,-61.2,0.400,-0.400,181.080,1000.0
2025-09-16T15:52:08.917527,40.430,67.360,257.220,-61.2,0.400,-0.400,181.080,1000.0
2025-09-16T15:52:08.962369,39.630,66.690,255.900,-61.2,0.400,-0.400,181.080,1000.0
2025-09-16T15:52:08.992186,39.140,66.080,254.800,-61.2,0.400,-0.400,181.080,1000.0
2025-09-16T15:52:08.994186,38.470,65.900,254.120,-61.2,0.400,-0.400,181.080,1000.0
2025-09-16T15:52:09.022189,37.150,66.470,254.020,-61.2,0.400,-0.400,181.080,1000.0
2025-09-16T15:52:09.023190,36.220,66.700,253.710,-61.2,0.400,-0.400,181.080,1000.0
2025-09-16T15:52:09.052186,35.530,66.740,253.270,-61.2,0.400,-0.400,181.080,1000.0
2025-09-16T15:52:09.082186,34.900,66.560,252.490,-61.2,0.400,-0.400,181.080,1000.0
2025-09-16T15:52:09.083187,34.470,66.380,251.850,-61.2,0.400,-0.400,181.080,1000.0
2025-09-16T15:52:09.111185,34.100,66.060,251.030,-61.1,0.400,-0.400,181.080,1000.0
2025-09-16T15:52:09.126185,33.760,65.550,251.510,-61.1,0.400,-0.400,181.080,1000.0
2025-09-16T15:52:09.157027,33.520,65.470,254.320,-61.1,0.400,-0.400,181.080,1000.0
2025-09-16T15:52:09.200666,33.320,65.420,257.290,-61.1,0.400,-0.400,181.080,1000.0
2025-09-16T15:52:09.202660,33.090,65.440,260.490,-61.1,0.400,-0.400,181.080,1000.0
2025-09-16T15:52:09.231660,32.840,65.450,263.350,-61.1,0.400,-0.400,181.080,1000.0
2025-09-16T15:52:09.232661,32.590,65.450,265.680,-61.2,0.400,-0.400,181.080,1000.0
2025-09-16T15:52:09.261661,32.180,65.560,269.110,-61.2,0.400,-0.400,181.080,1000.0
2025-09-16T15:52:09.291660,31.790,65.630,271.750,-61.2,0.400,-0.400,181.080,1000.0
2025-09-16T15:52:09.292662,31.300,65.540,273.990,-61.2,0.400,-0.400,181.080,1000.0
2025-09-16T15:52:09.320660,30.780,65.440,276.200,-61.2,0.400,-0.400,181.080,1000.0
