Timestamp,Roll_Angle,Pitch_Angle,Yaw_Angle,Altitude,Roll_Setpoint,Pitch_Setpoint,Yaw_Setpoint,Altitude_Setpoint
2025-09-03T15:38:42.048951,0.230,-1.470,356.200,-62.9,0.200,-0.300,180.360,1000.0
2025-09-03T15:38:42.050950,0.230,-1.470,356.200,-62.9,0.200,-0.300,180.360,1000.0
2025-09-03T15:38:42.080645,0.230,-1.470,356.190,-62.9,0.200,-0.300,180.360,1000.0
2025-09-03T15:38:42.082642,0.230,-1.470,356.190,-62.9,0.200,-0.300,180.360,1000.0
2025-09-03T15:38:42.111327,0.230,-1.470,356.190,-62.9,0.200,-0.300,180.360,1000.0
2025-09-03T15:38:42.220937,0.230,-1.470,356.190,-62.9,0.200,-0.300,180.360,1000.0
2025-09-03T15:38:42.222937,0.220,-1.480,356.190,-62.9,0.200,-0.300,180.360,1000.0
2025-09-03T15:38:42.224938,0.220,-1.480,356.190,-62.9,0.200,-0.300,180.360,1000.0
2025-09-03T15:38:42.226940,0.220,-1.480,356.190,-62.9,0.200,-0.300,180.360,1000.0
2025-09-03T15:38:42.228941,0.220,-1.480,356.190,-62.9,0.200,-0.300,180.360,1000.0
2025-09-03T15:38:42.344617,0.220,-1.490,356.190,-62.9,0.200,-0.300,180.360,1000.0
2025-09-03T15:38:42.346616,0.220,-1.490,356.190,-62.9,0.200,-0.300,180.360,1000.0
2025-09-03T15:38:42.348617,0.220,-1.490,356.190,-62.9,0.200,-0.300,180.360,1000.0
2025-09-03T15:38:42.350617,0.220,-1.490,356.190,-62.9,0.200,-0.300,180.360,1000.0
2025-09-03T15:38:42.352617,0.220,-1.490,356.190,-62.9,0.200,-0.300,180.360,1000.0
2025-09-03T15:38:42.466072,0.220,-1.490,356.190,-62.9,0.200,-0.300,180.360,1000.0
2025-09-03T15:38:42.468074,0.220,-1.490,356.190,-62.9,0.200,-0.300,180.360,1000.0
2025-09-03T15:38:42.470075,0.230,-1.490,356.190,-63.0,0.200,-0.300,180.360,1000.0
2025-09-03T15:38:42.472074,0.220,-1.490,356.190,-63.0,0.200,-0.300,180.360,1000.0
2025-09-03T15:38:42.474075,0.230,-1.490,356.190,-63.0,0.200,-0.300,180.360,1000.0
2025-09-03T15:38:42.589073,0.220,-1.490,356.190,-63.0,0.200,-0.300,180.360,1000.0
2025-09-03T15:38:42.592073,0.230,-1.490,356.190,-63.0,0.200,-0.300,180.360,1000.0
2025-09-03T15:38:42.595075,0.230,-1.490,356.190,-63.0,0.200,-0.300,180.360,1000.0
2025-09-03T15:38:42.596075,0.220,-1.490,356.190,-63.0,0.200,-0.300,180.360,1000.0
2025-09-03T15:38:42.598074,0.230,-1.490,356.180,-63.0,0.200,-0.300,180.360,1000.0
2025-09-03T15:38:42.716156,0.220,-1.490,356.180,-63.0,0.200,-0.300,180.360,1000.0
2025-09-03T15:38:42.717156,0.220,-1.490,356.180,-63.0,0.200,-0.300,180.360,1000.0
2025-09-03T15:38:42.719156,0.220,-1.490,356.180,-63.0,0.200,-0.300,180.360,1000.0
2025-09-03T15:38:42.721157,0.220,-1.490,356.180,-63.0,0.200,-0.300,180.360,1000.0
2025-09-03T15:38:42.723155,0.220,-1.490,356.180,-63.0,0.200,-0.300,180.360,1000.0
2025-09-03T15:38:42.841648,0.220,-1.490,356.190,-63.0,0.200,-0.300,180.360,1000.0
2025-09-03T15:38:42.845648,0.210,-1.490,356.180,-63.0,0.200,-0.300,180.360,1000.0
2025-09-03T15:38:42.848648,0.200,-1.490,356.180,-63.0,0.200,-0.300,180.360,1000.0
2025-09-03T15:38:42.850646,0.200,-1.490,356.190,-63.0,0.200,-0.300,180.360,1000.0
2025-09-03T15:38:42.851647,0.180,-1.480,356.190,-63.0,0.200,-0.300,180.360,1000.0
2025-09-03T15:38:42.967074,0.180,-1.480,356.190,-63.0,0.200,-0.300,180.360,1000.0
2025-09-03T15:38:42.969093,0.160,-1.470,356.190,-63.0,0.200,-0.300,180.360,1000.0
2025-09-03T15:38:42.970093,0.140,-1.460,356.210,-63.0,0.200,-0.300,180.360,1000.0
2025-09-03T15:38:42.972102,0.120,-1.460,356.220,-63.0,0.200,-0.300,180.360,1000.0
2025-09-03T15:38:42.974091,0.100,-1.460,356.220,-63.0,0.200,-0.300,180.360,1000.0
2025-09-03T15:38:43.090885,0.090,-1.450,356.230,-63.0,0.200,-0.300,180.360,1000.0
2025-09-03T15:38:43.093885,0.060,-1.440,356.230,-63.0,0.200,-0.300,180.360,1000.0
2025-09-03T15:38:43.096886,0.000,-1.440,356.220,-63.0,0.200,-0.300,180.360,1000.0
2025-09-03T15:38:43.098885,-0.100,-1.470,356.210,-62.9,0.200,-0.300,180.360,1000.0
2025-09-03T15:38:43.099887,-0.260,-1.530,356.190,-62.9,0.200,-0.300,180.360,1000.0
2025-09-03T15:38:43.213564,-0.440,-1.610,356.170,-62.9,0.200,-0.300,180.360,1000.0
2025-09-03T15:38:43.215565,-0.640,-1.710,356.170,-62.9,0.200,-0.300,180.360,1000.0
2025-09-03T15:38:43.217565,-0.810,-1.780,356.160,-62.9,0.200,-0.300,180.360,1000.0
2025-09-03T15:38:43.219564,-0.910,-1.830,356.150,-62.9,0.200,-0.300,180.360,1000.0
2025-09-03T15:38:43.221563,-0.980,-1.860,356.150,-62.9,0.200,-0.300,180.360,1000.0
2025-09-03T15:38:43.337761,-1.010,-1.880,356.140,-62.9,0.200,-0.300,180.360,1000.0
2025-09-03T15:38:43.339761,-1.020,-1.870,356.140,-62.9,0.200,-0.300,180.360,1000.0
2025-09-03T15:38:43.340762,-0.990,-1.860,356.120,-62.9,0.200,-0.300,180.360,1000.0
2025-09-03T15:38:43.342764,-0.940,-1.820,356.090,-62.9,0.200,-0.300,180.360,1000.0
2025-09-03T15:38:43.344760,-0.870,-1.770,356.030,-62.9,0.200,-0.300,180.360,1000.0
2025-09-03T15:38:43.461985,-0.790,-1.720,356.020,-62.9,0.200,-0.300,180.360,1000.0
2025-09-03T15:38:43.463986,-0.660,-1.650,356.030,-62.9,0.200,-0.300,180.360,1000.0
2025-09-03T15:38:43.465986,-0.520,-1.590,356.050,-62.9,0.200,-0.300,180.360,1000.0
2025-09-03T15:38:43.467987,-0.330,-1.520,356.070,-63.0,0.200,-0.300,180.360,1000.0
2025-09-03T15:38:43.469988,-0.130,-1.450,356.110,-63.0,0.200,-0.300,180.360,1000.0
2025-09-03T15:38:43.584322,-0.010,-1.410,356.150,-63.0,0.200,-0.300,180.360,1000.0
2025-09-03T15:38:43.586323,0.010,-1.390,356.170,-63.0,0.200,-0.300,180.360,1000.0
2025-09-03T15:38:43.588323,0.010,-1.380,356.200,-63.0,0.200,-0.300,180.360,1000.0
2025-09-03T15:38:43.590325,0.000,-1.370,356.230,-62.9,0.200,-0.300,180.360,1000.0
2025-09-03T15:38:43.593322,-0.020,-1.340,356.290,-62.9,0.200,-0.300,180.360,1000.0
2025-09-03T15:38:43.708588,-0.030,-1.340,356.360,-62.9,0.200,-0.300,180.360,1000.0
2025-09-03T15:38:43.709589,-0.030,-1.340,356.480,-62.9,0.200,-0.300,180.360,1000.0
2025-09-03T15:38:43.711589,-0.050,-1.350,356.640,-62.9,0.200,-0.300,180.360,1000.0
2025-09-03T15:38:43.713589,-0.070,-1.360,356.800,-62.9,0.200,-0.300,180.360,1000.0
2025-09-03T15:38:43.714589,-0.100,-1.350,356.980,-62.9,0.200,-0.300,180.360,1000.0
2025-09-03T15:38:43.831592,-0.110,-1.340,357.180,-62.9,0.200,-0.300,180.360,1000.0
2025-09-03T15:38:43.834592,-0.110,-1.320,357.370,-62.9,0.200,-0.300,180.360,1000.0
2025-09-03T15:38:43.835592,-0.090,-1.320,357.590,-62.9,0.200,-0.300,180.360,1000.0
2025-09-03T15:38:43.837591,-0.080,-1.320,357.810,-62.9,0.200,-0.300,180.360,1000.0
2025-09-03T15:38:43.843591,-0.100,-1.270,358.020,-62.9,0.200,-0.300,180.360,1000.0
2025-09-03T15:38:43.953527,-0.130,-1.220,358.140,-63.0,0.200,-0.300,180.360,1000.0
2025-09-03T15:38:43.955527,-0.160,-1.170,358.240,-63.0,0.200,-0.300,180.360,1000.0
2025-09-03T15:38:43.957528,-0.180,-1.130,358.310,-63.0,0.200,-0.300,180.360,1000.0
2025-09-03T15:38:43.959538,-0.210,-1.070,358.350,-62.9,0.200,-0.300,180.360,1000.0
2025-09-03T15:38:43.960529,-0.250,-1.030,358.370,-63.0,0.200,-0.300,180.360,1000.0
2025-09-03T15:38:44.078527,-0.290,-0.960,358.400,-63.0,0.200,-0.300,180.360,1000.0
2025-09-03T15:38:44.080528,-0.340,-0.880,358.440,-63.0,0.200,-0.300,180.360,1000.0
2025-09-03T15:38:44.081529,-0.410,-0.770,358.470,-63.0,0.200,-0.300,180.360,1000.0
2025-09-03T15:38:44.083528,-0.450,-0.670,358.530,-63.0,0.200,-0.300,180.360,1000.0
2025-09-03T15:38:44.085528,-0.480,-0.540,358.620,-63.0,0.200,-0.300,180.360,1000.0
2025-09-03T15:38:44.201669,-0.490,-0.440,358.700,-63.0,0.200,-0.300,180.360,1000.0
2025-09-03T15:38:44.203669,-0.490,-0.350,358.790,-63.0,0.200,-0.300,180.360,1000.0
2025-09-03T15:38:44.205668,-0.490,-0.280,358.890,-63.0,0.200,-0.300,180.360,1000.0
2025-09-03T15:38:44.207669,-0.490,-0.240,358.980,-63.0,0.200,-0.300,180.360,1000.0
2025-09-03T15:38:44.208668,-0.490,-0.190,359.080,-63.0,0.200,-0.300,180.360,1000.0
2025-09-03T15:38:44.325178,-0.500,-0.150,359.150,-63.0,0.200,-0.300,180.360,1000.0
2025-09-03T15:38:44.327191,-0.520,-0.090,359.210,-63.0,0.200,-0.300,180.360,1000.0
2025-09-03T15:38:44.329182,-0.550,-0.030,359.270,-63.0,0.200,-0.300,180.360,1000.0
2025-09-03T15:38:44.331180,-0.640,0.000,359.340,-62.9,0.200,-0.300,180.360,1000.0
2025-09-03T15:38:44.333183,-0.800,0.010,359.400,-62.9,0.200,-0.300,180.360,1000.0
2025-09-03T15:38:44.450107,-1.070,0.010,359.430,-62.9,0.200,-0.300,180.360,1000.0
2025-09-03T15:38:44.452107,-1.460,0.000,359.430,-62.9,0.200,-0.300,180.360,1000.0
2025-09-03T15:38:44.454108,-2.020,-0.030,359.390,-62.9,0.200,-0.300,180.360,1000.0
2025-09-03T15:38:44.456112,-2.740,-0.140,359.310,-63.0,0.200,-0.300,180.360,1000.0
2025-09-03T15:38:44.458108,-3.600,-0.280,359.200,-63.0,0.200,-0.300,180.360,1000.0
2025-09-03T15:38:44.576014,-4.450,-0.430,359.090,-63.0,0.200,-0.300,180.360,1000.0
2025-09-03T15:38:44.578015,-5.580,-0.590,358.920,-63.0,0.200,-0.300,180.360,1000.0
2025-09-03T15:38:44.580014,-6.710,-0.690,358.700,-63.0,0.200,-0.300,180.360,1000.0
2025-09-03T15:38:44.582016,-7.540,-0.750,358.520,-63.0,0.200,-0.300,180.360,1000.0
2025-09-03T15:38:44.584017,-9.040,-0.880,358.200,-63.0,0.200,-0.300,180.360,1000.0
2025-09-03T15:38:44.702174,-10.350,-1.060,358.010,-63.0,0.200,-0.300,180.360,1000.0
2025-09-03T15:38:44.704412,-11.750,-1.360,357.910,-63.0,0.200,-0.300,180.360,1000.0
2025-09-03T15:38:44.707414,-13.270,-1.700,357.870,-63.0,0.200,-0.300,180.360,1000.0
2025-09-03T15:38:44.709415,-14.920,-2.000,357.890,-63.0,0.200,-0.300,180.360,1000.0
2025-09-03T15:38:44.710412,-16.770,-2.290,357.970,-63.0,0.200,-0.300,180.360,1000.0
2025-09-03T15:38:44.825983,-18.750,-2.560,358.040,-63.0,0.200,-0.300,180.360,1000.0
2025-09-03T15:38:44.827990,-20.860,-2.830,358.100,-63.0,0.200,-0.300,180.360,1000.0
2025-09-03T15:38:44.829990,-23.250,-3.210,358.230,-63.0,0.200,-0.300,180.360,1000.0
2025-09-03T15:38:44.831991,-25.970,-3.690,358.530,-63.0,0.200,-0.300,180.360,1000.0
2025-09-03T15:38:44.835990,-28.160,-4.070,358.820,-63.0,0.200,-0.300,180.360,1000.0
2025-09-03T15:38:44.950178,-32.000,-4.600,359.240,-63.0,0.200,-0.300,180.360,1000.0
2025-09-03T15:38:44.952177,-35.210,-4.930,359.510,-63.0,0.200,-0.300,180.360,1000.0
2025-09-03T15:38:44.954182,-38.410,-5.230,359.810,-63.0,0.200,-0.300,180.360,1000.0
2025-09-03T15:38:44.955177,-41.630,-5.550,0.260,-63.0,0.200,-0.300,180.360,1000.0
2025-09-03T15:38:44.957177,-44.590,-5.910,0.870,-63.0,0.200,-0.300,180.360,1000.0
2025-09-03T15:38:45.072330,-46.370,-6.180,1.310,-63.0,0.200,-0.300,180.360,1000.0
2025-09-03T15:38:45.074332,-50.160,-6.890,2.490,-63.0,0.200,-0.300,180.360,1000.0
2025-09-03T15:38:45.075331,-52.600,-7.420,3.350,-63.0,0.200,-0.300,180.360,1000.0
2025-09-03T15:38:45.077332,-54.760,-7.920,4.090,-63.0,0.200,-0.300,180.360,1000.0
2025-09-03T15:38:45.078330,-56.270,-8.330,4.580,-63.0,0.200,-0.300,180.360,1000.0
2025-09-03T15:38:45.196119,-57.060,-8.710,4.840,-63.0,0.200,-0.300,180.360,1000.0
2025-09-03T15:38:45.201116,-57.540,-9.580,5.180,-63.0,0.200,-0.300,180.360,1000.0
2025-09-03T15:38:45.204115,-57.030,-10.490,5.440,-63.1,0.200,-0.300,180.360,1000.0
2025-09-03T15:38:45.205117,-55.660,-11.560,5.670,-63.1,0.200,-0.300,180.360,1000.0
2025-09-03T15:38:45.207116,-53.400,-12.690,5.810,-63.1,0.200,-0.300,180.360,1000.0
2025-09-03T15:38:45.321300,-50.490,-13.700,5.730,-63.1,0.200,-0.300,180.360,1000.0
2025-09-03T15:38:45.323299,-47.080,-14.540,5.410,-63.1,0.200,-0.300,180.360,1000.0
2025-09-03T15:38:45.325300,-43.240,-15.340,4.910,-63.1,0.200,-0.300,180.360,1000.0
2025-09-03T15:38:45.327312,-40.240,-15.900,4.490,-63.1,0.200,-0.300,180.360,1000.0
2025-09-03T15:38:45.329301,-34.930,-16.800,3.700,-63.1,0.200,-0.300,180.360,1000.0
2025-09-03T15:38:45.445034,-30.650,-17.430,3.030,-63.1,0.200,-0.300,180.360,1000.0
2025-09-03T15:38:45.447034,-26.370,-18.010,2.390,-63.1,0.200,-0.300,180.360,1000.0
2025-09-03T15:38:45.449035,-22.120,-18.530,1.850,-63.1,0.200,-0.300,180.360,1000.0
2025-09-03T15:38:45.451036,-17.930,-18.990,1.470,-63.1,0.200,-0.300,180.360,1000.0
2025-09-03T15:38:45.452034,-15.350,-19.240,1.310,-63.1,0.200,-0.300,180.360,1000.0
2025-09-03T15:38:45.568309,-9.750,-19.700,1.270,-63.1,0.200,-0.300,180.360,1000.0
2025-09-03T15:38:45.569309,-5.620,-19.980,1.390,-63.1,0.200,-0.300,180.360,1000.0
2025-09-03T15:38:45.571312,-1.350,-20.090,1.560,-63.1,0.200,-0.300,180.360,1000.0
2025-09-03T15:38:45.573308,1.810,-20.090,1.740,-63.2,0.200,-0.300,180.360,1000.0
2025-09-03T15:38:45.574310,7.090,-19.980,2.070,-63.2,0.200,-0.300,180.360,1000.0
2025-09-03T15:38:45.691676,11.100,-19.860,2.280,-63.2,0.200,-0.300,180.360,1000.0
2025-09-03T15:38:45.693677,14.800,-19.780,2.400,-63.2,0.200,-0.300,180.360,1000.0
2025-09-03T15:38:45.696676,18.110,-19.860,2.400,-63.2,0.200,-0.300,180.360,1000.0
2025-09-03T15:38:45.698677,20.980,-20.080,2.290,-63.2,0.200,-0.300,180.360,1000.0
2025-09-03T15:38:45.700682,23.410,-20.330,2.180,-63.2,0.200,-0.300,180.360,1000.0
2025-09-03T15:38:45.814730,24.560,-20.470,2.180,-63.2,0.200,-0.300,180.360,1000.0
2025-09-03T15:38:45.816729,26.330,-20.630,2.380,-63.2,0.200,-0.300,180.360,1000.0
2025-09-03T15:38:45.817729,26.820,-20.570,2.610,-63.2,0.200,-0.300,180.360,1000.0
2025-09-03T15:38:45.819732,26.520,-20.470,2.800,-63.2,0.200,-0.300,180.360,1000.0
2025-09-03T15:38:45.821729,25.290,-20.450,2.920,-63.2,0.200,-0.300,180.360,1000.0
2025-09-03T15:38:45.938074,23.290,-20.530,2.970,-63.1,0.200,-0.300,180.360,1000.0
2025-09-03T15:38:45.940075,20.700,-20.610,3.040,-63.1,0.200,-0.300,180.360,1000.0
2025-09-03T15:38:45.942076,17.300,-20.600,3.200,-63.1,0.200,-0.300,180.360,1000.0
2025-09-03T15:38:45.944075,14.410,-20.520,3.440,-63.1,0.200,-0.300,180.360,1000.0
2025-09-03T15:38:45.946077,10.850,-20.390,3.790,-63.1,0.200,-0.300,180.360,1000.0
2025-09-03T15:38:46.058934,6.910,-20.280,4.250,-63.1,0.200,-0.300,180.360,1000.0
2025-09-03T15:38:46.060932,3.010,-20.230,4.720,-63.1,0.200,-0.300,180.360,1000.0
2025-09-03T15:38:46.062933,-0.870,-20.330,5.170,-63.1,0.200,-0.300,180.360,1000.0
2025-09-03T15:38:46.064935,-4.640,-20.640,5.620,-63.1,0.200,-0.300,180.360,1000.0
2025-09-03T15:38:46.065934,-8.850,-21.310,6.140,-63.1,0.200,-0.300,180.360,1000.0
2025-09-03T15:38:46.185270,-11.980,-22.040,6.450,-63.1,0.200,-0.300,180.360,1000.0
2025-09-03T15:38:46.187269,-14.950,-23.040,6.650,-63.1,0.200,-0.300,180.360,1000.0
2025-09-03T15:38:46.189268,-18.380,-24.740,6.730,-63.1,0.200,-0.300,180.360,1000.0
2025-09-03T15:38:46.193270,-21.230,-26.860,6.810,-63.1,0.200,-0.300,180.360,1000.0
2025-09-03T15:38:46.197269,-23.630,-29.320,6.880,-63.1,0.200,-0.300,180.360,1000.0
2025-09-03T15:38:46.309260,-25.730,-32.090,6.880,-63.1,0.200,-0.300,180.360,1000.0
2025-09-03T15:38:46.312269,-27.030,-34.220,6.840,-63.1,0.200,-0.300,180.360,1000.0
2025-09-03T15:38:46.314266,-28.850,-38.060,6.810,-63.1,0.200,-0.300,180.360,1000.0
2025-09-03T15:38:46.316267,-29.840,-41.300,6.630,-63.1,0.200,-0.300,180.360,1000.0
2025-09-03T15:38:46.318268,-30.270,-43.720,6.400,-63.1,0.200,-0.300,180.360,1000.0
2025-09-03T15:38:46.434625,-30.520,-46.690,6.100,-63.1,0.200,-0.300,180.360,1000.0
2025-09-03T15:38:46.435625,-30.400,-48.670,5.680,-63.1,0.200,-0.300,180.360,1000.0
2025-09-03T15:38:46.437668,-30.090,-50.050,5.110,-63.1,0.200,-0.300,180.360,1000.0
2025-09-03T15:38:46.439651,-29.740,-50.920,4.640,-63.1,0.200,-0.300,180.360,1000.0
2025-09-03T15:38:46.441626,-29.060,-51.170,4.100,-63.1,0.200,-0.300,180.360,1000.0
2025-09-03T15:38:46.558159,-28.110,-50.620,3.660,-63.1,0.200,-0.300,180.360,1000.0
2025-09-03T15:38:46.560158,-26.980,-49.540,3.340,-63.1,0.200,-0.300,180.360,1000.0
2025-09-03T15:38:46.562159,-25.570,-47.620,3.030,-63.1,0.200,-0.300,180.360,1000.0
2025-09-03T15:38:46.563159,-24.260,-45.320,2.810,-63.1,0.200,-0.300,180.360,1000.0
2025-09-03T15:38:46.565160,-23.010,-42.810,2.760,-63.1,0.200,-0.300,180.360,1000.0
2025-09-03T15:38:46.683228,-21.930,-40.340,3.020,-63.1,0.200,-0.300,180.360,1000.0
2025-09-03T15:38:46.685229,-21.250,-38.560,3.420,-63.1,0.200,-0.300,180.360,1000.0
2025-09-03T15:38:46.686227,-20.450,-35.790,4.410,-63.1,0.200,-0.300,180.360,1000.0
2025-09-03T15:38:46.688229,-20.200,-33.940,5.290,-63.1,0.200,-0.300,180.360,1000.0
2025-09-03T15:38:46.691228,-20.210,-31.790,6.350,-63.1,0.200,-0.300,180.360,1000.0
2025-09-03T15:38:46.807082,-20.470,-29.540,7.410,-63.1,0.200,-0.300,180.360,1000.0
2025-09-03T15:38:46.809082,-20.950,-26.980,8.580,-63.1,0.200,-0.300,180.360,1000.0
2025-09-03T15:38:46.810084,-21.980,-23.550,10.300,-63.1,0.200,-0.300,180.360,1000.0
2025-09-03T15:38:46.812084,-23.460,-20.060,12.190,-63.1,0.200,-0.300,180.360,1000.0
2025-09-03T15:38:46.814084,-25.290,-17.010,13.890,-63.1,0.200,-0.300,180.360,1000.0
2025-09-03T15:38:46.930713,-28.360,-13.300,15.620,-63.1,0.200,-0.300,180.360,1000.0
2025-09-03T15:38:46.932715,-31.570,-10.160,16.420,-63.1,0.200,-0.300,180.360,1000.0
2025-09-03T15:38:46.934715,-34.880,-7.320,16.580,-63.1,0.200,-0.300,180.360,1000.0
2025-09-03T15:38:46.936714,-37.710,-5.180,16.420,-63.1,0.200,-0.300,180.360,1000.0
2025-09-03T15:38:46.938714,-40.790,-3.310,16.260,-63.1,0.200,-0.300,180.360,1000.0
2025-09-03T15:38:47.055900,-43.660,-2.050,16.280,-63.1,0.200,-0.300,180.360,1000.0
2025-09-03T15:38:47.057901,-46.150,-0.800,15.960,-63.1,0.200,-0.300,180.360,1000.0
2025-09-03T15:38:47.059902,-47.710,0.110,15.220,-63.1,0.200,-0.300,180.360,1000.0
2025-09-03T15:38:47.060901,-48.520,0.540,14.420,-63.1,0.200,-0.300,180.360,1000.0
2025-09-03T15:38:47.062901,-48.600,0.270,13.660,-63.1,0.200,-0.300,180.360,1000.0
2025-09-03T15:38:47.176913,-47.360,-1.340,13.170,-63.1,0.200,-0.300,180.360,1000.0
2025-09-03T15:38:47.178936,-45.100,-3.760,13.030,-63.1,0.200,-0.300,180.360,1000.0
2025-09-03T15:38:47.180904,-42.060,-6.640,13.040,-63.1,0.200,-0.300,180.360,1000.0
2025-09-03T15:38:47.182902,-38.740,-9.370,12.990,-63.1,0.200,-0.300,180.360,1000.0
2025-09-03T15:38:47.183911,-34.090,-12.460,12.570,-63.1,0.200,-0.300,180.360,1000.0
2025-09-03T15:38:47.303132,-29.110,-15.150,11.690,-63.1,0.200,-0.300,180.360,1000.0
2025-09-03T15:38:47.305133,-23.320,-17.970,10.300,-63.1,0.200,-0.300,180.360,1000.0
2025-09-03T15:38:47.307134,-18.120,-20.240,8.870,-63.1,0.200,-0.300,180.360,1000.0
2025-09-03T15:38:47.309134,-13.640,-21.860,7.530,-63.1,0.200,-0.300,180.360,1000.0
2025-09-03T15:38:47.311133,-8.090,-23.330,5.710,-63.1,0.200,-0.300,180.360,1000.0
2025-09-03T15:38:47.428839,-3.580,-24.010,4.030,-63.1,0.200,-0.300,180.360,1000.0
2025-09-03T15:38:47.430839,0.180,-24.310,2.500,-63.1,0.200,-0.300,180.360,1000.0
2025-09-03T15:38:47.432843,3.000,-24.180,1.270,-63.1,0.200,-0.300,180.360,1000.0
2025-09-03T15:38:47.434843,4.890,-23.630,0.430,-63.1,0.200,-0.300,180.360,1000.0
2025-09-03T15:38:47.436841,5.870,-22.810,0.030,-63.1,0.200,-0.300,180.360,1000.0
2025-09-03T15:38:47.554429,6.160,-21.570,359.970,-63.1,0.200,-0.300,180.360,1000.0
2025-09-03T15:38:47.555433,5.350,-19.860,0.340,-63.1,0.200,-0.300,180.360,1000.0
2025-09-03T15:38:47.557435,3.860,-18.080,0.850,-63.1,0.200,-0.300,180.360,1000.0
2025-09-03T15:38:47.559432,1.900,-16.190,1.370,-63.1,0.200,-0.300,180.360,1000.0
2025-09-03T15:38:47.560440,-0.480,-14.370,1.900,-63.1,0.200,-0.300,180.360,1000.0
2025-09-03T15:38:47.664670,-3.150,-12.630,2.390,-63.1,0.200,-0.300,180.360,1000.0
2025-09-03T15:38:47.667670,-5.870,-10.960,2.790,-63.1,0.200,-0.300,180.360,1000.0
2025-09-03T15:38:47.668670,-8.440,-9.420,3.070,-63.1,0.200,-0.300,180.360,1000.0
2025-09-03T15:38:47.670670,-10.550,-8.220,3.200,-63.1,0.200,-0.300,180.360,1000.0
2025-09-03T15:38:47.672672,-12.760,-7.010,3.100,-63.1,0.200,-0.300,180.360,1000.0
2025-09-03T15:38:47.789646,-14.000,-6.220,2.710,-63.1,0.200,-0.300,180.360,1000.0
2025-09-03T15:38:47.792645,-15.040,-5.560,2.050,-63.1,0.200,-0.300,180.360,1000.0
2025-09-03T15:38:47.795647,-15.660,-5.370,1.580,-63.1,0.200,-0.300,180.360,1000.0
2025-09-03T15:38:47.797647,-15.980,-5.480,1.280,-63.1,0.200,-0.300,180.360,1000.0
2025-09-03T15:38:47.799650,-16.000,-5.700,0.930,-63.1,0.200,-0.300,180.360,1000.0
2025-09-03T15:38:47.912685,-15.810,-5.870,0.390,-63.1,0.200,-0.300,180.360,1000.0
2025-09-03T15:38:47.914679,-15.320,-5.980,359.690,-63.1,0.200,-0.300,180.360,1000.0
2025-09-03T15:38:47.916686,-14.570,-6.030,358.970,-63.1,0.200,-0.300,180.360,1000.0
2025-09-03T15:38:47.917645,-13.600,-6.060,358.340,-63.1,0.200,-0.300,180.360,1000.0
2025-09-03T15:38:47.919646,-12.380,-6.090,357.900,-63.1,0.200,-0.300,180.360,1000.0
2025-09-03T15:38:48.036497,-11.060,-6.210,357.610,-63.1,0.200,-0.300,180.360,1000.0
2025-09-03T15:38:48.038501,-9.320,-6.390,357.340,-63.1,0.200,-0.300,180.360,1000.0
2025-09-03T15:38:48.039504,-7.160,-6.690,357.100,-63.1,0.200,-0.300,180.360,1000.0
2025-09-03T15:38:48.041504,-5.130,-6.920,356.990,-63.1,0.200,-0.300,180.360,1000.0
2025-09-03T15:38:48.043504,-3.040,-6.950,357.050,-63.1,0.200,-0.300,180.360,1000.0
2025-09-03T15:38:48.160273,-0.760,-6.850,357.360,-63.1,0.200,-0.300,180.360,1000.0
2025-09-03T15:38:48.163272,1.040,-6.600,357.820,-63.1,0.200,-0.300,180.360,1000.0
2025-09-03T15:38:48.164273,2.390,-6.320,358.320,-63.1,0.200,-0.300,180.360,1000.0
2025-09-03T15:38:48.167274,3.450,-6.040,358.940,-63.1,0.200,-0.300,180.360,1000.0
2025-09-03T15:38:48.168279,4.430,-5.410,359.950,-63.1,0.200,-0.300,180.360,1000.0
2025-09-03T15:38:48.283912,5.090,-4.360,0.930,-63.1,0.200,-0.300,180.360,1000.0
2025-09-03T15:38:48.285918,5.390,-3.070,1.860,-63.1,0.200,-0.300,180.360,1000.0
2025-09-03T15:38:48.287920,5.220,-1.260,3.020,-63.0,0.200,-0.300,180.360,1000.0
2025-09-03T15:38:48.290921,4.650,0.210,3.830,-63.0,0.200,-0.300,180.360,1000.0
2025-09-03T15:38:48.292918,3.760,1.450,4.310,-63.0,0.200,-0.300,180.360,1000.0
2025-09-03T15:38:48.404666,2.930,2.000,4.430,-63.0,0.200,-0.300,180.360,1000.0
2025-09-03T15:38:48.406665,1.790,2.220,4.420,-63.0,0.200,-0.300,180.360,1000.0
2025-09-03T15:38:48.407667,0.330,2.210,4.340,-63.0,0.200,-0.300,180.360,1000.0
2025-09-03T15:38:48.409669,-0.880,2.160,4.250,-63.0,0.200,-0.300,180.360,1000.0
2025-09-03T15:38:48.411666,-2.370,2.110,4.110,-63.0,0.200,-0.300,180.360,1000.0
2025-09-03T15:38:48.528667,-4.220,2.030,3.860,-63.0,0.200,-0.300,180.360,1000.0
2025-09-03T15:38:48.529666,-5.920,1.970,3.560,-63.0,0.200,-0.300,180.360,1000.0
2025-09-03T15:38:48.531666,-7.190,1.910,3.280,-63.0,0.200,-0.300,180.360,1000.0
2025-09-03T15:38:48.533667,-9.090,1.710,2.880,-63.0,0.200,-0.300,180.360,1000.0
2025-09-03T15:38:48.534666,-10.900,1.430,2.500,-63.0,0.200,-0.300,180.360,1000.0
2025-09-03T15:38:48.651285,-12.110,1.150,2.180,-63.0,0.200,-0.300,180.360,1000.0
2025-09-03T15:38:48.654282,-13.240,0.800,1.610,-63.0,0.200,-0.300,180.360,1000.0
2025-09-03T15:38:48.655282,-13.690,0.570,1.050,-63.0,0.200,-0.300,180.360,1000.0
2025-09-03T15:38:48.657295,-13.720,0.340,0.270,-62.9,0.200,-0.300,180.360,1000.0
2025-09-03T15:38:48.659282,-13.300,0.160,359.750,-62.9,0.200,-0.300,180.360,1000.0
2025-09-03T15:38:48.774595,-12.270,-0.190,359.300,-62.9,0.200,-0.300,180.360,1000.0
2025-09-03T15:38:48.776594,-11.000,-0.670,359.120,-63.0,0.200,-0.300,180.360,1000.0
2025-09-03T15:38:48.778594,-9.670,-1.160,359.080,-63.0,0.200,-0.300,180.360,1000.0
2025-09-03T15:38:48.780595,-8.220,-1.690,359.100,-63.0,0.200,-0.300,180.360,1000.0
2025-09-03T15:38:48.781594,-6.350,-2.380,359.160,-63.0,0.200,-0.300,180.360,1000.0
2025-09-03T15:38:48.896250,-4.520,-2.990,359.170,-63.0,0.200,-0.300,180.360,1000.0
2025-09-03T15:38:48.897238,-3.000,-3.470,359.180,-63.0,0.200,-0.300,180.360,1000.0
2025-09-03T15:38:48.899239,-1.920,-3.810,359.240,-63.0,0.200,-0.300,180.360,1000.0
2025-09-03T15:38:48.902240,-0.850,-4.150,359.450,-63.0,0.200,-0.300,180.360,1000.0
2025-09-03T15:38:48.903240,0.080,-4.400,359.870,-63.0,0.200,-0.300,180.360,1000.0
2025-09-03T15:38:49.019268,0.690,-4.510,0.300,-63.0,0.200,-0.300,180.360,1000.0
2025-09-03T15:38:49.020276,1.130,-4.520,0.700,-63.0,0.200,-0.300,180.360,1000.0
2025-09-03T15:38:49.022233,1.460,-4.420,1.030,-63.0,0.200,-0.300,180.360,1000.0
2025-09-03T15:38:49.024230,1.680,-4.200,1.310,-62.9,0.200,-0.300,180.360,1000.0
2025-09-03T15:38:49.026232,1.270,-3.610,1.560,-62.9,0.200,-0.300,180.360,1000.0
2025-09-03T15:38:49.145277,1.070,-3.200,1.900,-62.9,0.200,-0.300,180.360,1000.0
2025-09-03T15:38:49.147276,0.770,-2.790,2.390,-63.0,0.200,-0.300,180.360,1000.0
2025-09-03T15:38:49.149277,0.400,-2.540,2.760,-63.0,0.200,-0.300,180.360,1000.0
2025-09-03T15:38:49.150277,0.070,-2.420,2.950,-63.0,0.200,-0.300,180.360,1000.0
2025-09-03T15:38:49.152280,-0.190,-2.280,3.050,-63.0,0.200,-0.300,180.360,1000.0
2025-09-03T15:38:49.269365,-0.360,-1.900,3.140,-63.0,0.200,-0.300,180.360,1000.0
2025-09-03T15:38:49.271362,-0.520,-1.490,3.180,-63.0,0.200,-0.300,180.360,1000.0
2025-09-03T15:38:49.272365,-0.750,-1.270,3.160,-63.0,0.200,-0.300,180.360,1000.0
2025-09-03T15:38:49.274365,-0.750,-1.180,3.150,-63.0,0.200,-0.300,180.360,1000.0
2025-09-03T15:38:49.276370,-0.760,-1.190,3.200,-63.0,0.200,-0.300,180.360,1000.0
2025-09-03T15:38:49.393116,-0.730,-1.210,3.230,-63.0,0.200,-0.300,180.360,1000.0
2025-09-03T15:38:49.395118,-0.690,-1.210,3.240,-63.0,0.200,-0.300,180.360,1000.0
2025-09-03T15:38:49.396118,-0.660,-1.200,3.250,-63.0,0.200,-0.300,180.360,1000.0
2025-09-03T15:38:49.398119,-0.640,-1.200,3.260,-62.9,0.200,-0.300,180.360,1000.0
2025-09-03T15:38:49.400121,-0.640,-1.230,3.260,-62.9,0.200,-0.300,180.360,1000.0
2025-09-03T15:38:49.504170,-0.630,-1.270,3.280,-62.9,0.200,-0.300,180.360,1000.0
2025-09-03T15:38:49.506170,-0.610,-1.290,3.280,-62.9,0.200,-0.300,180.360,1000.0
2025-09-03T15:38:49.508169,-0.590,-1.320,3.290,-62.9,0.200,-0.300,180.360,1000.0
2025-09-03T15:38:49.510185,-0.580,-1.350,3.300,-62.9,0.200,-0.300,180.360,1000.0
2025-09-03T15:38:49.511170,-0.570,-1.380,3.300,-62.9,0.200,-0.300,180.360,1000.0
2025-09-03T15:38:49.629123,-0.580,-1.390,3.300,-62.9,0.200,-0.300,180.360,1000.0
2025-09-03T15:38:49.631125,-0.580,-1.380,3.300,-62.9,0.200,-0.300,180.360,1000.0
2025-09-03T15:38:49.632122,-0.580,-1.360,3.300,-62.9,0.200,-0.300,180.360,1000.0
2025-09-03T15:38:49.634125,-0.580,-1.360,3.310,-63.0,0.200,-0.300,180.360,1000.0
2025-09-03T15:38:49.636123,-0.570,-1.340,3.300,-63.0,0.200,-0.300,180.360,1000.0
2025-09-03T15:38:49.755262,-0.570,-1.330,3.300,-63.0,0.200,-0.300,180.360,1000.0
2025-09-03T15:38:49.757267,-0.560,-1.320,3.300,-63.0,0.200,-0.300,180.360,1000.0
2025-09-03T15:38:49.758267,-0.560,-1.310,3.300,-63.0,0.200,-0.300,180.360,1000.0
2025-09-03T15:38:49.760268,-0.570,-1.310,3.300,-63.0,0.200,-0.300,180.360,1000.0
2025-09-03T15:38:49.762268,-0.570,-1.310,3.300,-63.0,0.200,-0.300,180.360,1000.0
2025-09-03T15:38:49.878281,-0.560,-1.310,3.300,-63.0,0.200,-0.300,180.360,1000.0
2025-09-03T15:38:49.880281,-0.560,-1.310,3.300,-63.0,0.200,-0.300,180.360,1000.0
2025-09-03T15:38:49.882280,-0.560,-1.310,3.300,-63.0,0.200,-0.300,180.360,1000.0
2025-09-03T15:38:49.884283,-0.550,-1.310,3.300,-63.0,0.200,-0.300,180.360,1000.0
2025-09-03T15:38:49.885282,-0.540,-1.310,3.300,-63.0,0.200,-0.300,180.360,1000.0
2025-09-03T15:38:50.002842,-0.540,-1.310,3.300,-63.0,0.200,-0.300,180.360,1000.0
2025-09-03T15:38:50.004841,-0.520,-1.310,3.300,-63.0,0.200,-0.300,180.360,1000.0
2025-09-03T15:38:50.006840,-0.510,-1.320,3.300,-63.0,0.200,-0.300,180.360,1000.0
2025-09-03T15:38:50.008843,-0.510,-1.330,3.300,-63.0,0.200,-0.300,180.360,1000.0
2025-09-03T15:38:50.010842,-0.510,-1.330,3.300,-63.0,0.200,-0.300,180.360,1000.0
2025-09-03T15:38:50.126841,-0.500,-1.330,3.300,-63.0,0.200,-0.300,180.360,1000.0
2025-09-03T15:38:50.128844,-0.490,-1.340,3.300,-63.0,0.200,-0.300,180.360,1000.0
2025-09-03T15:38:50.130840,-0.490,-1.350,3.300,-63.0,0.200,-0.300,180.360,1000.0
2025-09-03T15:38:50.132841,-0.480,-1.350,3.300,-63.0,0.200,-0.300,180.360,1000.0
2025-09-03T15:38:50.134842,-0.470,-1.360,3.300,-63.0,0.200,-0.300,180.360,1000.0
2025-09-03T15:38:50.249776,-0.460,-1.370,3.300,-63.0,0.200,-0.300,180.360,1000.0
2025-09-03T15:38:50.251781,-0.460,-1.370,3.300,-63.0,0.200,-0.300,180.360,1000.0
2025-09-03T15:38:50.253783,-0.460,-1.380,3.300,-63.0,0.200,-0.300,180.360,1000.0
2025-09-03T15:38:50.255782,-0.440,-1.390,3.290,-63.0,0.200,-0.300,180.360,1000.0
2025-09-03T15:38:50.256781,-0.440,-1.390,3.300,-63.0,0.200,-0.300,180.360,1000.0
2025-09-03T15:38:50.373265,-0.440,-1.390,3.290,-63.0,0.200,-0.300,180.360,1000.0
2025-09-03T15:38:50.375265,-0.440,-1.390,3.290,-63.0,0.200,-0.300,180.360,1000.0
2025-09-03T15:38:50.377265,-0.430,-1.390,3.300,-63.0,0.200,-0.300,180.360,1000.0
2025-09-03T15:38:50.379268,-0.420,-1.400,3.290,-63.0,0.200,-0.300,180.360,1000.0
2025-09-03T15:38:50.380268,-0.420,-1.400,3.290,-63.0,0.200,-0.300,180.360,1000.0
2025-09-03T15:38:50.499194,-0.410,-1.410,3.290,-63.0,0.200,-0.300,180.360,1000.0
2025-09-03T15:38:50.501194,-0.410,-1.410,3.300,-63.0,0.200,-0.300,180.360,1000.0
2025-09-03T15:38:50.503195,-0.410,-1.410,3.290,-63.0,0.200,-0.300,180.360,1000.0
2025-09-03T15:38:50.505194,-0.410,-1.410,3.290,-63.0,0.200,-0.300,180.360,1000.0
2025-09-03T15:38:50.507194,-0.410,-1.410,3.290,-63.0,0.200,-0.300,180.360,1000.0
2025-09-03T15:38:50.624337,-0.410,-1.410,3.290,-63.0,0.200,-0.300,180.360,1000.0
2025-09-03T15:38:50.626335,-0.410,-1.420,3.290,-63.0,0.200,-0.300,180.360,1000.0
2025-09-03T15:38:50.628339,-0.410,-1.430,3.290,-63.0,0.200,-0.300,180.360,1000.0
2025-09-03T15:38:50.630337,-0.410,-1.430,3.290,-63.0,0.200,-0.300,180.360,1000.0
2025-09-03T15:38:50.632340,-0.410,-1.430,3.290,-63.0,0.200,-0.300,180.360,1000.0
2025-09-03T15:38:50.750375,-0.410,-1.440,3.300,-63.0,0.200,-0.300,180.360,1000.0
2025-09-03T15:38:50.752375,-0.410,-1.440,3.290,-63.0,0.200,-0.300,180.360,1000.0
2025-09-03T15:38:50.754379,-0.410,-1.450,3.290,-63.0,0.200,-0.300,180.360,1000.0
2025-09-03T15:38:50.756376,-0.410,-1.460,3.290,-63.0,0.200,-0.300,180.360,1000.0
2025-09-03T15:38:50.758376,-0.410,-1.460,3.290,-63.0,0.200,-0.300,180.360,1000.0
2025-09-03T15:38:50.876626,-0.400,-1.460,3.290,-63.0,0.200,-0.300,180.360,1000.0
2025-09-03T15:38:50.877625,-0.400,-1.460,3.290,-63.0,0.200,-0.300,180.360,1000.0
2025-09-03T15:38:50.879626,-0.390,-1.470,3.300,-62.9,0.200,-0.300,180.360,1000.0
2025-09-03T15:38:50.881627,-0.390,-1.470,3.300,-62.9,0.200,-0.300,180.360,1000.0
2025-09-03T15:38:50.883627,-0.390,-1.480,3.300,-62.9,0.200,-0.300,180.360,1000.0
2025-09-03T15:38:51.001030,-0.400,-1.480,3.300,-62.9,0.200,-0.300,180.360,1000.0
2025-09-03T15:38:51.003030,-0.410,-1.470,3.300,-62.9,0.200,-0.300,180.360,1000.0
2025-09-03T15:38:51.005031,-0.400,-1.470,3.300,-62.9,0.200,-0.300,180.360,1000.0
2025-09-03T15:38:51.007034,-0.400,-1.480,3.300,-62.9,0.200,-0.300,180.360,1000.0
2025-09-03T15:38:51.008035,-0.390,-1.480,3.300,-62.9,0.200,-0.300,180.360,1000.0
2025-09-03T15:38:51.124042,-0.380,-1.480,3.300,-62.9,0.200,-0.300,180.360,1000.0
2025-09-03T15:38:51.126041,-0.380,-1.480,3.290,-62.9,0.200,-0.300,180.360,1000.0
2025-09-03T15:38:51.127043,-0.370,-1.480,3.290,-62.9,0.200,-0.300,180.360,1000.0
2025-09-03T15:38:51.129042,-0.370,-1.480,3.290,-62.9,0.200,-0.300,180.360,1000.0
2025-09-03T15:38:51.130041,-0.370,-1.480,3.290,-62.9,0.200,-0.300,180.360,1000.0
2025-09-03T15:38:51.246530,-0.360,-1.480,3.290,-62.9,0.200,-0.300,180.360,1000.0
2025-09-03T15:38:51.248530,-0.370,-1.490,3.290,-62.9,0.200,-0.300,180.360,1000.0
2025-09-03T15:38:51.249534,-0.370,-1.490,3.290,-62.9,0.200,-0.300,180.360,1000.0
2025-09-03T15:38:51.251532,-0.380,-1.490,3.290,-62.9,0.200,-0.300,180.360,1000.0
2025-09-03T15:38:51.253531,-0.380,-1.490,3.290,-62.9,0.200,-0.300,180.360,1000.0
2025-09-03T15:38:51.372538,-0.380,-1.490,3.290,-62.9,0.200,-0.300,180.360,1000.0
2025-09-03T15:38:51.374538,-0.380,-1.490,3.290,-62.9,0.200,-0.300,180.360,1000.0
2025-09-03T15:38:51.376540,-0.380,-1.490,3.290,-62.9,0.200,-0.300,180.360,1000.0
2025-09-03T15:38:51.378540,-0.380,-1.490,3.290,-62.9,0.200,-0.300,180.360,1000.0
2025-09-03T15:38:51.379540,-0.380,-1.490,3.290,-62.9,0.200,-0.300,180.360,1000.0
2025-09-03T15:38:51.495968,-0.380,-1.490,3.290,-62.9,0.200,-0.300,180.360,1000.0
2025-09-03T15:38:51.498967,-0.380,-1.510,3.290,-62.9,0.200,-0.300,180.360,1000.0
2025-09-03T15:38:51.500968,-0.360,-1.510,3.290,-62.9,0.200,-0.300,180.360,1000.0
2025-09-03T15:38:51.503969,-0.360,-1.500,3.290,-62.9,0.200,-0.300,180.360,1000.0
2025-09-03T15:38:51.505968,-0.370,-1.500,3.290,-62.9,0.200,-0.300,180.360,1000.0
2025-09-03T15:38:51.619329,-0.360,-1.510,3.290,-62.9,0.200,-0.300,180.360,1000.0
2025-09-03T15:38:51.620329,-0.370,-1.510,3.290,-62.9,0.200,-0.300,180.360,1000.0
2025-09-03T15:38:51.622329,-0.360,-1.510,3.290,-62.9,0.200,-0.300,180.360,1000.0
2025-09-03T15:38:51.624331,-0.360,-1.510,3.290,-62.9,0.200,-0.300,180.360,1000.0
2025-09-03T15:38:51.626330,-0.360,-1.500,3.290,-62.9,0.200,-0.300,180.360,1000.0
2025-09-03T15:38:51.742189,-0.360,-1.510,3.290,-62.9,0.200,-0.300,180.360,1000.0
2025-09-03T15:38:51.744216,-0.370,-1.510,3.290,-62.9,0.200,-0.300,180.360,1000.0
2025-09-03T15:38:51.746218,-0.370,-1.520,3.290,-62.9,0.200,-0.300,180.360,1000.0
2025-09-03T15:38:51.747215,-0.360,-1.520,3.290,-62.9,0.200,-0.300,180.360,1000.0
2025-09-03T15:38:51.749217,-0.360,-1.520,3.290,-62.9,0.200,-0.300,180.360,1000.0
2025-09-03T15:38:51.866968,-0.360,-1.520,3.290,-62.9,0.200,-0.300,180.360,1000.0
2025-09-03T15:38:51.868967,-0.370,-1.520,3.290,-62.9,0.200,-0.300,180.360,1000.0
2025-09-03T15:38:51.870968,-0.380,-1.520,3.290,-62.9,0.200,-0.300,180.360,1000.0
2025-09-03T15:38:51.872966,-0.380,-1.520,3.300,-62.9,0.200,-0.300,180.360,1000.0
2025-09-03T15:38:51.874968,-0.390,-1.530,3.290,-62.9,0.200,-0.300,180.360,1000.0
2025-09-03T15:38:51.991036,-0.400,-1.540,3.290,-62.9,0.200,-0.300,180.360,1000.0
2025-09-03T15:38:51.994037,-0.400,-1.540,3.300,-62.9,0.200,-0.300,180.360,1000.0
2025-09-03T15:38:51.996036,-0.400,-1.550,3.300,-62.9,0.200,-0.300,180.360,1000.0
2025-09-03T15:38:51.998037,-0.400,-1.550,3.290,-62.9,0.200,-0.300,180.360,1000.0
2025-09-03T15:38:52.000037,-0.400,-1.550,3.290,-62.9,0.200,-0.300,180.360,1000.0
2025-09-03T15:38:52.115136,-0.400,-1.550,3.290,-62.9,0.200,-0.300,180.360,1000.0
2025-09-03T15:38:52.117142,-0.400,-1.550,3.300,-62.9,0.200,-0.300,180.360,1000.0
2025-09-03T15:38:52.119143,-0.400,-1.550,3.300,-62.9,0.200,-0.300,180.360,1000.0
2025-09-03T15:38:52.121142,-0.400,-1.550,3.300,-62.9,0.200,-0.300,180.360,1000.0
2025-09-03T15:38:52.123143,-0.400,-1.550,3.300,-62.9,0.200,-0.300,180.360,1000.0
2025-09-03T15:38:52.239197,-0.400,-1.550,3.300,-62.9,0.200,-0.300,180.360,1000.0
2025-09-03T15:38:52.241197,-0.400,-1.550,3.310,-62.9,0.200,-0.300,180.360,1000.0
2025-09-03T15:38:52.243198,-0.400,-1.550,3.300,-62.9,0.200,-0.300,180.360,1000.0
2025-09-03T15:38:52.245197,-0.400,-1.550,3.300,-63.0,0.200,-0.300,180.360,1000.0
2025-09-03T15:38:52.246197,-0.400,-1.550,3.300,-63.0,0.200,-0.300,180.360,1000.0
2025-09-03T15:38:52.364058,-0.400,-1.550,3.300,-63.0,0.200,-0.300,180.360,1000.0
2025-09-03T15:38:52.366058,-0.400,-1.550,3.300,-63.0,0.200,-0.300,180.360,1000.0
2025-09-03T15:38:52.368058,-0.400,-1.550,3.300,-62.9,0.200,-0.300,180.360,1000.0
2025-09-03T15:38:52.370059,-0.410,-1.550,3.300,-62.9,0.200,-0.300,180.360,1000.0
2025-09-03T15:38:52.372059,-0.410,-1.540,3.300,-62.9,0.200,-0.300,180.360,1000.0
2025-09-03T15:38:52.476056,-0.400,-1.540,3.300,-62.9,0.200,-0.300,180.360,1000.0
2025-09-03T15:38:52.477058,-0.400,-1.540,3.300,-62.9,0.200,-0.300,180.360,1000.0
2025-09-03T15:38:52.479058,-0.400,-1.550,3.300,-62.9,0.200,-0.300,180.360,1000.0
2025-09-03T15:38:52.481058,-0.400,-1.550,3.300,-62.9,0.200,-0.300,180.360,1000.0
2025-09-03T15:38:52.482058,-0.400,-1.550,3.300,-62.9,0.200,-0.300,180.360,1000.0
2025-09-03T15:38:52.599687,-0.400,-1.550,3.300,-62.9,0.200,-0.300,180.360,1000.0
2025-09-03T15:38:52.601687,-0.400,-1.550,3.300,-62.9,0.200,-0.300,180.360,1000.0
2025-09-03T15:38:52.603685,-0.400,-1.550,3.300,-62.9,0.200,-0.300,180.360,1000.0
2025-09-03T15:38:52.605686,-0.400,-1.550,3.300,-62.9,0.200,-0.300,180.360,1000.0
2025-09-03T15:38:52.606684,-0.400,-1.540,3.300,-62.9,0.200,-0.300,180.360,1000.0
2025-09-03T15:38:52.724268,-0.400,-1.540,3.300,-62.9,0.200,-0.300,180.360,1000.0
2025-09-03T15:38:52.726235,-0.400,-1.540,3.300,-62.9,0.200,-0.300,180.360,1000.0
2025-09-03T15:38:52.728237,-0.400,-1.540,3.300,-62.9,0.200,-0.300,180.360,1000.0
2025-09-03T15:38:52.730234,-0.400,-1.540,3.300,-62.9,0.200,-0.300,180.360,1000.0
2025-09-03T15:38:52.731233,-0.400,-1.540,3.300,-62.9,0.200,-0.300,180.360,1000.0
2025-09-03T15:38:52.847235,-0.400,-1.540,3.300,-62.9,0.200,-0.300,180.360,1000.0
2025-09-03T15:38:52.849236,-0.400,-1.540,3.300,-62.9,0.200,-0.300,180.360,1000.0
2025-09-03T15:38:52.851235,-0.400,-1.540,3.300,-62.9,0.200,-0.300,180.360,1000.0
2025-09-03T15:38:52.854236,-0.400,-1.540,3.300,-63.0,0.200,-0.300,180.360,1000.0
2025-09-03T15:38:52.856238,-0.400,-1.540,3.290,-63.0,0.200,-0.300,180.360,1000.0
2025-09-03T15:38:52.971310,-0.400,-1.540,3.290,-63.0,0.200,-0.300,180.360,1000.0
2025-09-03T15:38:52.973316,-0.400,-1.540,3.290,-63.0,0.200,-0.300,180.360,1000.0
2025-09-03T15:38:52.974312,-0.400,-1.540,3.290,-63.0,0.200,-0.300,180.360,1000.0
2025-09-03T15:38:52.976311,-0.390,-1.540,3.290,-63.0,0.200,-0.300,180.360,1000.0
2025-09-03T15:38:52.978313,-0.390,-1.540,3.290,-63.0,0.200,-0.300,180.360,1000.0
2025-09-03T15:38:53.096308,-0.380,-1.540,3.290,-63.0,0.200,-0.300,180.360,1000.0
2025-09-03T15:38:53.098310,-0.390,-1.540,3.290,-63.0,0.200,-0.300,180.360,1000.0
2025-09-03T15:38:53.100307,-0.390,-1.540,3.290,-63.0,0.200,-0.300,180.360,1000.0
2025-09-03T15:38:53.101308,-0.390,-1.540,3.290,-63.0,0.200,-0.300,180.360,1000.0
2025-09-03T15:38:53.103309,-0.390,-1.540,3.290,-63.0,0.200,-0.300,180.360,1000.0
2025-09-03T15:38:53.220494,-0.390,-1.540,3.290,-63.0,0.200,-0.300,180.360,1000.0
2025-09-03T15:38:53.222494,-0.390,-1.540,3.290,-63.0,0.200,-0.300,180.360,1000.0
2025-09-03T15:38:53.224494,-0.390,-1.540,3.290,-63.0,0.200,-0.300,180.360,1000.0
2025-09-03T15:38:53.225494,-0.400,-1.540,3.290,-63.0,0.200,-0.300,180.360,1000.0
2025-09-03T15:38:53.227494,-0.400,-1.540,3.290,-63.0,0.200,-0.300,180.360,1000.0
2025-09-03T15:38:53.345625,-0.400,-1.540,3.290,-63.0,0.200,-0.300,180.360,1000.0
2025-09-03T15:38:53.347626,-0.400,-1.540,3.290,-63.0,0.200,-0.300,180.360,1000.0
2025-09-03T15:38:53.349626,-0.400,-1.540,3.290,-63.0,0.200,-0.300,180.360,1000.0
2025-09-03T15:38:53.350626,-0.400,-1.540,3.290,-62.9,0.200,-0.300,180.360,1000.0
2025-09-03T15:38:53.352627,-0.400,-1.540,3.290,-62.9,0.200,-0.300,180.360,1000.0
2025-09-03T15:38:53.456539,-0.400,-1.540,3.290,-62.9,0.200,-0.300,180.360,1000.0
2025-09-03T15:38:53.458531,-0.390,-1.540,3.290,-62.9,0.200,-0.300,180.360,1000.0
2025-09-03T15:38:53.460531,-0.390,-1.540,3.290,-62.9,0.200,-0.300,180.360,1000.0
2025-09-03T15:38:53.461532,-0.390,-1.540,3.290,-62.9,0.200,-0.300,180.360,1000.0
2025-09-03T15:38:53.463531,-0.390,-1.540,3.290,-62.9,0.200,-0.300,180.360,1000.0
2025-09-03T15:38:53.582581,-0.390,-1.540,3.290,-62.9,0.200,-0.300,180.360,1000.0
2025-09-03T15:38:53.584582,-0.390,-1.540,3.290,-62.9,0.200,-0.300,180.360,1000.0
2025-09-03T15:38:53.586584,-0.390,-1.540,3.290,-62.9,0.200,-0.300,180.360,1000.0
2025-09-03T15:38:53.588585,-0.390,-1.540,3.290,-62.9,0.200,-0.300,180.360,1000.0
2025-09-03T15:38:53.591583,-0.390,-1.540,3.290,-62.9,0.200,-0.300,180.360,1000.0
2025-09-03T15:38:53.707806,-0.390,-1.540,3.290,-62.9,0.200,-0.300,180.360,1000.0
2025-09-03T15:38:53.708811,-0.400,-1.540,3.290,-62.9,0.200,-0.300,180.360,1000.0
2025-09-03T15:38:53.710810,-0.400,-1.540,3.290,-62.9,0.200,-0.300,180.360,1000.0
2025-09-03T15:38:53.711811,-0.400,-1.540,3.290,-62.9,0.200,-0.300,180.360,1000.0
2025-09-03T15:38:53.713813,-0.400,-1.540,3.290,-62.9,0.200,-0.300,180.360,1000.0
2025-09-03T15:38:53.831092,-0.400,-1.540,3.290,-62.9,0.200,-0.300,180.360,1000.0
2025-09-03T15:38:53.833092,-0.400,-1.540,3.290,-62.9,0.200,-0.300,180.360,1000.0
2025-09-03T15:38:53.834093,-0.400,-1.540,3.290,-62.9,0.200,-0.300,180.360,1000.0
2025-09-03T15:38:53.839094,-0.400,-1.540,3.290,-62.9,0.200,-0.300,180.360,1000.0
2025-09-03T15:38:53.842092,-0.400,-1.540,3.290,-62.9,0.200,-0.300,180.360,1000.0
2025-09-03T15:38:53.953445,-0.400,-1.540,3.290,-62.9,0.200,-0.300,180.360,1000.0
2025-09-03T15:38:53.955444,-0.400,-1.540,3.290,-62.9,0.200,-0.300,180.360,1000.0
2025-09-03T15:38:53.957446,-0.400,-1.540,3.290,-62.9,0.200,-0.300,180.360,1000.0
2025-09-03T15:38:53.959444,-0.400,-1.540,3.290,-62.9,0.200,-0.300,180.360,1000.0
2025-09-03T15:38:53.960455,-0.400,-1.540,3.290,-62.9,0.200,-0.300,180.360,1000.0
2025-09-03T15:38:54.077077,-0.400,-1.540,3.290,-62.9,0.200,-0.300,180.360,1000.0
2025-09-03T15:38:54.079078,-0.400,-1.540,3.290,-62.9,0.200,-0.300,180.360,1000.0
2025-09-03T15:38:54.081076,-0.400,-1.540,3.290,-62.9,0.200,-0.300,180.360,1000.0
2025-09-03T15:38:54.083077,-0.400,-1.540,3.290,-62.9,0.200,-0.300,180.360,1000.0
2025-09-03T15:38:54.084077,-0.400,-1.540,3.290,-62.9,0.200,-0.300,180.360,1000.0
2025-09-03T15:38:54.200704,-0.400,-1.540,3.290,-62.9,0.200,-0.300,180.360,1000.0
2025-09-03T15:38:54.204702,-0.400,-1.540,3.290,-62.9,0.200,-0.300,180.360,1000.0
2025-09-03T15:38:54.207703,-0.400,-1.540,3.290,-62.9,0.200,-0.300,180.360,1000.0
2025-09-03T15:38:54.209702,-0.400,-1.540,3.290,-62.9,0.200,-0.300,180.360,1000.0
2025-09-03T15:38:54.210701,-0.400,-1.540,3.290,-62.9,0.200,-0.300,180.360,1000.0
2025-09-03T15:38:54.322447,-0.400,-1.540,3.290,-62.9,0.200,-0.300,180.360,1000.0
2025-09-03T15:38:54.324447,-0.390,-1.540,3.290,-63.0,0.200,-0.300,180.360,1000.0
2025-09-03T15:38:54.326448,-0.390,-1.530,3.290,-63.0,0.200,-0.300,180.360,1000.0
2025-09-03T15:38:54.328448,-0.380,-1.530,3.290,-63.0,0.200,-0.300,180.360,1000.0
2025-09-03T15:38:54.329449,-0.380,-1.530,3.290,-63.0,0.200,-0.300,180.360,1000.0
2025-09-03T15:38:54.445933,-0.380,-1.520,3.290,-63.0,0.200,-0.300,180.360,1000.0
2025-09-03T15:38:54.446935,-0.380,-1.520,3.290,-63.0,0.200,-0.300,180.360,1000.0
2025-09-03T15:38:54.448935,-0.380,-1.520,3.290,-63.0,0.200,-0.300,180.360,1000.0
2025-09-03T15:38:54.449934,-0.380,-1.520,3.290,-63.0,0.200,-0.300,180.360,1000.0
2025-09-03T15:38:54.451935,-0.380,-1.520,3.290,-63.0,0.200,-0.300,180.360,1000.0
2025-09-03T15:38:54.556407,-0.380,-1.520,3.290,-63.0,0.200,-0.300,180.360,1000.0
2025-09-03T15:38:54.558408,-0.380,-1.520,3.290,-63.0,0.200,-0.300,180.360,1000.0
2025-09-03T15:38:54.560406,-0.390,-1.520,3.290,-63.0,0.200,-0.300,180.360,1000.0
2025-09-03T15:38:54.562409,-0.390,-1.520,3.290,-63.0,0.200,-0.300,180.360,1000.0
2025-09-03T15:38:54.563408,-0.390,-1.520,3.290,-63.0,0.200,-0.300,180.360,1000.0
2025-09-03T15:38:54.682606,-0.390,-1.520,3.290,-63.0,0.200,-0.300,180.360,1000.0
2025-09-03T15:38:54.684614,-0.390,-1.520,3.290,-63.0,0.200,-0.300,180.360,1000.0
2025-09-03T15:38:54.686614,-0.390,-1.520,3.290,-63.0,0.200,-0.300,180.360,1000.0
2025-09-03T15:38:54.688620,-0.390,-1.520,3.290,-63.0,0.200,-0.300,180.360,1000.0
2025-09-03T15:38:54.690614,-0.400,-1.520,3.290,-63.0,0.200,-0.300,180.360,1000.0
2025-09-03T15:38:54.807833,-0.400,-1.520,3.290,-63.0,0.200,-0.300,180.360,1000.0
2025-09-03T15:38:54.808832,-0.400,-1.530,3.290,-63.0,0.200,-0.300,180.360,1000.0
2025-09-03T15:38:54.810833,-0.400,-1.530,3.290,-63.0,0.200,-0.300,180.360,1000.0
2025-09-03T15:38:54.812835,-0.390,-1.530,3.290,-63.0,0.200,-0.300,180.360,1000.0
2025-09-03T15:38:54.814835,-0.390,-1.530,3.290,-63.0,0.200,-0.300,180.360,1000.0
2025-09-03T15:38:54.934581,-0.390,-1.530,3.290,-63.0,0.200,-0.300,180.360,1000.0
2025-09-03T15:38:54.935584,-0.380,-1.530,3.290,-63.0,0.200,-0.300,180.360,1000.0
2025-09-03T15:38:54.937589,-0.380,-1.530,3.290,-63.0,0.200,-0.300,180.360,1000.0
2025-09-03T15:38:54.939581,-0.380,-1.530,3.290,-63.0,0.200,-0.300,180.360,1000.0
2025-09-03T15:38:54.941578,-0.380,-1.530,3.290,-63.0,0.200,-0.300,180.360,1000.0
2025-09-03T15:38:55.056745,-0.380,-1.530,3.290,-63.0,0.200,-0.300,180.360,1000.0
2025-09-03T15:38:55.058746,-0.380,-1.540,3.290,-63.0,0.200,-0.300,180.360,1000.0
2025-09-03T15:38:55.059745,-0.380,-1.540,3.290,-63.0,0.200,-0.300,180.360,1000.0
2025-09-03T15:38:55.061746,-0.380,-1.530,3.290,-63.0,0.200,-0.300,180.360,1000.0
2025-09-03T15:38:55.062745,-0.380,-1.530,3.290,-63.0,0.200,-0.300,180.360,1000.0
2025-09-03T15:38:55.180241,-0.380,-1.530,3.290,-63.0,0.200,-0.300,180.360,1000.0
2025-09-03T15:38:55.182245,-0.380,-1.520,3.290,-63.0,0.200,-0.300,180.360,1000.0
2025-09-03T15:38:55.184248,-0.380,-1.520,3.290,-63.0,0.200,-0.300,180.360,1000.0
2025-09-03T15:38:55.186249,-0.390,-1.520,3.290,-63.0,0.200,-0.300,180.360,1000.0
2025-09-03T15:38:55.188249,-0.390,-1.520,3.290,-63.0,0.200,-0.300,180.360,1000.0
2025-09-03T15:38:55.304290,-0.390,-1.520,3.290,-63.0,0.200,-0.300,180.360,1000.0
2025-09-03T15:38:55.307700,-0.390,-1.520,3.290,-63.0,0.200,-0.300,180.360,1000.0
2025-09-03T15:38:55.309699,-0.390,-1.510,3.290,-63.0,0.200,-0.300,180.360,1000.0
2025-09-03T15:38:55.311699,-0.390,-1.510,3.290,-63.0,0.200,-0.300,180.360,1000.0
2025-09-03T15:38:55.312699,-0.390,-1.510,3.290,-63.0,0.200,-0.300,180.360,1000.0
2025-09-03T15:38:55.429591,-0.390,-1.510,3.290,-63.0,0.200,-0.300,180.360,1000.0
2025-09-03T15:38:55.431582,-0.400,-1.510,3.290,-63.0,0.200,-0.300,180.360,1000.0
2025-09-03T15:38:55.432582,-0.400,-1.510,3.290,-63.0,0.200,-0.300,180.360,1000.0
2025-09-03T15:38:55.434583,-0.400,-1.520,3.290,-63.0,0.200,-0.300,180.360,1000.0
2025-09-03T15:38:55.436581,-0.400,-1.520,3.290,-63.0,0.200,-0.300,180.360,1000.0
2025-09-03T15:38:55.555589,-0.400,-1.520,3.290,-63.0,0.200,-0.300,180.360,1000.0
2025-09-03T15:38:55.556581,-0.400,-1.520,3.290,-63.0,0.200,-0.300,180.360,1000.0
2025-09-03T15:38:55.558581,-0.400,-1.520,3.290,-63.0,0.200,-0.300,180.360,1000.0
2025-09-03T15:38:55.559580,-0.400,-1.520,3.290,-63.0,0.200,-0.300,180.360,1000.0
2025-09-03T15:38:55.561590,-0.400,-1.520,3.290,-63.0,0.200,-0.300,180.360,1000.0
2025-09-03T15:38:55.680185,-0.400,-1.520,3.290,-63.0,0.200,-0.300,180.360,1000.0
2025-09-03T15:38:55.682187,-0.400,-1.520,3.290,-62.9,0.200,-0.300,180.360,1000.0
2025-09-03T15:38:55.684185,-0.400,-1.530,3.290,-62.9,0.200,-0.300,180.360,1000.0
2025-09-03T15:38:55.686184,-0.400,-1.530,3.290,-62.9,0.200,-0.300,180.360,1000.0
2025-09-03T15:38:55.688186,-0.400,-1.530,3.290,-62.9,0.200,-0.300,180.360,1000.0
2025-09-03T15:38:55.803845,-0.400,-1.530,3.290,-62.9,0.200,-0.300,180.360,1000.0
2025-09-03T15:38:55.806842,-0.400,-1.530,3.290,-62.9,0.200,-0.300,180.360,1000.0
2025-09-03T15:38:55.809843,-0.400,-1.530,3.290,-62.9,0.200,-0.300,180.360,1000.0
2025-09-03T15:38:55.811841,-0.390,-1.530,3.290,-62.9,0.200,-0.300,180.360,1000.0
2025-09-03T15:38:55.813842,-0.390,-1.530,3.290,-62.9,0.200,-0.300,180.360,1000.0
2025-09-03T15:38:55.926264,-0.390,-1.530,3.290,-62.9,0.200,-0.300,180.360,1000.0
2025-09-03T15:38:55.928267,-0.380,-1.530,3.290,-62.9,0.200,-0.300,180.360,1000.0
2025-09-03T15:38:55.930265,-0.380,-1.540,3.290,-62.9,0.200,-0.300,180.360,1000.0
2025-09-03T15:38:55.931266,-0.380,-1.540,3.290,-62.9,0.200,-0.300,180.360,1000.0
2025-09-03T15:38:55.933265,-0.380,-1.540,3.290,-62.9,0.200,-0.300,180.360,1000.0
2025-09-03T15:38:56.051480,-0.380,-1.540,3.290,-62.9,0.200,-0.300,180.360,1000.0
2025-09-03T15:38:56.052480,-0.380,-1.540,3.290,-62.9,0.200,-0.300,180.360,1000.0
2025-09-03T15:38:56.054481,-0.380,-1.540,3.290,-62.9,0.200,-0.300,180.360,1000.0
2025-09-03T15:38:56.056481,-0.380,-1.540,3.290,-62.9,0.200,-0.300,180.360,1000.0
2025-09-03T15:38:56.058489,-0.380,-1.540,3.290,-62.9,0.200,-0.300,180.360,1000.0
2025-09-03T15:38:56.177265,-0.380,-1.540,3.290,-62.9,0.200,-0.300,180.360,1000.0
2025-09-03T15:38:56.179262,-0.380,-1.540,3.290,-62.9,0.200,-0.300,180.360,1000.0
2025-09-03T15:38:56.180263,-0.390,-1.540,3.290,-62.9,0.200,-0.300,180.360,1000.0
2025-09-03T15:38:56.182262,-0.390,-1.540,3.290,-62.9,0.200,-0.300,180.360,1000.0
2025-09-03T15:38:56.183265,-0.390,-1.540,3.290,-62.9,0.200,-0.300,180.360,1000.0
2025-09-03T15:38:56.288431,-0.390,-1.540,3.290,-62.9,0.200,-0.300,180.360,1000.0
2025-09-03T15:38:56.291432,-0.390,-1.540,3.290,-63.0,0.200,-0.300,180.360,1000.0
2025-09-03T15:38:56.293432,-0.390,-1.540,3.290,-63.0,0.200,-0.300,180.360,1000.0
2025-09-03T15:38:56.295431,-0.390,-1.540,3.290,-63.0,0.200,-0.300,180.360,1000.0
2025-09-03T15:38:56.296432,-0.390,-1.530,3.290,-63.0,0.200,-0.300,180.360,1000.0
2025-09-03T15:38:56.411371,-0.400,-1.530,3.290,-63.0,0.200,-0.300,180.360,1000.0
2025-09-03T15:38:56.413376,-0.390,-1.520,3.290,-63.0,0.200,-0.300,180.360,1000.0
2025-09-03T15:38:56.414386,-0.390,-1.520,3.290,-62.9,0.200,-0.300,180.360,1000.0
2025-09-03T15:38:56.416378,-0.390,-1.520,3.290,-62.9,0.200,-0.300,180.360,1000.0
2025-09-03T15:38:56.418411,-0.380,-1.520,3.290,-62.9,0.200,-0.300,180.360,1000.0
2025-09-03T15:38:56.533569,-0.380,-1.520,3.290,-62.9,0.200,-0.300,180.360,1000.0
2025-09-03T15:38:56.535547,-0.380,-1.520,3.290,-62.9,0.200,-0.300,180.360,1000.0
2025-09-03T15:38:56.536512,-0.380,-1.520,3.290,-62.9,0.200,-0.300,180.360,1000.0
2025-09-03T15:38:56.538515,-0.380,-1.520,3.290,-62.9,0.200,-0.300,180.360,1000.0
2025-09-03T15:38:56.540513,-0.380,-1.520,3.290,-62.9,0.200,-0.300,180.360,1000.0
2025-09-03T15:38:56.657317,-0.380,-1.520,3.290,-62.9,0.200,-0.300,180.360,1000.0
2025-09-03T15:38:56.659321,-0.380,-1.530,3.290,-62.9,0.200,-0.300,180.360,1000.0
2025-09-03T15:38:56.660322,-0.370,-1.530,3.290,-62.9,0.200,-0.300,180.360,1000.0
2025-09-03T15:38:56.662322,-0.370,-1.530,3.290,-62.9,0.200,-0.300,180.360,1000.0
2025-09-03T15:38:56.664335,-0.370,-1.530,3.290,-62.9,0.200,-0.300,180.360,1000.0
2025-09-03T15:38:57.443558,-0.360,-1.540,3.290,-62.9,0.200,-0.300,180.360,1000.0
2025-09-03T15:38:57.474558,-0.360,-1.540,3.290,-62.9,0.200,-0.300,180.360,1000.0
2025-09-03T15:38:57.475561,-0.360,-1.540,3.290,-62.9,0.200,-0.300,180.360,1000.0
2025-09-03T15:38:57.506562,-0.360,-1.540,3.290,-62.9,0.200,-0.300,180.360,1000.0
2025-09-03T15:38:57.552561,-0.360,-1.540,3.290,-62.9,0.200,-0.300,180.360,1000.0
2025-09-03T15:38:57.555559,-0.370,-1.540,3.290,-62.9,0.200,-0.300,180.360,1000.0
2025-09-03T15:38:57.583596,-0.370,-1.540,3.290,-62.9,0.200,-0.300,180.360,1000.0
2025-09-03T15:38:57.584596,-0.370,-1.540,3.290,-62.9,0.200,-0.300,180.360,1000.0
2025-09-03T15:38:57.614601,-0.380,-1.540,3.290,-62.9,0.200,-0.300,180.360,1000.0
2025-09-03T15:38:57.645817,-0.380,-1.540,3.290,-62.9,0.200,-0.300,180.360,1000.0
2025-09-03T15:38:57.646815,-0.380,-1.540,3.290,-62.9,0.200,-0.300,180.360,1000.0
2025-09-03T15:38:57.677111,-0.380,-1.540,3.290,-62.9,0.200,-0.300,180.360,1000.0
2025-09-03T15:38:57.678111,-0.380,-1.540,3.290,-62.9,0.200,-0.300,180.360,1000.0
2025-09-03T15:38:57.708075,-0.380,-1.540,3.290,-62.9,0.200,-0.300,180.360,1000.0
2025-09-03T15:38:57.739138,-0.380,-1.540,3.290,-62.9,0.200,-0.300,180.360,1000.0
2025-09-03T15:38:57.741138,-0.390,-1.540,3.290,-62.9,0.200,-0.300,180.360,1000.0
2025-09-03T15:38:57.770138,-0.380,-1.540,3.290,-62.9,0.200,-0.300,180.360,1000.0
2025-09-03T15:38:57.772139,-0.380,-1.540,3.290,-62.9,0.200,-0.300,180.360,1000.0
2025-09-03T15:38:57.800137,-0.380,-1.540,3.290,-62.9,0.200,-0.300,180.360,1000.0
2025-09-03T15:38:57.832196,-0.380,-1.540,3.290,-62.9,0.200,-0.300,180.360,1000.0
2025-09-03T15:38:57.860196,-0.380,-1.540,3.290,-62.9,0.200,-0.300,180.360,1000.0
2025-09-03T15:38:57.892196,-0.380,-1.540,3.290,-62.9,0.200,-0.300,180.360,1000.0
2025-09-03T15:38:57.894197,-0.380,-1.540,3.290,-62.9,0.200,-0.300,180.360,1000.0
2025-09-03T15:38:57.922198,-0.380,-1.540,3.290,-62.9,0.200,-0.300,180.360,1000.0
2025-09-03T15:38:57.953197,-0.380,-1.540,3.290,-62.9,0.200,-0.300,180.360,1000.0
2025-09-03T15:38:57.955197,-0.370,-1.540,3.290,-62.9,0.200,-0.300,180.360,1000.0
2025-09-03T15:38:57.984111,-0.370,-1.540,3.290,-62.9,0.200,-0.300,180.360,1000.0
2025-09-03T15:38:57.986127,-0.370,-1.540,3.290,-62.9,0.200,-0.300,180.360,1000.0
2025-09-03T15:38:58.014104,-0.370,-1.540,3.290,-62.9,0.200,-0.300,180.360,1000.0
2025-09-03T15:38:58.045115,-0.370,-1.540,3.290,-62.9,0.200,-0.300,180.360,1000.0
2025-09-03T15:38:58.047100,-0.370,-1.540,3.290,-62.9,0.200,-0.300,180.360,1000.0
2025-09-03T15:38:58.074101,-0.370,-1.540,3.290,-62.9,0.200,-0.300,180.360,1000.0
2025-09-03T15:38:58.076099,-0.360,-1.540,3.290,-62.9,0.200,-0.300,180.360,1000.0
2025-09-03T15:38:58.104098,-0.360,-1.540,3.290,-63.0,0.200,-0.300,180.360,1000.0
2025-09-03T15:38:58.136097,-0.360,-1.540,3.290,-63.0,0.200,-0.300,180.360,1000.0
2025-09-03T15:38:58.138099,-0.360,-1.540,3.290,-63.0,0.200,-0.300,180.360,1000.0
2025-09-03T15:38:58.168053,-0.360,-1.540,3.290,-63.0,0.200,-0.300,180.360,1000.0
2025-09-03T15:38:58.169053,-0.370,-1.540,3.290,-62.9,0.200,-0.300,180.360,1000.0
2025-09-03T15:38:58.291876,-0.360,-1.540,3.290,-11.7,-0.360,-1.540,3.290,-11.7
2025-09-03T15:38:58.293874,-0.360,-1.540,3.290,-62.9,0.200,-0.300,180.360,1000.0
2025-09-03T15:38:58.415847,-0.360,-1.530,3.290,-62.9,0.200,-0.300,180.360,1000.0
2025-09-03T15:38:58.472890,-0.360,-1.520,3.290,-63.0,-0.360,-1.520,3.290,-63.0
2025-09-03T15:38:58.618644,-0.370,-1.510,3.290,-62.9,0.200,-0.300,180.360,1000.0
2025-09-03T15:38:58.661715,-0.370,-1.510,3.290,-62.9,0.200,-0.300,180.360,1000.0
2025-09-03T15:38:58.692715,-0.370,-1.510,3.290,-62.9,0.200,-0.300,180.360,1000.0
2025-09-03T15:38:58.694717,-0.380,-1.510,3.290,-62.9,0.200,-0.300,180.360,1000.0
2025-09-03T15:38:58.724385,-0.380,-1.500,3.290,-62.9,0.200,-0.300,180.360,1000.0
2025-09-03T15:38:58.845377,-0.380,-1.500,3.290,-62.9,0.200,-0.300,180.360,1000.0
2025-09-03T15:38:58.877411,-0.390,-1.500,3.290,-62.9,0.200,-0.300,180.360,1000.0
2025-09-03T15:38:58.893328,-0.390,-1.500,3.290,-62.9,0.200,-0.300,180.360,1000.0
2025-09-03T15:38:58.925565,-0.390,-1.500,3.290,-62.9,0.200,-0.300,41.660,2794.3
2025-09-03T15:38:58.954240,-0.390,-1.500,3.290,-62.9,0.200,-0.300,180.360,1000.0
2025-09-03T15:38:58.985817,-0.380,-1.500,3.290,-62.9,0.200,-0.300,180.360,1000.0
2025-09-03T15:38:58.988818,-0.380,-1.500,3.290,-62.9,0.200,-0.300,180.360,1000.0
2025-09-03T15:38:59.016481,-0.380,-1.500,3.290,-62.9,0.200,-0.300,180.360,1000.0
2025-09-03T15:38:59.032514,-0.380,-1.500,3.290,-62.9,0.200,-0.300,180.360,1000.0
2025-09-03T15:38:59.048549,-0.380,-1.500,3.290,-63.0,0.200,-0.300,180.360,1000.0
2025-09-03T15:38:59.080549,-0.380,-1.510,3.290,-63.0,0.200,-0.300,180.360,1000.0
2025-09-03T15:38:59.082549,-0.380,-1.510,3.290,-63.0,0.200,-0.300,180.360,1000.0
2025-09-03T15:38:59.112550,-0.380,-1.510,3.290,-63.0,0.200,-0.300,180.360,1000.0
2025-09-03T15:38:59.127547,-0.370,-1.520,3.290,-63.0,0.200,-0.300,180.360,1000.0
2025-09-03T15:38:59.157740,-0.370,-1.520,3.290,-63.0,0.200,-0.300,180.360,1000.0
2025-09-03T15:38:59.188734,-0.370,-1.520,3.290,-63.0,0.200,-0.300,180.360,1000.0
2025-09-03T15:38:59.191735,-0.370,-1.520,3.290,-63.0,0.200,-0.300,180.360,1000.0
2025-09-03T15:38:59.286829,-5.490,0.200,181.750,416.3,-0.360,-1.520,3.290,-63.0
2025-09-03T15:38:59.288830,-0.360,-1.530,3.290,-63.0,-0.360,-1.530,3.290,-63.0
2025-09-03T15:38:59.328950,-0.370,-1.530,3.290,-63.0,0.200,-0.300,180.360,1000.0
2025-09-03T15:38:59.358244,-0.370,-1.530,3.290,-63.0,0.200,-0.300,180.360,1000.0
2025-09-03T15:38:59.388895,-0.380,-1.530,3.290,-63.0,0.200,-0.300,180.360,1000.0
2025-09-03T15:38:59.391894,-0.380,-1.530,3.290,-63.0,0.200,-0.300,180.360,1000.0
2025-09-03T15:38:59.419893,-0.380,-1.530,3.290,-63.0,0.200,-0.300,180.360,1000.0
2025-09-03T15:38:59.435189,-0.380,-1.530,3.290,-63.0,0.200,-0.300,180.360,1000.0
2025-09-03T15:38:59.450193,-0.380,-1.530,3.290,-63.0,0.200,-0.300,180.360,1000.0
2025-09-03T15:38:59.452194,-0.380,-1.530,3.290,-63.0,0.200,-0.300,180.360,1000.0
2025-09-03T15:38:59.482193,-0.380,-1.530,3.290,-63.0,0.200,-0.300,180.360,1000.0
2025-09-03T15:38:59.514194,-0.380,-1.530,3.290,-63.0,0.200,-0.300,180.360,1000.0
2025-09-03T15:38:59.529232,-0.380,-1.540,3.290,-63.0,0.200,-0.300,180.360,1000.0
2025-09-03T15:38:59.544478,-0.380,-1.540,3.290,-63.0,0.200,-0.300,180.360,1000.0
2025-09-03T15:38:59.545478,-0.380,-1.540,3.290,-63.0,0.200,-0.300,180.360,1000.0
2025-09-03T15:38:59.591453,-0.380,-1.540,3.290,-63.0,0.200,-0.300,180.360,1000.0
2025-09-03T15:38:59.641073,-0.370,-1.540,3.290,-63.0,0.200,-0.300,180.360,1000.0
2025-09-03T15:38:59.669200,-0.370,-1.530,3.290,-63.0,0.200,-0.300,180.360,1000.0
2025-09-03T15:38:59.670599,-0.370,-1.530,3.290,-62.9,0.200,-0.300,180.360,1000.0
2025-09-03T15:38:59.701036,-0.370,-1.520,3.290,-62.9,0.200,-0.300,180.360,1000.0
2025-09-03T15:38:59.731435,-0.370,-1.520,3.290,-62.9,0.200,-0.300,180.360,1000.0
2025-09-03T15:38:59.747639,-0.370,-1.520,3.290,-62.9,0.200,-0.300,180.360,1000.0
2025-09-03T15:38:59.762634,-0.370,-1.520,3.290,-62.9,0.200,-0.300,180.360,1000.0
2025-09-03T15:38:59.763634,-0.360,-1.520,3.290,-62.9,0.200,-0.300,180.360,1000.0
2025-09-03T15:38:59.793989,-0.360,-1.520,3.290,-63.0,0.200,-0.300,180.360,1000.0
2025-09-03T15:38:59.825220,-0.360,-1.520,3.290,-62.9,0.200,-0.300,180.360,1000.0
2025-09-03T15:38:59.842228,-0.360,-1.510,3.290,-62.9,0.200,-0.300,180.360,1000.0
2025-09-03T15:38:59.857246,-0.360,-1.510,3.290,-63.0,0.200,-0.300,180.360,1000.0
2025-09-03T15:38:59.859245,-0.360,-1.510,3.290,-63.0,0.200,-0.300,180.360,1000.0
2025-09-03T15:38:59.888011,-0.360,-1.510,3.290,-63.0,0.200,-0.300,180.360,1000.0
2025-09-03T15:38:59.918482,-0.360,-1.510,3.290,-63.0,0.200,-0.300,180.360,1000.0
2025-09-03T15:38:59.935487,-0.360,-1.510,3.290,-63.0,0.200,-0.300,180.360,1000.0
2025-09-03T15:38:59.965494,-0.360,-1.500,3.290,-63.0,0.200,-0.300,180.360,1000.0
2025-09-03T15:38:59.966494,-0.360,-1.500,3.290,-63.0,0.200,-0.300,180.360,1000.0
2025-09-03T15:38:59.994630,-0.360,-1.500,3.290,-63.0,0.200,-0.300,180.360,1000.0
2025-09-03T15:39:00.025631,-0.360,-1.500,3.290,-63.0,0.200,-0.300,180.360,1000.0
2025-09-03T15:39:00.041629,-0.360,-1.500,3.290,-63.0,0.200,-0.300,180.360,1000.0
2025-09-03T15:39:00.057344,-0.360,-1.510,3.290,-63.0,0.200,-0.300,180.360,1000.0
2025-09-03T15:39:00.059344,-0.360,-1.510,3.290,-63.0,0.200,-0.300,180.360,1000.0
2025-09-03T15:39:00.089347,-0.360,-1.520,3.290,-63.0,0.200,-0.300,180.360,1000.0
2025-09-03T15:39:00.119747,-0.360,-1.520,3.290,-63.0,0.200,-0.300,180.360,1000.0
2025-09-03T15:39:00.135097,-0.360,-1.520,3.290,-63.0,0.200,-0.300,180.360,1000.0
2025-09-03T15:39:00.165979,-0.360,-1.520,3.290,-63.0,0.200,-0.300,180.360,1000.0
2025-09-03T15:39:00.167989,-0.360,-1.520,3.290,-63.0,0.200,-0.300,180.360,1000.0
2025-09-03T15:39:00.197736,-0.360,-1.530,3.290,-63.0,0.200,-0.300,180.360,1000.0
2025-09-03T15:39:00.243282,-0.360,-1.520,3.290,-63.0,0.200,-0.300,180.360,1000.0
2025-09-03T15:39:00.258470,-0.360,-1.520,3.290,-63.0,0.200,-0.300,180.360,1000.0
2025-09-03T15:39:00.259949,-0.360,-1.530,3.290,-63.0,0.200,-0.300,180.360,1000.0
2025-09-03T15:39:00.290330,-0.370,-1.520,3.290,-63.0,0.200,-0.300,180.360,1000.0
2025-09-03T15:39:00.336650,-0.370,-1.530,3.290,-63.0,0.200,299.510,41.660,2845.5
2025-09-03T15:39:00.461739,-0.370,-1.520,3.280,-62.9,0.200,-0.300,180.360,1000.0
2025-09-03T15:39:00.489740,-0.360,-1.520,3.280,-62.9,0.200,-0.300,180.360,1000.0
2025-09-03T15:39:00.493740,-0.360,-1.520,3.280,-62.9,0.200,-0.300,180.360,1000.0
2025-09-03T15:39:00.495752,-0.360,-1.520,3.280,-62.9,0.200,-0.300,180.360,1000.0
2025-09-03T15:39:00.568518,-0.360,-1.520,3.280,-62.9,0.200,-0.300,180.360,1000.0
2025-09-03T15:39:00.569524,-0.360,-1.530,3.280,-62.9,0.200,-0.300,180.360,1000.0
2025-09-03T15:39:00.596844,-0.360,-1.530,3.280,-62.9,0.200,-0.300,180.360,1000.0
2025-09-03T15:39:00.647373,-0.360,-1.520,3.280,-62.9,0.200,-0.300,42.120,1722.2
2025-09-03T15:39:00.706391,-0.360,-1.530,3.290,525.9,179.200,179.590,0.170,0.0
2025-09-03T15:39:00.759609,-0.360,-1.540,3.280,-62.9,-0.360,-1.540,3.280,-62.9
2025-09-03T15:39:00.761613,-0.350,-1.530,3.290,-62.9,-0.350,-1.530,3.290,-62.9
2025-09-03T15:39:00.800688,-0.360,-1.540,3.290,-62.9,0.200,-0.300,180.360,1000.0
2025-09-03T15:39:00.827693,-0.360,-1.540,3.290,-62.9,0.200,-0.300,180.360,1000.0
2025-09-03T15:39:00.858863,-0.360,-1.540,3.290,-62.9,0.200,-0.300,180.360,1000.0
2025-09-03T15:39:00.860863,-0.360,-1.540,3.290,-62.9,0.200,-0.300,180.360,1000.0
2025-09-03T15:39:00.888941,-0.360,-1.540,3.290,-62.9,0.200,-0.300,180.360,1000.0
2025-09-03T15:39:00.891944,-0.360,-1.530,3.290,-62.9,0.200,-0.300,180.360,1000.0
2025-09-03T15:39:00.920605,-0.360,-1.540,3.290,-62.9,0.200,-0.300,180.360,1000.0
2025-09-03T15:39:00.965275,-0.350,-1.540,3.290,-62.9,0.200,-0.300,180.360,1000.0
2025-09-03T15:39:00.980390,-0.360,-1.540,3.290,-62.9,0.200,-0.300,180.360,1000.0
2025-09-03T15:39:00.995393,-0.360,-1.540,3.290,-62.9,0.200,-0.300,180.360,1000.0
2025-09-03T15:39:01.010448,-0.360,-1.540,3.290,-62.9,0.200,-0.300,180.360,1000.0
2025-09-03T15:39:01.042412,-0.360,-1.540,3.290,-62.9,-0.360,-1.540,3.290,-62.9
2025-09-03T15:39:01.071500,-0.360,-1.540,3.290,-62.9,0.200,-0.300,180.360,1000.0
2025-09-03T15:39:01.073501,-0.360,-1.540,3.290,-62.9,0.200,-0.300,180.360,1000.0
