Timestamp,Roll_Angle,Pitch_Angle,Yaw_Angle,Altitude,Roll_Setpoint,Pitch_Setpoint,Yaw_Setpoint,Altitude_Setpoint
2025-09-16T15:49:03.267616,5.140,3.000,82.810,-60.9,0.400,-0.400,181.080,1000.0
2025-09-16T15:49:03.284615,5.140,2.990,82.810,-60.9,0.400,-0.400,181.080,1000.0
2025-09-16T15:49:03.297617,5.140,2.990,82.810,-60.9,0.400,-0.400,181.080,1000.0
2025-09-16T15:49:03.342741,5.140,2.990,82.810,-60.9,0.400,-0.400,181.080,1000.0
2025-09-16T15:49:03.343741,5.130,2.980,82.810,-60.9,0.400,-0.400,181.080,1000.0
2025-09-16T15:49:03.372735,5.130,2.980,82.810,-60.9,0.400,-0.400,181.080,1000.0
2025-09-16T15:49:03.377733,5.130,2.980,82.810,-60.9,0.400,-0.400,181.080,1000.0
2025-09-16T15:49:03.402787,5.130,2.980,82.810,-60.9,0.400,-0.400,181.080,1000.0
2025-09-16T15:49:03.432792,5.140,2.980,82.810,-61.0,0.400,-0.400,181.080,1000.0
2025-09-16T15:49:03.433793,5.140,2.980,82.810,-61.0,0.400,-0.400,181.080,1000.0
2025-09-16T15:49:03.478141,5.140,2.980,82.810,-61.0,0.400,-0.400,181.080,1000.0
2025-09-16T15:49:03.481139,5.150,2.980,82.810,-61.0,0.400,-0.400,181.080,1000.0
2025-09-16T15:49:03.508551,5.150,2.980,82.810,-61.0,0.400,-0.400,181.080,1000.0
2025-09-16T15:49:03.510551,5.150,2.980,82.810,-61.0,0.400,-0.400,181.080,1000.0
2025-09-16T15:49:03.538705,5.150,2.980,82.810,-61.0,0.400,-0.400,181.080,1000.0
2025-09-16T15:49:03.569185,5.150,2.970,82.810,-61.0,0.400,-0.400,181.080,1000.0
2025-09-16T15:49:03.572193,5.150,2.970,82.810,-61.0,0.400,-0.400,181.080,1000.0
2025-09-16T15:49:03.598205,5.160,2.980,82.810,-61.0,0.400,-0.400,181.080,1000.0
2025-09-16T15:49:03.612983,5.160,2.980,82.810,-61.0,0.400,-0.400,181.080,1000.0
2025-09-16T15:49:03.629574,5.160,2.980,82.810,-61.0,0.400,-0.400,181.080,1000.0
2025-09-16T15:49:03.673669,5.160,2.980,82.810,-61.0,0.400,-0.400,181.080,1000.0
2025-09-16T15:49:03.677668,5.160,2.980,82.810,-61.0,0.400,-0.400,181.080,1000.0
2025-09-16T15:49:03.689670,5.160,2.980,82.810,-61.0,0.400,-0.400,181.080,1000.0
2025-09-16T15:49:03.705246,5.160,2.980,82.810,-61.0,0.400,-0.400,181.080,1000.0
2025-09-16T15:49:03.749167,5.160,2.970,82.810,-61.0,0.400,-0.400,181.080,1000.0
2025-09-16T15:49:03.779993,5.160,2.970,82.810,-61.0,0.400,-0.400,181.080,1000.0
2025-09-16T15:49:03.781994,5.160,2.970,82.810,-61.0,0.400,-0.400,181.080,1000.0
2025-09-16T15:49:03.809551,5.160,2.970,82.810,-61.0,0.400,-0.400,181.080,1000.0
2025-09-16T15:49:03.811551,5.160,2.970,82.810,-61.0,0.400,-0.400,181.080,1000.0
2025-09-16T15:49:03.841129,5.160,2.970,82.810,-61.0,0.400,-0.400,181.080,1000.0
2025-09-16T15:49:03.872051,5.150,2.970,82.810,-61.0,0.400,-0.400,181.080,1000.0
2025-09-16T15:49:03.876051,5.160,2.970,82.810,-61.0,0.400,-0.400,181.080,1000.0
2025-09-16T15:49:03.902215,5.160,2.970,82.810,-61.0,0.400,-0.400,181.080,1000.0
2025-09-16T15:49:03.903258,5.160,2.970,82.810,-61.0,0.400,-0.400,181.080,1000.0
2025-09-16T15:49:03.933360,5.160,2.970,82.810,-61.0,0.400,-0.400,181.080,1000.0
2025-09-16T15:49:03.963957,5.160,2.970,82.810,-61.0,0.400,-0.400,181.080,1000.0
2025-09-16T15:49:03.979963,5.160,2.970,82.810,-61.0,0.400,-0.400,181.080,1000.0
2025-09-16T15:49:04.008853,5.160,2.970,82.810,-61.0,0.400,-0.400,181.080,1000.0
2025-09-16T15:49:04.009855,5.160,2.970,82.810,-61.0,0.400,-0.400,181.080,1000.0
2025-09-16T15:49:04.023685,5.170,2.970,82.810,-61.0,0.400,-0.400,181.080,1000.0
2025-09-16T15:49:04.084925,5.170,2.970,82.810,-61.0,0.400,-0.400,181.080,1000.0
2025-09-16T15:49:04.089925,5.170,2.970,82.810,-61.0,0.400,-0.400,181.080,1000.0
2025-09-16T15:49:04.114806,5.170,2.970,82.810,-61.0,0.400,-0.400,181.080,1000.0
2025-09-16T15:49:04.115805,5.170,2.970,82.810,-61.0,0.400,-0.400,181.080,1000.0
2025-09-16T15:49:04.144850,5.170,2.970,82.810,-61.0,0.400,-0.400,181.080,1000.0
2025-09-16T15:49:04.176000,5.160,2.970,82.810,-61.0,0.400,-0.400,181.080,1000.0
2025-09-16T15:49:04.179997,5.160,2.970,82.810,-61.0,0.400,-0.400,181.080,1000.0
2025-09-16T15:49:04.206442,5.150,2.970,82.810,-61.0,0.400,-0.400,181.080,1000.0
2025-09-16T15:49:04.208449,5.150,2.970,82.810,-61.0,0.400,-0.400,181.080,1000.0
2025-09-16T15:49:04.237572,5.150,2.980,82.810,-61.0,0.400,-0.400,181.080,1000.0
2025-09-16T15:49:04.267438,5.150,2.980,82.810,-61.0,0.400,-0.400,181.080,1000.0
2025-09-16T15:49:04.281226,5.150,2.980,82.810,-61.0,0.400,-0.400,181.080,1000.0
2025-09-16T15:49:04.297219,5.150,2.980,82.810,-61.0,0.400,-0.400,181.080,1000.0
2025-09-16T15:49:04.298219,5.140,2.970,82.810,-61.0,0.400,-0.400,181.080,1000.0
2025-09-16T15:49:04.342259,5.140,2.970,82.810,-61.0,0.400,-0.400,181.080,1000.0
2025-09-16T15:49:04.388043,5.140,2.970,82.810,-61.0,0.400,-0.400,181.080,1000.0
2025-09-16T15:49:04.395056,5.140,2.970,82.810,-61.0,0.400,-0.400,181.080,1000.0
2025-09-16T15:49:04.418274,5.140,2.970,82.800,-61.0,0.400,-0.400,181.080,1000.0
2025-09-16T15:49:04.419273,5.140,2.970,82.800,-61.0,0.400,-0.400,181.080,1000.0
2025-09-16T15:49:04.447430,5.140,2.970,82.800,-61.0,0.400,-0.400,181.080,1000.0
2025-09-16T15:49:04.478552,5.140,2.970,82.800,-61.0,0.400,-0.400,181.080,1000.0
2025-09-16T15:49:04.481553,5.140,2.970,82.800,-61.0,0.400,-0.400,181.080,1000.0
2025-09-16T15:49:04.509222,5.140,2.970,82.800,-61.0,0.400,-0.400,181.080,1000.0
2025-09-16T15:49:04.510221,5.130,2.970,82.800,-60.9,0.400,-0.400,181.080,1000.0
2025-09-16T15:49:04.539505,5.130,2.970,82.800,-60.9,0.400,-0.400,181.080,1000.0
2025-09-16T15:49:04.541505,5.130,2.970,82.800,-60.9,0.400,-0.400,181.080,1000.0
2025-09-16T15:49:04.568510,5.130,2.980,82.800,-60.9,0.400,-0.400,181.080,1000.0
2025-09-16T15:49:04.613502,5.130,2.980,82.800,-60.9,0.400,-0.400,181.080,1000.0
2025-09-16T15:49:04.615505,5.130,2.980,82.810,-60.9,0.400,-0.400,181.080,1000.0
2025-09-16T15:49:04.644517,5.130,2.980,82.810,-60.9,0.400,-0.400,181.080,1000.0
2025-09-16T15:49:04.674995,5.130,2.990,82.810,-60.9,0.400,-0.400,181.080,1000.0
2025-09-16T15:49:04.695993,5.130,2.990,82.810,-60.9,0.400,-0.400,181.080,1000.0
2025-09-16T15:49:04.698992,5.130,2.990,82.810,-60.9,0.400,-0.400,181.080,1000.0
2025-09-16T15:49:04.719991,5.130,2.990,82.810,-61.0,0.400,-0.400,181.080,1000.0
2025-09-16T15:49:04.749993,5.130,2.990,82.810,-61.0,0.400,-0.400,181.080,1000.0
2025-09-16T15:49:04.750993,5.120,3.000,82.810,-61.0,0.400,-0.400,181.080,1000.0
2025-09-16T15:49:04.779413,5.120,3.000,82.810,-61.0,0.400,-0.400,181.080,1000.0
2025-09-16T15:49:04.810415,5.120,3.000,82.810,-61.0,0.400,-0.400,181.080,1000.0
2025-09-16T15:49:04.811414,5.120,3.000,82.810,-61.0,0.400,-0.400,181.080,1000.0
2025-09-16T15:49:04.840415,5.130,3.000,82.810,-61.0,0.400,-0.400,181.080,1000.0
2025-09-16T15:49:04.841427,5.130,3.000,82.810,-61.0,0.400,-0.400,181.080,1000.0
2025-09-16T15:49:04.885415,5.130,3.000,82.810,-61.0,0.400,-0.400,181.080,1000.0
2025-09-16T15:49:04.915413,5.130,3.000,82.810,-61.0,0.400,-0.400,181.080,1000.0
2025-09-16T15:49:04.916413,5.130,3.010,82.810,-61.0,0.400,-0.400,181.080,1000.0
2025-09-16T15:49:04.945415,5.130,3.010,82.810,-61.0,0.400,-0.400,181.080,1000.0
2025-09-16T15:49:04.946415,5.130,3.010,82.810,-61.0,0.400,-0.400,181.080,1000.0
2025-09-16T15:49:04.975414,5.130,3.010,82.810,-61.0,0.400,-0.400,181.080,1000.0
2025-09-16T15:49:05.005413,5.130,3.010,82.810,-61.0,0.400,-0.400,181.080,1000.0
2025-09-16T15:49:05.020284,5.130,3.010,82.810,-61.0,0.400,-0.400,181.080,1000.0
2025-09-16T15:49:05.035336,5.130,3.010,82.810,-61.0,0.400,-0.400,181.080,1000.0
2025-09-16T15:49:05.049332,5.130,3.010,82.810,-61.0,0.400,-0.400,181.080,1000.0
2025-09-16T15:49:05.080378,5.130,3.010,82.810,-61.0,0.400,-0.400,181.080,1000.0
2025-09-16T15:49:05.125456,5.130,3.010,82.810,-61.0,0.400,-0.400,181.080,1000.0
2025-09-16T15:49:05.126454,5.130,3.010,82.810,-61.0,0.400,-0.400,181.080,1000.0
2025-09-16T15:49:05.155982,5.130,3.010,82.810,-61.0,0.400,-0.400,181.080,1000.0
2025-09-16T15:49:05.157983,5.130,3.010,82.810,-61.0,0.400,-0.400,181.080,1000.0
2025-09-16T15:49:05.185832,5.130,3.010,82.810,-61.0,0.400,-0.400,181.080,1000.0
2025-09-16T15:49:05.215890,5.130,3.010,82.810,-61.0,0.400,-0.400,181.080,1000.0
2025-09-16T15:49:05.216891,5.130,3.010,82.810,-61.0,0.400,-0.400,181.080,1000.0
2025-09-16T15:49:05.245668,5.130,3.010,82.810,-61.0,0.400,-0.400,181.080,1000.0
2025-09-16T15:49:05.246667,5.130,3.010,82.810,-61.0,0.400,-0.400,181.080,1000.0
2025-09-16T15:49:05.275747,5.130,3.010,82.810,-61.0,0.400,-0.400,181.080,1000.0
2025-09-16T15:49:05.305674,5.130,3.010,82.810,-61.0,0.400,-0.400,181.080,1000.0
2025-09-16T15:49:05.307679,5.130,3.010,82.810,-61.0,0.400,-0.400,181.080,1000.0
2025-09-16T15:49:05.335816,5.130,3.010,82.810,-61.0,0.400,-0.400,181.080,1000.0
2025-09-16T15:49:05.365752,5.130,3.010,82.810,-61.0,0.400,-0.400,181.080,1000.0
2025-09-16T15:49:05.367762,5.130,3.010,82.810,-61.1,0.400,-0.400,181.080,1000.0
2025-09-16T15:49:05.426823,5.130,3.010,82.810,-61.1,0.400,-0.400,181.080,1000.0
2025-09-16T15:49:05.427823,5.130,3.010,82.810,-61.1,0.400,-0.400,181.080,1000.0
2025-09-16T15:49:05.457985,5.130,3.010,82.810,-61.1,0.400,-0.400,181.080,1000.0
2025-09-16T15:49:05.459981,5.120,3.010,82.810,-61.1,0.400,-0.400,181.080,1000.0
2025-09-16T15:49:05.487883,5.120,3.010,82.810,-61.1,0.400,-0.400,181.080,1000.0
2025-09-16T15:49:05.489885,5.120,3.010,82.810,-61.1,0.400,-0.400,181.080,1000.0
2025-09-16T15:49:05.518273,5.120,3.010,82.810,-61.1,0.400,-0.400,181.080,1000.0
2025-09-16T15:49:05.548091,5.120,3.010,82.810,-61.1,0.400,-0.400,181.080,1000.0
2025-09-16T15:49:05.550084,5.120,3.010,82.810,-61.1,0.400,-0.400,181.080,1000.0
2025-09-16T15:49:05.578046,5.120,3.010,82.810,-61.1,0.400,-0.400,181.080,1000.0
2025-09-16T15:49:05.609732,5.120,3.010,82.810,-61.1,0.400,-0.400,181.080,1000.0
2025-09-16T15:49:05.610696,5.120,3.010,82.810,-61.1,0.400,-0.400,181.080,1000.0
2025-09-16T15:49:05.640178,5.120,3.010,82.810,-61.1,0.400,-0.400,181.080,1000.0
2025-09-16T15:49:05.642178,5.120,3.010,82.810,-61.1,0.400,-0.400,181.080,1000.0
2025-09-16T15:49:05.685777,5.120,3.010,82.810,-61.1,0.400,-0.400,181.080,1000.0
2025-09-16T15:49:05.687776,5.120,3.010,82.810,-61.1,0.400,-0.400,181.080,1000.0
2025-09-16T15:49:05.716283,5.120,3.010,82.810,-61.1,0.400,-0.400,181.080,1000.0
2025-09-16T15:49:05.761282,5.120,3.010,82.810,-61.1,0.400,-0.400,181.080,1000.0
2025-09-16T15:49:05.763283,5.120,3.010,82.810,-61.1,0.400,-0.400,181.080,1000.0
2025-09-16T15:49:05.792096,5.120,3.010,82.810,-61.1,0.400,-0.400,181.080,1000.0
2025-09-16T15:49:05.794105,5.120,3.010,82.810,-61.0,0.400,-0.400,181.080,1000.0
2025-09-16T15:49:05.822136,5.120,3.010,82.810,-61.1,0.400,-0.400,181.080,1000.0
2025-09-16T15:49:05.852027,5.120,3.010,82.810,-61.1,0.400,-0.400,181.080,1000.0
2025-09-16T15:49:05.854027,5.120,3.010,82.810,-61.1,0.400,-0.400,181.080,1000.0
2025-09-16T15:49:05.882027,5.120,3.010,82.810,-61.1,0.400,-0.400,181.080,1000.0
2025-09-16T15:49:05.883027,5.120,3.010,82.810,-61.1,0.400,-0.400,181.080,1000.0
2025-09-16T15:49:05.912027,5.120,3.010,82.810,-61.1,0.400,-0.400,181.080,1000.0
2025-09-16T15:49:05.957027,5.120,3.010,82.810,-61.1,0.400,-0.400,181.080,1000.0
2025-09-16T15:49:05.959025,5.120,3.010,82.810,-61.1,0.400,-0.400,181.080,1000.0
2025-09-16T15:49:05.987069,5.120,3.010,82.810,-61.1,0.400,-0.400,181.080,1000.0
2025-09-16T15:49:05.989083,5.120,3.010,82.810,-61.0,0.400,-0.400,181.080,1000.0
2025-09-16T15:49:06.017070,5.120,3.010,82.810,-61.0,0.400,-0.400,181.080,1000.0
2025-09-16T15:49:06.046655,5.120,3.010,82.810,-61.0,0.400,-0.400,181.080,1000.0
2025-09-16T15:49:06.062099,5.120,3.010,82.810,-61.0,0.400,-0.400,181.080,1000.0
2025-09-16T15:49:06.094888,5.120,3.010,82.810,-61.0,0.400,-0.400,181.080,1000.0
2025-09-16T15:49:06.096890,5.120,3.010,82.810,-61.0,0.400,-0.400,181.080,1000.0
2025-09-16T15:49:06.124026,5.120,3.010,82.810,-61.0,0.400,-0.400,181.080,1000.0
2025-09-16T15:49:06.154941,5.120,3.010,82.810,-61.0,0.400,-0.400,181.080,1000.0
2025-09-16T15:49:06.156942,5.120,3.010,82.810,-61.0,0.400,-0.400,181.080,1000.0
2025-09-16T15:49:06.184634,5.120,3.010,82.810,-61.0,0.400,-0.400,181.080,1000.0
2025-09-16T15:49:06.186637,5.130,3.010,82.810,-61.0,0.400,-0.400,181.080,1000.0
2025-09-16T15:49:06.230302,5.130,3.010,82.810,-61.0,0.400,-0.400,181.080,1000.0
2025-09-16T15:49:06.260440,5.130,3.010,82.810,-61.0,0.400,-0.400,181.080,1000.0
2025-09-16T15:49:06.262431,5.120,3.000,82.810,-61.0,0.400,-0.400,181.080,1000.0
2025-09-16T15:49:06.292037,5.120,3.000,82.810,-61.0,0.400,-0.400,181.080,1000.0
2025-09-16T15:49:06.295025,5.120,3.000,82.810,-61.0,0.400,-0.400,181.080,1000.0
2025-09-16T15:49:06.322496,5.120,3.000,82.810,-61.0,0.400,-0.400,181.080,1000.0
2025-09-16T15:49:06.352673,5.120,2.990,82.810,-61.0,0.400,-0.400,181.080,1000.0
2025-09-16T15:49:06.353672,5.120,2.990,82.810,-61.0,0.400,-0.400,181.080,1000.0
2025-09-16T15:49:06.382735,5.120,2.990,82.810,-61.1,0.400,-0.400,181.080,1000.0
2025-09-16T15:49:06.383738,5.120,2.990,82.810,-61.1,0.400,-0.400,181.080,1000.0
2025-09-16T15:49:06.427884,5.120,2.990,82.810,-61.1,0.400,-0.400,181.080,1000.0
2025-09-16T15:49:06.428885,5.120,2.990,82.810,-61.1,0.400,-0.400,181.080,1000.0
2025-09-16T15:49:06.457654,5.120,2.990,82.810,-61.1,0.400,-0.400,181.080,1000.0
2025-09-16T15:49:06.488265,5.120,2.980,82.800,-61.1,0.400,-0.400,181.080,1000.0
2025-09-16T15:49:06.492268,5.110,2.990,82.800,-61.1,0.400,-0.400,181.080,1000.0
2025-09-16T15:49:06.533316,5.110,2.990,82.800,-61.1,0.400,-0.400,181.080,1000.0
2025-09-16T15:49:06.563889,5.110,2.990,82.800,-61.1,0.400,-0.400,181.080,1000.0
2025-09-16T15:49:06.564888,5.110,2.990,82.800,-61.0,0.400,-0.400,181.080,1000.0
2025-09-16T15:49:06.594285,5.110,2.990,82.800,-61.0,0.400,-0.400,181.080,1000.0
2025-09-16T15:49:06.596283,5.110,2.990,82.800,-61.0,0.400,-0.400,181.080,1000.0
2025-09-16T15:49:06.624628,5.120,2.980,82.800,-61.0,0.400,-0.400,181.080,1000.0
2025-09-16T15:49:06.626628,5.110,2.980,82.800,-61.0,0.400,-0.400,181.080,1000.0
2025-09-16T15:49:06.655366,5.110,2.980,82.800,-61.0,0.400,-0.400,181.080,1000.0
2025-09-16T15:49:06.685316,5.110,2.980,82.800,-61.1,0.400,-0.400,181.080,1000.0
2025-09-16T15:49:06.687316,5.100,2.980,82.800,-61.1,0.400,-0.400,181.080,1000.0
2025-09-16T15:49:06.715664,5.100,2.980,82.800,-61.1,0.400,-0.400,181.080,1000.0
2025-09-16T15:49:06.716666,5.100,2.980,82.800,-61.1,0.400,-0.400,181.080,1000.0
2025-09-16T15:49:06.760928,5.100,2.970,82.800,-61.1,0.400,-0.400,181.080,1000.0
2025-09-16T15:49:06.806254,5.100,2.970,82.800,-61.1,0.400,-0.400,181.080,1000.0
2025-09-16T15:49:06.808252,5.100,2.970,82.800,-61.1,0.400,-0.400,181.080,1000.0
2025-09-16T15:49:06.837307,5.090,2.980,82.800,-61.1,0.400,-0.400,181.080,1000.0
2025-09-16T15:49:06.838309,5.090,2.980,82.800,-61.1,0.400,-0.400,181.080,1000.0
2025-09-16T15:49:06.867318,5.090,2.980,82.800,-61.1,0.400,-0.400,181.080,1000.0
2025-09-16T15:49:06.897385,5.090,2.980,82.800,-61.1,0.400,-0.400,181.080,1000.0
2025-09-16T15:49:06.899377,5.090,2.980,82.800,-61.1,0.400,-0.400,181.080,1000.0
2025-09-16T15:49:06.928494,5.090,2.980,82.800,-61.1,0.400,-0.400,181.080,1000.0
2025-09-16T15:49:06.929493,5.100,2.980,82.800,-61.1,0.400,-0.400,181.080,1000.0
2025-09-16T15:49:06.958827,5.100,2.980,82.800,-61.1,0.400,-0.400,181.080,1000.0
2025-09-16T15:49:06.962824,5.100,2.980,82.800,-61.1,0.400,-0.400,181.080,1000.0
2025-09-16T15:49:06.988776,5.100,2.980,82.800,-61.1,0.400,-0.400,181.080,1000.0
2025-09-16T15:49:07.018774,5.160,2.970,82.770,-61.1,0.400,-0.400,181.080,1000.0
2025-09-16T15:49:07.019782,5.210,2.990,82.730,-61.1,0.400,-0.400,181.080,1000.0
2025-09-16T15:49:07.048486,5.300,3.040,82.620,-61.1,0.400,-0.400,181.080,1000.0
2025-09-16T15:49:07.109504,5.480,3.120,82.430,-61.1,0.400,-0.400,181.080,1000.0
2025-09-16T15:49:07.111504,5.670,3.220,82.230,-61.1,0.400,-0.400,181.080,1000.0
2025-09-16T15:49:07.139922,5.750,3.300,82.140,-61.1,0.400,-0.400,181.080,1000.0
2025-09-16T15:49:07.140922,5.750,3.350,82.140,-61.1,0.400,-0.400,181.080,1000.0
2025-09-16T15:49:07.169901,5.640,3.370,82.260,-61.1,0.400,-0.400,181.080,1000.0
2025-09-16T15:49:07.198811,5.350,3.400,82.590,-61.1,0.400,-0.400,181.080,1000.0
2025-09-16T15:49:07.200804,5.010,3.410,82.820,-61.1,0.400,-0.400,181.080,1000.0
2025-09-16T15:49:07.230166,5.010,3.420,82.820,-61.1,0.400,-0.400,181.080,1000.0
2025-09-16T15:49:07.231166,4.980,3.430,82.840,-61.1,0.400,-0.400,181.080,1000.0
2025-09-16T15:49:07.260945,5.090,3.430,82.740,-61.1,0.400,-0.400,181.080,1000.0
2025-09-16T15:49:07.291656,5.160,3.440,82.650,-61.1,0.400,-0.400,181.080,1000.0
2025-09-16T15:49:07.294653,5.170,3.450,82.630,-61.1,0.400,-0.400,181.080,1000.0
2025-09-16T15:49:07.322433,5.070,3.460,82.720,-61.1,0.400,-0.400,181.080,1000.0
2025-09-16T15:49:07.324433,4.960,3.480,82.790,-61.1,0.400,-0.400,181.080,1000.0
2025-09-16T15:49:07.352995,4.960,3.480,82.790,-61.1,0.400,-0.400,181.080,1000.0
2025-09-16T15:49:07.366994,4.980,3.490,82.780,-61.1,0.400,-0.400,181.080,1000.0
2025-09-16T15:49:07.398433,5.040,3.490,82.710,-61.1,0.400,-0.400,181.080,1000.0
2025-09-16T15:49:07.444202,5.050,3.500,82.690,-61.1,0.400,-0.400,181.080,1000.0
2025-09-16T15:49:07.445203,4.980,3.510,82.740,-61.1,0.400,-0.400,181.080,1000.0
2025-09-16T15:49:07.475049,4.920,3.520,82.780,-61.1,0.400,-0.400,181.080,1000.0
2025-09-16T15:49:07.479046,4.890,3.530,82.800,-61.1,0.400,-0.400,181.080,1000.0
2025-09-16T15:49:07.505066,4.880,3.540,82.800,-61.1,0.400,-0.400,181.080,1000.0
2025-09-16T15:49:07.534396,4.910,3.540,82.780,-61.1,0.400,-0.400,181.080,1000.0
2025-09-16T15:49:07.536389,4.880,3.540,82.770,-61.1,0.400,-0.400,181.080,1000.0
2025-09-16T15:49:07.565557,4.860,3.550,82.770,-61.1,0.400,-0.400,181.080,1000.0
2025-09-16T15:49:07.567556,4.840,3.550,82.790,-61.1,0.400,-0.400,181.080,1000.0
2025-09-16T15:49:07.595693,4.840,3.550,82.800,-61.1,0.400,-0.400,181.080,1000.0
2025-09-16T15:49:07.625775,4.880,3.550,82.750,-61.1,0.400,-0.400,181.080,1000.0
2025-09-16T15:49:07.627774,4.880,3.560,82.740,-61.1,0.400,-0.400,181.080,1000.0
2025-09-16T15:49:07.670487,4.890,3.560,82.720,-61.1,0.400,-0.400,181.080,1000.0
2025-09-16T15:49:07.673486,4.830,3.570,82.760,-61.1,0.400,-0.400,181.080,1000.0
2025-09-16T15:49:07.699515,4.800,3.580,82.790,-61.1,0.400,-0.400,181.080,1000.0
2025-09-16T15:49:07.729883,4.810,3.580,82.790,-61.1,0.400,-0.400,181.080,1000.0
2025-09-16T15:49:07.730885,4.850,3.580,82.750,-61.1,0.400,-0.400,181.080,1000.0
2025-09-16T15:49:07.776173,4.900,3.580,82.710,-61.0,0.400,-0.400,181.080,1000.0
2025-09-16T15:49:07.781163,4.940,3.590,82.670,-61.0,0.400,-0.400,181.080,1000.0
2025-09-16T15:49:07.791160,4.950,3.610,82.680,-61.0,0.400,-0.400,181.080,1000.0
2025-09-16T15:49:07.835558,4.910,3.590,82.700,-61.1,0.400,-0.400,181.080,1000.0
2025-09-16T15:49:07.837574,4.850,3.560,82.750,-61.1,0.400,-0.400,181.080,1000.0
2025-09-16T15:49:07.866637,4.830,3.530,82.760,-61.1,0.400,-0.400,181.080,1000.0
2025-09-16T15:49:07.868639,4.850,3.510,82.740,-61.1,0.400,-0.400,181.080,1000.0
2025-09-16T15:49:07.896477,4.890,3.470,82.700,-61.0,0.400,-0.400,181.080,1000.0
2025-09-16T15:49:07.942186,4.920,3.450,82.670,-61.0,0.400,-0.400,181.080,1000.0
2025-09-16T15:49:07.944181,4.880,3.430,82.700,-61.0,0.400,-0.400,181.080,1000.0
2025-09-16T15:49:07.971402,4.850,3.420,82.730,-61.0,0.400,-0.400,181.080,1000.0
2025-09-16T15:49:07.975406,4.770,3.400,82.770,-61.0,0.400,-0.400,181.080,1000.0
2025-09-16T15:49:08.002405,4.760,3.380,82.760,-61.0,0.400,-0.400,181.080,1000.0
2025-09-16T15:49:08.032457,4.750,3.360,82.760,-61.0,0.400,-0.400,181.080,1000.0
2025-09-16T15:49:08.033456,4.760,3.340,82.750,-61.0,0.400,-0.400,181.080,1000.0
2025-09-16T15:49:08.061463,4.760,3.330,82.760,-61.0,0.400,-0.400,181.080,1000.0
2025-09-16T15:49:08.076456,4.750,3.310,82.770,-61.0,0.400,-0.400,181.080,1000.0
2025-09-16T15:49:08.092457,4.750,3.310,82.780,-61.0,0.400,-0.400,181.080,1000.0
2025-09-16T15:49:08.122467,4.760,3.290,82.780,-61.0,0.400,-0.400,181.080,1000.0
2025-09-16T15:49:08.137456,4.780,3.300,82.770,-61.0,0.400,-0.400,181.080,1000.0
2025-09-16T15:49:08.182467,4.810,3.310,82.760,-61.0,0.400,-0.400,181.080,1000.0
2025-09-16T15:49:08.186457,4.830,3.330,82.750,-61.0,0.400,-0.400,181.080,1000.0
2025-09-16T15:49:08.211454,4.850,3.400,82.720,-61.0,0.400,-0.400,181.080,1000.0
2025-09-16T15:49:08.242457,4.870,3.520,82.690,-61.1,0.400,-0.400,181.080,1000.0
2025-09-16T15:49:08.244457,4.900,3.630,82.650,-61.1,0.400,-0.400,181.080,1000.0
2025-09-16T15:49:08.272605,4.980,3.760,82.590,-61.1,0.400,-0.400,181.080,1000.0
2025-09-16T15:49:08.276616,5.090,3.970,82.480,-61.1,0.400,-0.400,181.080,1000.0
2025-09-16T15:49:08.301611,5.320,4.220,82.310,-61.1,0.400,-0.400,181.080,1000.0
2025-09-16T15:49:08.303616,5.530,4.470,82.150,-61.1,0.400,-0.400,181.080,1000.0
2025-09-16T15:49:08.333153,5.700,4.740,82.000,-61.1,0.400,-0.400,181.080,1000.0
2025-09-16T15:49:08.363151,5.810,5.020,81.910,-61.1,0.400,-0.400,181.080,1000.0
2025-09-16T15:49:08.366153,5.760,5.210,81.950,-61.1,0.400,-0.400,181.080,1000.0
2025-09-16T15:49:08.393154,5.670,5.230,82.040,-61.1,0.400,-0.400,181.080,1000.0
2025-09-16T15:49:08.395154,5.520,5.230,82.160,-61.1,0.400,-0.400,181.080,1000.0
2025-09-16T15:49:08.438152,5.370,5.260,82.270,-61.1,0.400,-0.400,181.080,1000.0
2025-09-16T15:49:08.483759,5.310,5.350,82.310,-61.1,0.400,-0.400,181.080,1000.0
2025-09-16T15:49:08.487759,5.310,5.510,82.310,-61.1,0.400,-0.400,181.080,1000.0
2025-09-16T15:49:08.514003,5.340,5.860,82.260,-61.1,0.400,-0.400,181.080,1000.0
2025-09-16T15:49:08.515003,5.330,6.430,82.230,-61.1,0.400,-0.400,181.080,1000.0
2025-09-16T15:49:08.545243,5.200,7.000,82.300,-61.1,0.400,-0.400,181.080,1000.0
2025-09-16T15:49:08.575732,4.840,7.460,82.500,-61.1,0.400,-0.400,181.080,1000.0
2025-09-16T15:49:08.579731,4.420,7.690,82.790,-61.1,0.400,-0.400,181.080,1000.0
2025-09-16T15:49:08.605874,4.310,7.960,83.430,-61.1,0.400,-0.400,181.080,1000.0
2025-09-16T15:49:08.606873,4.040,8.200,84.340,-61.1,0.400,-0.400,181.080,1000.0
2025-09-16T15:49:08.635828,3.910,8.500,85.360,-61.1,0.400,-0.400,181.080,1000.0
2025-09-16T15:49:08.665505,3.760,8.890,86.640,-61.1,0.400,-0.400,181.080,1000.0
2025-09-16T15:49:08.668502,3.600,9.410,88.430,-61.1,0.400,-0.400,181.080,1000.0
2025-09-16T15:49:08.696513,3.320,9.770,89.890,-61.1,0.400,-0.400,181.080,1000.0
2025-09-16T15:49:08.698513,2.880,10.100,91.610,-61.1,0.400,-0.400,181.080,1000.0
2025-09-16T15:49:08.741917,2.270,10.350,93.470,-61.1,0.400,-0.400,181.080,1000.0
2025-09-16T15:49:08.772382,1.660,10.540,95.090,-61.1,0.400,-0.400,181.080,1000.0
2025-09-16T15:49:08.791556,1.030,10.750,96.550,-61.1,0.400,-0.400,181.080,1000.0
2025-09-16T15:49:08.793556,0.540,11.030,97.810,-61.1,0.400,-0.400,181.080,1000.0
2025-09-16T15:49:08.816589,0.310,11.390,98.960,-61.1,0.400,-0.400,181.080,1000.0
2025-09-16T15:49:08.847252,0.300,11.810,99.910,-61.1,0.400,-0.400,181.080,1000.0
2025-09-16T15:49:08.877651,0.510,12.150,100.470,-61.1,0.400,-0.400,181.080,1000.0
2025-09-16T15:49:08.881756,1.250,12.470,100.680,-61.1,0.400,-0.400,181.080,1000.0
2025-09-16T15:49:08.907713,2.140,12.630,100.190,-61.1,0.400,-0.400,181.080,1000.0
2025-09-16T15:49:08.909714,3.160,12.860,99.080,-61.1,0.400,-0.400,181.080,1000.0
2025-09-16T15:49:08.938451,4.470,13.200,97.330,-61.1,0.400,-0.400,181.080,1000.0
2025-09-16T15:49:08.968415,5.950,13.580,95.060,-61.1,0.400,-0.400,181.080,1000.0
2025-09-16T15:49:08.971414,7.530,13.910,92.590,-61.2,0.400,-0.400,181.080,1000.0
2025-09-16T15:49:09.013608,9.270,14.140,90.350,-61.2,0.400,-0.400,181.080,1000.0
2025-09-16T15:49:09.014609,11.110,14.260,88.550,-61.2,0.400,-0.400,181.080,1000.0
2025-09-16T15:49:09.043683,12.650,14.290,87.020,-61.2,0.400,-0.400,181.080,1000.0
2025-09-16T15:49:09.073683,14.360,14.290,85.030,-61.2,0.400,-0.400,181.080,1000.0
2025-09-16T15:49:09.077681,15.720,14.300,83.240,-61.2,0.400,-0.400,181.080,1000.0
2025-09-16T15:49:09.103681,16.790,14.390,81.900,-61.2,0.400,-0.400,181.080,1000.0
2025-09-16T15:49:09.105680,17.530,14.590,80.860,-61.2,0.400,-0.400,181.080,1000.0
2025-09-16T15:49:09.134235,17.930,14.900,80.010,-61.2,0.400,-0.400,181.080,1000.0
2025-09-16T15:49:09.149234,17.960,15.340,79.600,-61.2,0.400,-0.400,181.080,1000.0
2025-09-16T15:49:09.178243,17.480,15.850,79.760,-61.2,0.400,-0.400,181.080,1000.0
2025-09-16T15:49:09.209420,16.480,16.400,80.530,-61.2,0.400,-0.400,181.080,1000.0
2025-09-16T15:49:09.211413,14.950,16.930,81.730,-61.2,0.400,-0.400,181.080,1000.0
2025-09-16T15:49:09.255162,13.000,17.460,83.300,-61.2,0.400,-0.400,181.080,1000.0
2025-09-16T15:49:09.256164,10.650,18.010,85.190,-61.2,0.400,-0.400,181.080,1000.0
2025-09-16T15:49:09.285151,7.850,18.560,87.400,-61.2,0.400,-0.400,181.080,1000.0
2025-09-16T15:49:09.315653,5.640,18.900,89.130,-61.2,0.400,-0.400,181.080,1000.0
2025-09-16T15:49:09.316653,1.760,19.320,92.150,-61.2,0.400,-0.400,181.080,1000.0
2025-09-16T15:49:09.344704,-1.370,19.410,94.320,-61.2,0.400,-0.400,181.080,1000.0
2025-09-16T15:49:09.376488,-4.540,19.390,96.230,-61.2,0.400,-0.400,181.080,1000.0
2025-09-16T15:49:09.379483,-7.460,19.290,97.920,-61.2,0.400,-0.400,181.080,1000.0
2025-09-16T15:49:09.405175,-9.730,19.220,99.160,-61.2,0.400,-0.400,181.080,1000.0
2025-09-16T15:49:09.407184,-12.260,19.190,100.400,-61.2,0.400,-0.400,181.080,1000.0
2025-09-16T15:49:09.436675,-14.120,19.170,101.150,-61.2,0.400,-0.400,181.080,1000.0
2025-09-16T15:49:09.437680,-15.520,19.160,101.530,-61.2,0.400,-0.400,181.080,1000.0
2025-09-16T15:49:09.466798,-16.420,19.160,101.440,-61.2,0.400,-0.400,181.080,1000.0
2025-09-16T15:49:09.512307,-16.870,19.230,100.920,-61.2,0.400,-0.400,181.080,1000.0
2025-09-16T15:49:09.513307,-16.930,19.340,100.100,-61.2,0.400,-0.400,181.080,1000.0
2025-09-16T15:49:09.557438,-16.780,19.530,99.140,-61.2,0.400,-0.400,181.080,1000.0
2025-09-16T15:49:09.559432,-16.500,19.770,98.070,-61.2,0.400,-0.400,181.080,1000.0
2025-09-16T15:49:09.587942,-16.140,19.920,96.870,-61.2,0.400,-0.400,181.080,1000.0
2025-09-16T15:49:09.618481,-15.700,19.900,95.660,-61.2,0.400,-0.400,181.080,1000.0
2025-09-16T15:49:09.619481,-15.320,19.790,94.670,-61.2,0.400,-0.400,181.080,1000.0
2025-09-16T15:49:09.648900,-14.870,19.660,93.500,-61.2,0.400,-0.400,181.080,1000.0
2025-09-16T15:49:09.649895,-14.330,19.510,92.430,-61.2,0.400,-0.400,181.080,1000.0
2025-09-16T15:49:09.678182,-13.770,19.410,91.300,-61.2,0.400,-0.400,181.080,1000.0
2025-09-16T15:49:09.709369,-13.000,19.140,90.080,-61.2,0.400,-0.400,181.080,1000.0
2025-09-16T15:49:09.711372,-12.120,18.860,88.760,-61.2,0.400,-0.400,181.080,1000.0
2025-09-16T15:49:09.739470,-11.080,18.570,87.400,-61.2,0.400,-0.400,181.080,1000.0
2025-09-16T15:49:09.740470,-9.820,18.270,85.970,-61.2,0.400,-0.400,181.080,1000.0
2025-09-16T15:49:09.769254,-8.470,18.000,84.670,-61.2,0.400,-0.400,181.080,1000.0
2025-09-16T15:49:09.813358,-6.410,17.410,83.010,-61.2,0.400,-0.400,181.080,1000.0
2025-09-16T15:49:09.815352,-4.440,16.650,81.610,-61.2,0.400,-0.400,181.080,1000.0
2025-09-16T15:49:09.859522,-2.490,15.860,80.270,-61.2,0.400,-0.400,181.080,1000.0
2025-09-16T15:49:09.861523,-0.500,14.780,79.030,-61.1,0.400,-0.400,181.080,1000.0
2025-09-16T15:49:09.888755,1.180,13.730,78.080,-61.1,0.400,-0.400,181.080,1000.0
2025-09-16T15:49:09.919410,2.290,12.960,77.590,-61.1,0.400,-0.400,181.080,1000.0
2025-09-16T15:49:09.921414,3.790,11.840,77.440,-61.2,0.400,-0.400,181.080,1000.0
2025-09-16T15:49:09.949856,4.690,11.120,77.890,-61.2,0.400,-0.400,181.080,1000.0
2025-09-16T15:49:09.950854,5.250,10.700,78.700,-61.2,0.400,-0.400,181.080,1000.0
2025-09-16T15:49:09.979334,5.420,10.630,79.940,-61.2,0.400,-0.400,181.080,1000.0
2025-09-16T15:49:10.010856,5.330,10.740,81.750,-61.2,0.400,-0.400,181.080,1000.0
2025-09-16T15:49:10.011854,5.080,10.810,84.180,-61.2,0.400,-0.400,181.080,1000.0
2025-09-16T15:49:10.042009,4.320,11.070,87.050,-61.2,0.400,-0.400,181.080,1000.0
2025-09-16T15:49:10.044017,3.180,11.310,90.120,-61.2,0.400,-0.400,181.080,1000.0
2025-09-16T15:49:10.072353,1.780,11.490,93.210,-61.2,0.400,-0.400,181.080,1000.0
2025-09-16T15:49:10.117814,0.280,11.630,96.340,-61.2,0.400,-0.400,181.080,1000.0
2025-09-16T15:49:10.118814,-0.980,11.740,98.820,-61.2,0.400,-0.400,181.080,1000.0
2025-09-16T15:49:10.147126,-3.160,11.910,102.650,-61.2,0.400,-0.400,181.080,1000.0
2025-09-16T15:49:10.162011,-4.900,11.970,105.290,-61.2,0.400,-0.400,181.080,1000.0
2025-09-16T15:49:10.178293,-6.190,11.680,107.520,-61.2,0.400,-0.400,181.080,1000.0
2025-09-16T15:49:10.193330,-7.620,11.480,109.330,-61.2,0.400,-0.400,181.080,1000.0
2025-09-16T15:49:10.208325,-9.070,11.320,110.860,-61.2,0.400,-0.400,181.080,1000.0
2025-09-16T15:49:10.254159,-10.330,11.290,111.940,-61.2,0.400,-0.400,181.080,1000.0
2025-09-16T15:49:10.255161,-11.650,11.300,112.930,-61.2,0.400,-0.400,181.080,1000.0
2025-09-16T15:49:10.284159,-12.530,11.320,113.430,-61.2,0.400,-0.400,181.080,1000.0
2025-09-16T15:49:10.313723,-13.150,11.330,113.570,-61.2,0.400,-0.400,181.080,1000.0
2025-09-16T15:49:10.315464,-13.500,11.270,113.350,-61.3,0.400,-0.400,181.080,1000.0
2025-09-16T15:49:10.344373,-13.430,11.130,112.550,-61.3,0.400,-0.400,181.080,1000.0
2025-09-16T15:49:10.346373,-13.230,11.080,111.400,-61.3,0.400,-0.400,181.080,1000.0
2025-09-16T15:49:10.389377,-12.780,11.190,109.460,-61.3,0.400,-0.400,181.080,1000.0
2025-09-16T15:49:10.392377,-12.030,11.520,106.980,-61.3,0.400,-0.400,181.080,1000.0
2025-09-16T15:49:10.419286,-10.870,12.190,103.760,-61.3,0.400,-0.400,181.080,1000.0
2025-09-16T15:49:10.449516,-9.740,12.770,101.040,-61.3,0.400,-0.400,181.080,1000.0
2025-09-16T15:49:10.450513,-8.540,13.350,98.190,-61.3,0.400,-0.400,181.080,1000.0
2025-09-16T15:49:10.479285,-6.460,13.920,93.880,-61.3,0.400,-0.400,181.080,1000.0
2025-09-16T15:49:10.480285,-4.780,13.970,90.900,-61.3,0.400,-0.400,181.080,1000.0
2025-09-16T15:49:10.525412,-2.980,14.030,87.320,-61.3,0.400,-0.400,181.080,1000.0
2025-09-16T15:49:10.555346,-1.830,14.130,84.760,-61.3,0.400,-0.400,181.080,1000.0
2025-09-16T15:49:10.557346,-0.760,14.130,82.150,-61.3,0.400,-0.400,181.080,1000.0
2025-09-16T15:49:10.586286,0.070,13.860,79.740,-61.3,0.400,-0.400,181.080,1000.0
2025-09-16T15:49:10.588285,0.400,13.480,78.300,-61.3,0.400,-0.400,181.080,1000.0
2025-09-16T15:49:10.616288,0.360,13.020,77.610,-61.3,0.400,-0.400,181.080,1000.0
2025-09-16T15:49:10.660814,0.150,12.470,77.490,-61.2,0.400,-0.400,181.080,1000.0
2025-09-16T15:49:10.662815,-0.190,11.510,77.870,-61.2,0.400,-0.400,181.080,1000.0
2025-09-16T15:49:10.690826,-0.690,10.840,78.540,-61.2,0.400,-0.400,181.080,1000.0
2025-09-16T15:49:10.692825,-1.440,9.970,79.800,-61.2,0.400,-0.400,181.080,1000.0
2025-09-16T15:49:10.721315,-2.100,9.080,81.490,-61.2,0.400,-0.400,181.080,1000.0
2025-09-16T15:49:10.751313,-2.540,8.210,83.370,-61.2,0.400,-0.400,181.080,1000.0
2025-09-16T15:49:10.752318,-2.830,7.480,85.080,-61.2,0.400,-0.400,181.080,1000.0
2025-09-16T15:49:10.781532,-3.150,6.110,88.170,-61.2,0.400,-0.400,181.080,1000.0
2025-09-16T15:49:10.782533,-3.010,5.030,90.180,-61.2,0.400,-0.400,181.080,1000.0
2025-09-16T15:49:10.811546,-2.440,3.970,91.650,-61.2,0.400,-0.400,181.080,1000.0
2025-09-16T15:49:10.856545,-1.410,2.860,93.120,-61.2,0.400,-0.400,181.080,1000.0
2025-09-16T15:49:10.858546,-0.110,2.110,93.990,-61.2,0.400,-0.400,181.080,1000.0
2025-09-16T15:49:10.900558,1.500,1.560,94.320,-61.2,0.400,-0.400,181.080,1000.0
2025-09-16T15:49:10.902546,3.440,1.140,93.960,-61.2,0.400,-0.400,181.080,1000.0
2025-09-16T15:49:10.931547,5.710,0.840,92.950,-61.2,0.400,-0.400,181.080,1000.0
2025-09-16T15:49:10.961548,7.880,0.580,91.740,-61.2,0.400,-0.400,181.080,1000.0
2025-09-16T15:49:10.963545,11.220,-0.010,89.800,-61.2,0.400,-0.400,181.080,1000.0
2025-09-16T15:49:10.991561,14.650,-0.800,87.790,-61.2,0.400,-0.400,181.080,1000.0
2025-09-16T15:49:10.993550,18.290,-1.680,85.540,-61.2,0.400,-0.400,181.080,1000.0
2025-09-16T15:49:11.020552,22.070,-2.780,83.150,-61.2,0.400,-0.400,181.080,1000.0
2025-09-16T15:49:11.051962,25.810,-4.150,80.700,-61.2,0.400,-0.400,181.080,1000.0
2025-09-16T15:49:11.052962,29.400,-5.720,78.290,-61.2,0.400,-0.400,181.080,1000.0
2025-09-16T15:49:11.082460,32.300,-7.120,76.290,-61.2,0.400,-0.400,181.080,1000.0
2025-09-16T15:49:11.083462,35.670,-9.030,73.870,-61.2,0.400,-0.400,181.080,1000.0
2025-09-16T15:49:11.112511,38.360,-12.280,186.400,-61.2,0.400,-0.400,181.080,1000.0
2025-09-16T15:49:11.114512,40.860,-14.040,228.410,-61.2,0.400,-0.400,181.080,1000.0
2025-09-16T15:49:11.158582,41.980,-15.160,227.150,-61.2,0.400,-0.400,181.080,1000.0
2025-09-16T15:49:11.188619,42.890,-16.340,226.170,-61.2,0.400,-0.400,181.080,1000.0
2025-09-16T15:49:11.202629,43.230,-16.870,226.020,-61.2,0.400,-0.400,181.080,1000.0
2025-09-16T15:49:11.218610,43.170,-16.890,226.430,-61.2,0.400,-0.400,181.080,1000.0
2025-09-16T15:49:11.262977,42.770,-16.550,227.230,-61.3,0.400,-0.400,181.080,1000.0
2025-09-16T15:49:11.263985,42.090,-15.750,228.660,-61.2,0.400,-0.400,181.080,1000.0
2025-09-16T15:49:11.294030,41.020,-14.800,230.300,-61.2,0.400,-0.400,181.080,1000.0
2025-09-16T15:49:11.296027,39.620,-13.590,232.330,-61.2,0.400,-0.400,181.080,1000.0
2025-09-16T15:49:11.324492,37.960,-12.300,234.590,-61.2,0.400,-0.400,181.080,1000.0
2025-09-16T15:49:11.325493,35.900,-10.900,236.820,-61.2,0.400,-0.400,181.080,1000.0
2025-09-16T15:49:11.354491,33.670,-9.500,239.120,-61.2,0.400,-0.400,181.080,1000.0
2025-09-16T15:49:11.398178,31.080,-8.180,241.480,-61.2,0.400,-0.400,181.080,1000.0
2025-09-16T15:49:11.400177,28.230,-6.860,243.900,-61.2,0.400,-0.400,181.080,1000.0
2025-09-16T15:49:11.430123,25.150,-5.740,246.350,-61.2,0.400,-0.400,181.080,1000.0
2025-09-16T15:49:11.431125,21.790,-4.730,248.910,-61.2,0.400,-0.400,181.080,1000.0
2025-09-16T15:49:11.460128,18.150,-3.840,251.610,-61.3,0.400,-0.400,181.080,1000.0
2025-09-16T15:49:11.489979,14.400,-3.160,254.360,-61.3,0.400,-0.400,181.080,1000.0
2025-09-16T15:49:11.491940,11.190,-2.770,256.800,-61.3,0.400,-0.400,181.080,1000.0
2025-09-16T15:49:11.520042,7.350,-2.560,259.860,-61.3,0.400,-0.400,181.080,1000.0
2025-09-16T15:49:11.534040,4.270,-2.560,262.480,-61.3,0.400,-0.400,181.080,1000.0
2025-09-16T15:49:11.549367,2.080,-2.650,264.450,-61.3,0.400,-0.400,181.080,1000.0
2025-09-16T15:49:11.596323,-0.190,-2.830,266.590,-61.3,0.400,-0.400,181.080,1000.0
2025-09-16T15:49:11.597322,-1.640,-2.980,267.990,-61.3,0.400,-0.400,181.080,1000.0
2025-09-16T15:49:11.626322,-2.720,-3.110,268.890,-61.3,0.400,-0.400,181.080,1000.0
2025-09-16T15:49:11.629323,-3.410,-3.130,269.210,-61.3,0.400,-0.400,181.080,1000.0
2025-09-16T15:49:11.656321,-3.870,-2.960,269.010,-61.3,0.400,-0.400,181.080,1000.0
2025-09-16T15:49:11.701323,-4.130,-2.630,268.340,-61.3,0.400,-0.400,181.080,1000.0
2025-09-16T15:49:11.702320,-4.240,-2.210,267.380,-61.3,0.400,-0.400,181.080,1000.0
2025-09-16T15:49:11.730278,-4.230,-1.800,266.270,-61.3,0.400,-0.400,181.080,1000.0
2025-09-16T15:49:11.732267,-4.040,-1.440,265.060,-61.3,0.400,-0.400,181.080,1000.0
2025-09-16T15:49:11.761235,-3.690,-1.140,263.850,-61.3,0.400,-0.400,181.080,1000.0
2025-09-16T15:49:11.791225,-3.280,-0.850,262.620,-61.3,0.400,-0.400,181.080,1000.0
2025-09-16T15:49:11.792227,-2.910,-0.570,261.420,-61.3,0.400,-0.400,181.080,1000.0
2025-09-16T15:49:11.820224,-2.610,-0.340,260.210,-61.3,0.400,-0.400,181.080,1000.0
2025-09-16T15:49:11.822225,-2.370,-0.220,258.950,-61.3,0.400,-0.400,181.080,1000.0
2025-09-16T15:49:11.850238,-2.140,-0.230,257.700,-61.3,0.400,-0.400,181.080,1000.0
2025-09-16T15:49:11.881347,-1.880,-0.280,256.470,-61.2,0.400,-0.400,181.080,1000.0
2025-09-16T15:49:11.896348,-1.570,-0.320,255.300,-61.2,0.400,-0.400,181.080,1000.0
2025-09-16T15:49:11.940691,-1.210,-0.370,254.230,-61.2,0.400,-0.400,181.080,1000.0
2025-09-16T15:49:11.941697,-0.900,-0.460,253.350,-61.2,0.400,-0.400,181.080,1000.0
2025-09-16T15:49:11.970839,-0.670,-0.580,252.620,-61.2,0.400,-0.400,181.080,1000.0
2025-09-16T15:49:12.002150,-0.490,-0.760,251.960,-61.2,0.400,-0.400,181.080,1000.0
2025-09-16T15:49:12.003149,-0.280,-0.950,251.370,-61.2,0.400,-0.400,181.080,1000.0
2025-09-16T15:49:12.032083,-0.060,-1.130,250.890,-61.2,0.400,-0.400,181.080,1000.0
2025-09-16T15:49:12.033082,0.220,-1.310,250.480,-61.2,0.400,-0.400,181.080,1000.0
2025-09-16T15:49:12.062605,0.340,-1.320,250.130,-61.2,0.400,-0.400,181.080,1000.0
2025-09-16T15:49:12.065602,0.500,-1.340,249.720,-61.2,0.400,-0.400,181.080,1000.0
2025-09-16T15:49:12.092668,0.720,-1.480,249.420,-61.2,0.400,-0.400,181.080,1000.0
2025-09-16T15:49:12.122391,0.860,-1.580,249.190,-61.2,0.400,-0.400,181.080,1000.0
2025-09-16T15:49:12.123390,1.100,-1.720,248.960,-61.2,0.400,-0.400,181.080,1000.0
2025-09-16T15:49:12.151436,1.430,-1.860,248.740,-61.2,0.400,-0.400,181.080,1000.0
2025-09-16T15:49:12.154429,1.820,-1.970,248.530,-61.2,0.400,-0.400,181.080,1000.0
2025-09-16T15:49:12.198186,2.220,-2.080,248.280,-61.2,0.400,-0.400,181.080,1000.0
2025-09-16T15:49:12.227442,2.670,-2.240,247.950,-61.2,0.400,-0.400,181.080,1000.0
2025-09-16T15:49:12.242293,3.190,-2.440,247.550,-61.2,0.400,-0.400,181.080,1000.0
2025-09-16T15:49:12.272680,3.670,-2.580,247.110,-61.2,0.400,-0.400,181.080,1000.0
2025-09-16T15:49:12.275784,4.160,-2.710,246.680,-61.2,0.400,-0.400,181.080,1000.0
2025-09-16T15:49:12.303468,4.700,-2.850,246.280,-61.2,0.400,-0.400,181.080,1000.0
2025-09-16T15:49:12.333924,5.180,-2.960,245.930,-61.2,0.400,-0.400,181.080,1000.0
2025-09-16T15:49:12.334924,5.660,-3.160,245.660,-61.2,0.400,-0.400,181.080,1000.0
2025-09-16T15:49:12.363752,6.080,-3.330,245.460,-61.2,0.400,-0.400,181.080,1000.0
2025-09-16T15:49:12.365751,6.440,-3.490,245.310,-61.2,0.400,-0.400,181.080,1000.0
2025-09-16T15:49:12.394879,6.840,-3.660,245.240,-61.2,0.400,-0.400,181.080,1000.0
2025-09-16T15:49:12.439064,7.150,-3.800,245.220,-61.2,0.400,-0.400,181.080,1000.0
2025-09-16T15:49:12.440064,7.450,-3.920,245.250,-61.2,0.400,-0.400,181.080,1000.0
2025-09-16T15:49:12.468795,7.690,-4.050,245.310,-61.2,0.400,-0.400,181.080,1000.0
2025-09-16T15:49:12.471794,7.840,-4.140,245.370,-61.2,0.400,-0.400,181.080,1000.0
2025-09-16T15:49:12.499012,8.000,-4.260,245.460,-61.2,0.400,-0.400,181.080,1000.0
2025-09-16T15:49:12.529732,8.160,-4.410,245.570,-61.2,0.400,-0.400,181.080,1000.0
2025-09-16T15:49:12.530731,8.270,-4.530,245.680,-61.2,0.400,-0.400,181.080,1000.0
2025-09-16T15:49:12.559620,8.420,-4.650,245.780,-61.2,0.400,-0.400,181.080,1000.0
2025-09-16T15:49:12.576619,8.570,-4.770,245.850,-61.2,0.400,-0.400,181.080,1000.0
2025-09-16T15:49:12.605247,8.610,-4.840,245.890,-61.2,0.400,-0.400,181.080,1000.0
2025-09-16T15:49:12.607245,8.630,-4.890,245.900,-61.2,0.400,-0.400,181.080,1000.0
2025-09-16T15:49:12.634208,8.620,-4.910,245.920,-61.2,0.400,-0.400,181.080,1000.0
2025-09-16T15:49:12.665198,8.620,-4.940,245.930,-61.2,0.400,-0.400,181.080,1000.0
2025-09-16T15:49:12.667198,8.580,-4.940,245.930,-61.2,0.400,-0.400,181.080,1000.0
2025-09-16T15:49:12.711232,8.570,-4.950,245.960,-61.3,0.400,-0.400,181.080,1000.0
2025-09-16T15:49:12.741235,8.660,-5.080,246.000,-61.3,0.400,-0.400,181.080,1000.0
2025-09-16T15:49:12.743241,9.760,-5.750,245.980,-61.3,0.400,-0.400,181.080,1000.0
2025-09-16T15:49:12.771085,10.180,-5.980,246.030,-61.3,0.400,-0.400,181.080,1000.0
2025-09-16T15:49:12.774084,10.360,-6.050,246.100,-61.3,0.400,-0.400,181.080,1000.0
2025-09-16T15:49:12.801982,10.350,-6.030,246.200,-61.2,0.400,-0.400,181.080,1000.0
2025-09-16T15:49:12.832336,10.120,-5.910,246.360,-61.2,0.400,-0.400,181.080,1000.0
2025-09-16T15:49:12.833351,9.860,-5.860,246.490,-61.2,0.400,-0.400,181.080,1000.0
2025-09-16T15:49:12.862550,9.500,-5.840,246.640,-61.3,0.400,-0.400,181.080,1000.0
2025-09-16T15:49:12.877745,9.160,-6.050,246.860,-61.3,0.400,-0.400,181.080,1000.0
2025-09-16T15:49:12.892926,8.740,-6.480,247.140,-61.3,0.400,-0.400,181.080,1000.0
2025-09-16T15:49:12.937877,8.280,-6.790,247.530,-61.3,0.400,-0.400,181.080,1000.0
2025-09-16T15:49:12.938877,7.850,-6.710,247.930,-61.3,0.400,-0.400,181.080,1000.0
2025-09-16T15:49:12.982623,7.350,-6.290,248.300,-61.3,0.400,-0.400,181.080,1000.0
2025-09-16T15:49:12.987623,6.640,-5.890,248.710,-61.3,0.400,-0.400,181.080,1000.0
2025-09-16T15:49:13.012793,5.920,-5.840,248.990,-61.3,0.400,-0.400,181.080,1000.0
2025-09-16T15:49:13.013790,5.240,-6.040,249.200,-61.3,0.400,-0.400,181.080,1000.0
2025-09-16T15:49:13.043510,4.750,-6.370,249.490,-61.3,0.400,-0.400,181.080,1000.0
2025-09-16T15:49:13.074561,4.550,-6.730,249.800,-61.2,0.400,-0.400,181.080,1000.0
2025-09-16T15:49:13.078561,4.570,-7.010,250.010,-61.2,0.400,-0.400,181.080,1000.0
2025-09-16T15:49:13.104806,4.810,-7.240,250.170,-61.2,0.400,-0.400,181.080,1000.0
2025-09-16T15:49:13.134665,5.190,-7.390,250.240,-61.2,0.400,-0.400,181.080,1000.0
2025-09-16T15:49:13.135665,5.700,-7.520,250.180,-61.2,0.400,-0.400,181.080,1000.0
2025-09-16T15:49:13.164829,6.240,-7.670,249.920,-61.2,0.400,-0.400,181.080,1000.0
2025-09-16T15:49:13.168830,6.780,-7.810,249.460,-61.2,0.400,-0.400,181.080,1000.0
2025-09-16T15:49:13.195002,7.370,-7.920,248.860,-61.2,0.400,-0.400,181.080,1000.0
2025-09-16T15:49:13.199000,7.970,-7.970,248.170,-61.2,0.400,-0.400,181.080,1000.0
2025-09-16T15:49:13.225186,8.600,-7.970,247.390,-61.2,0.400,-0.400,181.080,1000.0
2025-09-16T15:49:13.286262,9.220,-7.940,246.510,-61.2,0.400,-0.400,181.080,1000.0
2025-09-16T15:49:13.290253,9.830,-7.890,245.560,-61.2,0.400,-0.400,181.080,1000.0
2025-09-16T15:49:13.292259,10.450,-7.840,244.580,-61.2,0.400,-0.400,181.080,1000.0
2025-09-16T15:49:13.315118,11.100,-7.790,243.550,-61.2,0.400,-0.400,181.080,1000.0
2025-09-16T15:49:13.346806,11.700,-7.800,242.490,-61.2,0.400,-0.400,181.080,1000.0
2025-09-16T15:49:13.376816,12.380,-7.850,241.430,-61.2,0.400,-0.400,181.080,1000.0
2025-09-16T15:49:13.381819,12.970,-7.930,240.590,-61.2,0.400,-0.400,181.080,1000.0
2025-09-16T15:49:13.407568,13.770,-8.040,239.570,-61.2,0.400,-0.400,181.080,1000.0
2025-09-16T15:49:13.408569,14.440,-8.140,238.760,-61.2,0.400,-0.400,181.080,1000.0
2025-09-16T15:49:13.437072,15.060,-8.230,238.010,-61.2,0.400,-0.400,181.080,1000.0
2025-09-16T15:49:13.468152,15.620,-8.300,237.350,-61.2,0.400,-0.400,181.080,1000.0
2025-09-16T15:49:13.470153,16.120,-8.370,236.780,-61.2,0.400,-0.400,181.080,1000.0
2025-09-16T15:49:13.498367,16.550,-8.470,236.280,-61.2,0.400,-0.400,181.080,1000.0
2025-09-16T15:49:13.500367,16.930,-8.590,235.850,-61.2,0.400,-0.400,181.080,1000.0
2025-09-16T15:49:13.528601,17.250,-8.720,235.540,-61.2,0.400,-0.400,181.080,1000.0
2025-09-16T15:49:13.574501,17.520,-8.850,235.340,-61.2,0.400,-0.400,181.080,1000.0
2025-09-16T15:49:13.577507,17.750,-9.000,235.240,-61.2,0.400,-0.400,181.080,1000.0
2025-09-16T15:49:13.619015,17.940,-9.160,235.220,-61.2,0.400,-0.400,181.080,1000.0
2025-09-16T15:49:13.620009,18.140,-9.320,235.250,-61.2,0.400,-0.400,181.080,1000.0
2025-09-16T15:49:13.635086,18.300,-9.470,235.280,-61.2,0.400,-0.400,181.080,1000.0
2025-09-16T15:49:13.680871,18.450,-9.600,235.310,-61.2,0.400,-0.400,181.080,1000.0
2025-09-16T15:49:13.684871,18.550,-9.740,235.320,-61.2,0.400,-0.400,181.080,1000.0
2025-09-16T15:49:13.710898,18.610,-9.860,235.340,-61.2,0.400,-0.400,181.080,1000.0
2025-09-16T15:49:13.712900,18.690,-9.970,235.360,-61.2,0.400,-0.400,181.080,1000.0
2025-09-16T15:49:13.741227,18.760,-10.100,235.390,-61.2,0.400,-0.400,181.080,1000.0
2025-09-16T15:49:13.771566,18.820,-10.210,235.440,-61.2,0.400,-0.400,181.080,1000.0
2025-09-16T15:49:13.774566,18.880,-10.340,235.520,-61.2,0.400,-0.400,181.080,1000.0
2025-09-16T15:49:13.800570,18.900,-10.420,235.660,-61.2,0.400,-0.400,181.080,1000.0
2025-09-16T15:49:13.802576,18.870,-10.480,235.830,-61.2,0.400,-0.400,181.080,1000.0
2025-09-16T15:49:13.846410,18.800,-10.480,236.060,-61.2,0.400,-0.400,181.080,1000.0
2025-09-16T15:49:13.876625,18.700,-10.430,236.330,-61.2,0.400,-0.400,181.080,1000.0
2025-09-16T15:49:13.881621,18.550,-10.370,236.620,-61.2,0.400,-0.400,181.080,1000.0
2025-09-16T15:49:13.906632,18.360,-10.300,236.930,-61.2,0.400,-0.400,181.080,1000.0
2025-09-16T15:49:13.907633,18.170,-10.220,237.230,-61.2,0.400,-0.400,181.080,1000.0
2025-09-16T15:49:13.936602,17.960,-10.130,237.530,-61.2,0.400,-0.400,181.080,1000.0
2025-09-16T15:49:13.980474,17.770,-10.050,237.820,-61.2,0.400,-0.400,181.080,1000.0
2025-09-16T15:49:13.983474,17.590,-9.970,238.090,-61.2,0.400,-0.400,181.080,1000.0
2025-09-16T15:49:14.011512,17.420,-9.890,238.340,-61.2,0.400,-0.400,181.080,1000.0
2025-09-16T15:49:14.013510,17.290,-9.870,238.520,-61.2,0.400,-0.400,181.080,1000.0
2025-09-16T15:49:14.041130,17.130,-9.850,238.640,-61.2,0.400,-0.400,181.080,1000.0
2025-09-16T15:49:14.086819,17.030,-9.870,238.690,-61.2,0.400,-0.400,181.080,1000.0
2025-09-16T15:49:14.092035,17.010,-9.950,238.670,-61.2,0.400,-0.400,181.080,1000.0
2025-09-16T15:49:14.116428,16.930,-9.990,238.610,-61.2,0.400,-0.400,181.080,1000.0
2025-09-16T15:49:14.118341,16.860,-10.030,238.500,-61.2,0.400,-0.400,181.080,1000.0
2025-09-16T15:49:14.147526,16.910,-10.110,238.320,-61.2,0.400,-0.400,181.080,1000.0
2025-09-16T15:49:14.149523,16.960,-10.180,238.070,-61.2,0.400,-0.400,181.080,1000.0
2025-09-16T15:49:14.178040,17.120,-10.300,237.700,-61.2,0.400,-0.400,181.080,1000.0
2025-09-16T15:49:14.208643,17.390,-10.470,237.220,-61.2,0.400,-0.400,181.080,1000.0
2025-09-16T15:49:14.209643,17.690,-10.620,236.570,-61.2,0.400,-0.400,181.080,1000.0
2025-09-16T15:49:14.238700,17.910,-10.700,235.990,-61.2,0.400,-0.400,181.080,1000.0
2025-09-16T15:49:14.240700,18.170,-10.780,235.220,-61.2,0.400,-0.400,181.080,1000.0
2025-09-16T15:49:14.268702,18.380,-10.820,234.510,-61.2,0.400,-0.400,181.080,1000.0
2025-09-16T15:49:14.299323,18.640,-10.860,233.580,-61.2,0.400,-0.400,181.080,1000.0
2025-09-16T15:49:14.314475,18.800,-10.810,232.780,-61.2,0.400,-0.400,181.080,1000.0
2025-09-16T15:49:14.346085,19.020,-10.790,232.040,-61.2,0.400,-0.400,181.080,1000.0
2025-09-16T15:49:14.348083,19.220,-10.730,231.500,-61.2,0.400,-0.400,181.080,1000.0
2025-09-16T15:49:14.390171,19.380,-10.570,231.080,-61.2,0.400,-0.400,181.080,1000.0
2025-09-16T15:49:14.420366,19.450,-10.440,230.890,-61.2,0.400,-0.400,181.080,1000.0
2025-09-16T15:49:14.421331,19.450,-10.230,230.810,-61.2,0.400,-0.400,181.080,1000.0
2025-09-16T15:49:14.450287,19.380,-10.080,230.860,-61.2,0.400,-0.400,181.080,1000.0
2025-09-16T15:49:14.451287,19.240,-9.890,231.050,-61.2,0.400,-0.400,181.080,1000.0
2025-09-16T15:49:14.480680,19.050,-9.710,231.270,-61.2,0.400,-0.400,181.080,1000.0
2025-09-16T15:49:14.511419,18.710,-9.460,231.600,-61.2,0.400,-0.400,181.080,1000.0
2025-09-16T15:49:14.513421,18.470,-9.290,231.870,-61.2,0.400,-0.400,181.080,1000.0
2025-09-16T15:49:14.541668,18.300,-9.170,232.080,-61.2,0.400,-0.400,181.080,1000.0
2025-09-16T15:49:14.543668,18.120,-9.050,232.290,-61.2,0.400,-0.400,181.080,1000.0
2025-09-16T15:49:14.571985,17.960,-8.950,232.440,-61.2,0.400,-0.400,181.080,1000.0
2025-09-16T15:49:14.601985,17.800,-8.840,232.560,-61.2,0.400,-0.400,181.080,1000.0
2025-09-16T15:49:14.616181,17.650,-8.760,232.690,-61.3,0.400,-0.400,181.080,1000.0
2025-09-16T15:49:14.647540,17.480,-8.650,232.800,-61.3,0.400,-0.400,181.080,1000.0
2025-09-16T15:49:14.649532,15.440,-6.960,233.370,-61.3,0.400,-0.400,181.080,1000.0
2025-09-16T15:49:14.692315,9.520,-2.240,234.510,-61.3,0.400,-0.400,181.080,1000.0
2025-09-16T15:49:14.721324,6.650,-0.050,234.920,-61.2,0.400,-0.400,181.080,1000.0
2025-09-16T15:49:14.723317,4.280,1.690,235.240,-61.2,0.400,-0.400,181.080,1000.0
2025-09-16T15:49:14.752335,2.740,2.800,235.440,-61.2,0.400,-0.400,181.080,1000.0
2025-09-16T15:49:14.753337,1.610,3.540,235.660,-61.2,0.400,-0.400,181.080,1000.0
2025-09-16T15:49:14.782398,0.870,3.960,235.860,-61.2,0.400,-0.400,181.080,1000.0
2025-09-16T15:49:14.812307,0.170,4.320,236.090,-61.2,0.400,-0.400,181.080,1000.0
2025-09-16T15:49:14.814304,-0.410,4.500,236.340,-61.2,0.400,-0.400,181.080,1000.0
2025-09-16T15:49:14.842343,-0.780,4.520,236.570,-61.2,0.400,-0.400,181.080,1000.0
2025-09-16T15:49:14.843342,-1.400,4.550,236.910,-61.2,0.400,-0.400,181.080,1000.0
2025-09-16T15:49:14.871944,-2.140,4.590,237.310,-61.2,0.400,-0.400,181.080,1000.0
2025-09-16T15:49:14.917267,-3.020,4.610,237.810,-61.2,0.400,-0.400,181.080,1000.0
2025-09-16T15:49:14.919260,-3.920,4.640,238.370,-61.2,0.400,-0.400,181.080,1000.0
2025-09-16T15:49:14.948698,-5.300,4.690,239.310,-61.2,0.400,-0.400,181.080,1000.0
2025-09-16T15:49:14.963988,-6.770,4.720,240.340,-61.2,0.400,-0.400,181.080,1000.0
2025-09-16T15:49:14.978989,-8.410,4.680,241.520,-61.2,0.400,-0.400,181.080,1000.0
2025-09-16T15:49:15.023999,-10.140,4.470,242.870,-61.2,0.400,-0.400,181.080,1000.0
2025-09-16T15:49:15.024999,-11.880,4.090,244.410,-61.2,0.400,-0.400,181.080,1000.0
2025-09-16T15:49:15.054133,-13.500,3.610,245.990,-61.2,0.400,-0.400,181.080,1000.0
2025-09-16T15:49:15.055134,-15.050,3.080,247.690,-61.2,0.400,-0.400,181.080,1000.0
2025-09-16T15:49:15.084132,-16.400,2.520,249.410,-61.2,0.400,-0.400,181.080,1000.0
2025-09-16T15:49:15.086132,-17.440,1.960,251.040,-61.2,0.400,-0.400,181.080,1000.0
2025-09-16T15:49:15.114788,-18.060,1.380,252.420,-61.2,0.400,-0.400,181.080,1000.0
2025-09-16T15:49:15.144953,-18.220,0.890,253.390,-61.2,0.400,-0.400,181.080,1000.0
2025-09-16T15:49:15.146953,-17.910,0.630,253.840,-61.2,0.400,-0.400,181.080,1000.0
2025-09-16T15:49:15.188957,-17.110,0.560,253.760,-61.2,0.400,-0.400,181.080,1000.0
2025-09-16T15:49:15.191957,-15.920,0.720,253.140,-61.2,0.400,-0.400,181.080,1000.0
2025-09-16T15:49:15.219951,-14.380,1.140,251.990,-61.2,0.400,-0.400,181.080,1000.0
2025-09-16T15:49:15.249962,-12.580,1.750,250.380,-61.2,0.400,-0.400,181.080,1000.0
2025-09-16T15:49:15.250950,-10.580,2.480,248.390,-61.2,0.400,-0.400,181.080,1000.0
2025-09-16T15:49:15.279952,-8.430,3.320,246.090,-61.2,0.400,-0.400,181.080,1000.0
2025-09-16T15:49:15.280951,-6.250,4.180,243.640,-61.2,0.400,-0.400,181.080,1000.0
2025-09-16T15:49:15.309489,-4.020,4.900,241.120,-61.2,0.400,-0.400,181.080,1000.0
2025-09-16T15:49:15.354546,-1.910,5.560,238.550,-61.2,0.400,-0.400,181.080,1000.0
2025-09-16T15:49:15.356580,0.020,6.070,236.040,-61.2,0.400,-0.400,181.080,1000.0
2025-09-16T15:49:15.385556,1.680,6.440,233.760,-61.2,0.400,-0.400,181.080,1000.0
2025-09-16T15:49:15.386557,3.200,6.680,231.820,-61.2,0.400,-0.400,181.080,1000.0
2025-09-16T15:49:15.430493,4.440,6.770,230.590,-61.2,0.400,-0.400,181.080,1000.0
2025-09-16T15:49:15.460335,5.600,6.640,229.810,-61.2,0.400,-0.400,181.080,1000.0
2025-09-16T15:49:15.462335,6.230,6.550,229.380,-61.2,0.400,-0.400,181.080,1000.0
2025-09-16T15:49:15.490505,6.520,6.450,229.220,-61.2,0.400,-0.400,181.080,1000.0
2025-09-16T15:49:15.491504,6.540,6.390,229.420,-61.2,0.400,-0.400,181.080,1000.0
2025-09-16T15:49:15.520650,6.290,6.370,229.980,-61.2,0.400,-0.400,181.080,1000.0
2025-09-16T15:49:15.550663,5.750,6.410,230.860,-61.2,0.400,-0.400,181.080,1000.0
2025-09-16T15:49:15.552661,4.990,6.440,231.960,-61.2,0.400,-0.400,181.080,1000.0
2025-09-16T15:49:15.580929,4.110,6.410,233.150,-61.2,0.400,-0.400,181.080,1000.0
2025-09-16T15:49:15.582929,3.130,6.290,234.360,-61.2,0.400,-0.400,181.080,1000.0
2025-09-16T15:49:15.610877,2.200,6.070,235.490,-61.2,0.400,-0.400,181.080,1000.0
2025-09-16T15:49:15.641286,1.250,5.770,236.590,-61.2,0.400,-0.400,181.080,1000.0
2025-09-16T15:49:15.671109,0.340,5.430,237.620,-61.2,0.400,-0.400,181.080,1000.0
2025-09-16T15:49:15.701251,-0.520,5.140,238.540,-61.2,0.400,-0.400,181.080,1000.0
2025-09-16T15:49:15.702242,-1.290,4.890,239.350,-61.2,0.400,-0.400,181.080,1000.0
2025-09-16T15:49:15.732063,-1.960,4.700,240.040,-61.2,0.400,-0.400,181.080,1000.0
2025-09-16T15:49:15.763065,-2.460,4.510,240.580,-61.2,0.400,-0.400,181.080,1000.0
2025-09-16T15:49:15.765062,-2.780,4.300,240.930,-61.2,0.400,-0.400,181.080,1000.0
2025-09-16T15:49:15.792065,-2.910,4.090,241.070,-61.2,0.400,-0.400,181.080,1000.0
2025-09-16T15:49:15.793062,-2.880,3.940,241.020,-61.2,0.400,-0.400,181.080,1000.0
2025-09-16T15:49:15.822062,-2.720,3.870,240.830,-61.2,0.400,-0.400,181.080,1000.0
2025-09-16T15:49:15.852062,-2.460,3.860,240.500,-61.2,0.400,-0.400,181.080,1000.0
2025-09-16T15:49:15.853060,-2.130,3.920,240.050,-61.2,0.400,-0.400,181.080,1000.0
2025-09-16T15:49:15.882514,-1.740,4.020,239.510,-61.2,0.400,-0.400,181.080,1000.0
2025-09-16T15:49:15.883514,-1.330,4.130,238.940,-61.2,0.400,-0.400,181.080,1000.0
2025-09-16T15:49:15.912908,-0.920,4.240,238.370,-61.2,0.400,-0.400,181.080,1000.0
2025-09-16T15:49:15.958499,-0.520,4.330,237.820,-61.2,0.400,-0.400,181.080,1000.0
2025-09-16T15:49:15.959500,-0.130,4.400,237.350,-61.2,0.400,-0.400,181.080,1000.0
2025-09-16T15:49:15.989523,0.200,4.440,236.970,-61.2,0.400,-0.400,181.080,1000.0
2025-09-16T15:49:15.991517,0.460,4.470,236.690,-61.2,0.400,-0.400,181.080,1000.0
2025-09-16T15:49:16.019514,0.640,4.490,236.510,-61.2,0.400,-0.400,181.080,1000.0
2025-09-16T15:49:16.033788,0.730,4.490,236.420,-61.2,0.400,-0.400,181.080,1000.0
2025-09-16T15:49:16.065200,0.700,4.460,236.440,-61.2,0.400,-0.400,181.080,1000.0
2025-09-16T15:49:16.095326,0.600,4.430,236.560,-61.2,0.400,-0.400,181.080,1000.0
2025-09-16T15:49:16.097327,0.480,4.350,236.740,-61.2,0.400,-0.400,181.080,1000.0
2025-09-16T15:49:16.125785,0.320,4.270,236.970,-61.2,0.400,-0.400,181.080,1000.0
2025-09-16T15:49:16.126785,0.180,4.160,237.220,-61.2,0.400,-0.400,181.080,1000.0
2025-09-16T15:49:16.155787,0.090,4.000,237.460,-61.2,0.400,-0.400,181.080,1000.0
2025-09-16T15:49:16.186013,0.050,3.840,237.680,-61.2,0.400,-0.400,181.080,1000.0
2025-09-16T15:49:16.188087,0.070,3.660,237.870,-61.2,0.400,-0.400,181.080,1000.0
2025-09-16T15:49:16.231741,0.100,3.490,238.000,-61.2,0.400,-0.400,181.080,1000.0
2025-09-16T15:49:16.232739,0.160,3.360,238.080,-61.2,0.400,-0.400,181.080,1000.0
2025-09-16T15:49:16.261523,0.200,3.260,238.120,-61.2,0.400,-0.400,181.080,1000.0
2025-09-16T15:49:16.292254,0.210,3.200,238.130,-61.2,0.400,-0.400,181.080,1000.0
2025-09-16T15:49:16.295254,0.230,3.160,238.100,-61.2,0.400,-0.400,181.080,1000.0
2025-09-16T15:49:16.322597,0.230,3.150,238.040,-61.2,0.400,-0.400,181.080,1000.0
2025-09-16T15:49:16.323602,0.250,3.110,237.990,-61.2,0.400,-0.400,181.080,1000.0
2025-09-16T15:49:16.352143,0.290,3.040,237.930,-61.2,0.400,-0.400,181.080,1000.0
2025-09-16T15:49:16.397258,0.330,2.940,237.860,-61.2,0.400,-0.400,181.080,1000.0
2025-09-16T15:49:16.400256,0.390,2.840,237.780,-61.2,0.400,-0.400,181.080,1000.0
2025-09-16T15:49:16.426975,0.470,2.750,237.720,-61.2,0.400,-0.400,181.080,1000.0
2025-09-16T15:49:16.428978,0.810,2.540,237.670,-61.2,0.400,-0.400,181.080,1000.0
2025-09-16T15:49:16.457596,1.450,2.180,237.590,-61.2,0.400,-0.400,181.080,1000.0
2025-09-16T15:49:16.503276,1.460,2.090,237.530,-61.2,0.400,-0.400,181.080,1000.0
2025-09-16T15:49:16.505275,1.400,2.010,237.510,-61.2,0.400,-0.400,181.080,1000.0
2025-09-16T15:49:16.532035,1.330,1.930,237.520,-61.2,0.400,-0.400,181.080,1000.0
2025-09-16T15:49:16.534035,1.280,1.840,237.550,-61.2,0.400,-0.400,181.080,1000.0
2025-09-16T15:49:16.563761,1.240,1.750,237.610,-61.2,0.400,-0.400,181.080,1000.0
2025-09-16T15:49:16.594318,1.190,1.670,237.690,-61.2,0.400,-0.400,181.080,1000.0
2025-09-16T15:49:16.597310,1.150,1.580,237.760,-61.2,0.400,-0.400,181.080,1000.0
2025-09-16T15:49:16.623895,1.130,1.480,237.840,-61.2,0.400,-0.400,181.080,1000.0
2025-09-16T15:49:16.624896,1.110,1.390,237.890,-61.2,0.400,-0.400,181.080,1000.0
2025-09-16T15:49:16.655465,1.090,1.330,237.930,-61.2,0.400,-0.400,181.080,1000.0
2025-09-16T15:49:16.700655,1.110,1.310,237.970,-61.2,0.400,-0.400,181.080,1000.0
2025-09-16T15:49:16.701654,1.130,1.310,238.000,-61.2,0.400,-0.400,181.080,1000.0
2025-09-16T15:49:16.730669,1.180,1.340,238.010,-61.2,0.400,-0.400,181.080,1000.0
2025-09-16T15:49:16.732667,1.230,1.370,238.020,-61.2,0.400,-0.400,181.080,1000.0
2025-09-16T15:49:16.775719,1.280,1.400,238.000,-61.2,0.400,-0.400,181.080,1000.0
2025-09-16T15:49:16.778718,1.330,1.410,237.980,-61.2,0.400,-0.400,181.080,1000.0
2025-09-16T15:49:16.805720,1.390,1.430,237.930,-61.2,0.400,-0.400,181.080,1000.0
2025-09-16T15:49:16.835719,1.430,1.450,237.900,-61.3,0.400,-0.400,181.080,1000.0
2025-09-16T15:49:16.836717,1.460,1.490,237.850,-61.3,0.400,-0.400,181.080,1000.0
2025-09-16T15:49:16.865720,1.460,1.550,237.800,-61.3,0.400,-0.400,181.080,1000.0
2025-09-16T15:49:16.895718,1.440,1.620,237.740,-61.3,0.400,-0.400,181.080,1000.0
2025-09-16T15:49:16.897719,1.420,1.650,237.670,-61.3,0.400,-0.400,181.080,1000.0
2025-09-16T15:49:16.925187,1.410,1.650,237.610,-61.3,0.400,-0.400,181.080,1000.0
2025-09-16T15:49:16.927182,1.430,1.640,237.570,-61.3,0.400,-0.400,181.080,1000.0
2025-09-16T15:49:16.955297,1.480,1.600,237.560,-61.3,0.400,-0.400,181.080,1000.0
2025-09-16T15:49:16.958307,1.540,1.570,237.570,-61.3,0.400,-0.400,181.080,1000.0
2025-09-16T15:49:16.986104,1.620,1.540,237.600,-61.3,0.400,-0.400,181.080,1000.0
2025-09-16T15:49:17.031393,1.700,1.480,237.660,-61.3,0.400,-0.400,181.080,1000.0
2025-09-16T15:49:17.033389,1.780,1.420,237.750,-61.3,0.400,-0.400,181.080,1000.0
2025-09-16T15:49:17.061178,1.840,1.350,237.840,-61.3,0.400,-0.400,181.080,1000.0
2025-09-16T15:49:17.077597,1.890,1.260,237.920,-61.3,0.400,-0.400,181.080,1000.0
2025-09-16T15:49:17.105633,1.960,1.180,238.010,-61.3,0.400,-0.400,181.080,1000.0
2025-09-16T15:49:17.137319,2.010,1.090,238.090,-61.3,0.400,-0.400,181.080,1000.0
2025-09-16T15:49:17.138320,2.040,1.020,238.140,-61.3,0.400,-0.400,181.080,1000.0
2025-09-16T15:49:17.167319,2.050,0.980,238.170,-61.3,0.400,-0.400,181.080,1000.0
2025-09-16T15:49:17.170318,2.050,0.960,238.180,-61.2,0.400,-0.400,181.080,1000.0
2025-09-16T15:49:17.197320,2.040,0.950,238.180,-61.2,0.400,-0.400,181.080,1000.0
2025-09-16T15:49:17.227323,2.050,0.960,238.170,-61.2,0.400,-0.400,181.080,1000.0
2025-09-16T15:49:17.229319,2.070,0.980,238.120,-61.2,0.400,-0.400,181.080,1000.0
2025-09-16T15:49:17.257695,2.100,0.990,238.090,-61.2,0.400,-0.400,181.080,1000.0
2025-09-16T15:49:17.259739,2.150,0.990,238.060,-61.2,0.400,-0.400,181.080,1000.0
2025-09-16T15:49:17.302689,2.180,1.000,238.050,-61.2,0.400,-0.400,181.080,1000.0
2025-09-16T15:49:17.334038,2.220,1.000,238.040,-61.2,0.400,-0.400,181.080,1000.0
2025-09-16T15:49:17.336024,2.250,1.000,238.060,-61.2,0.400,-0.400,181.080,1000.0
2025-09-16T15:49:17.364067,2.280,1.010,238.090,-61.2,0.400,-0.400,181.080,1000.0
2025-09-16T15:49:17.381812,2.300,1.030,238.120,-61.2,0.400,-0.400,181.080,1000.0
2025-09-16T15:49:17.393776,2.310,1.040,238.150,-61.2,0.400,-0.400,181.080,1000.0
2025-09-16T15:49:17.439034,2.320,1.030,238.180,-61.2,0.400,-0.400,181.080,1000.0
2025-09-16T15:49:17.441032,2.340,1.010,238.180,-61.2,0.400,-0.400,181.080,1000.0
2025-09-16T15:49:17.470176,2.340,0.970,238.180,-61.2,0.400,-0.400,181.080,1000.0
2025-09-16T15:49:17.473181,2.350,0.940,238.180,-61.2,0.400,-0.400,181.080,1000.0
2025-09-16T15:49:17.500376,2.370,0.900,238.160,-61.2,0.400,-0.400,181.080,1000.0
2025-09-16T15:49:17.530724,2.390,0.880,238.160,-61.2,0.400,-0.400,181.080,1000.0
2025-09-16T15:49:17.532723,2.420,0.860,238.160,-61.2,0.400,-0.400,181.080,1000.0
2025-09-16T15:49:17.561946,2.440,0.840,238.150,-61.2,0.400,-0.400,181.080,1000.0
2025-09-16T15:49:17.565948,2.450,0.840,238.150,-61.2,0.400,-0.400,181.080,1000.0
2025-09-16T15:49:17.607581,2.450,0.840,238.150,-61.2,0.400,-0.400,181.080,1000.0
2025-09-16T15:49:17.638322,2.460,0.820,238.160,-61.2,0.400,-0.400,181.080,1000.0
2025-09-16T15:49:17.639321,2.460,0.800,238.160,-61.2,0.400,-0.400,181.080,1000.0
2025-09-16T15:49:17.668161,2.490,0.770,238.160,-61.2,0.400,-0.400,181.080,1000.0
2025-09-16T15:49:17.682958,2.510,0.730,238.160,-61.2,0.400,-0.400,181.080,1000.0
2025-09-16T15:49:17.697960,2.540,0.710,238.190,-61.2,0.400,-0.400,181.080,1000.0
2025-09-16T15:49:17.713251,2.610,0.690,238.230,-61.2,0.400,-0.400,181.080,1000.0
2025-09-16T15:49:17.728462,2.680,0.710,238.280,-61.2,0.400,-0.400,181.080,1000.0
2025-09-16T15:49:17.774271,2.750,0.750,238.320,-61.2,0.400,-0.400,181.080,1000.0
2025-09-16T15:49:17.777272,2.810,0.750,238.360,-61.2,0.400,-0.400,181.080,1000.0
2025-09-16T15:49:17.804273,2.830,0.730,238.370,-61.2,0.400,-0.400,181.080,1000.0
2025-09-16T15:49:17.806276,2.840,0.670,238.350,-61.2,0.400,-0.400,181.080,1000.0
2025-09-16T15:49:17.834609,2.820,0.640,238.330,-61.2,0.400,-0.400,181.080,1000.0
2025-09-16T15:49:17.879873,2.800,0.630,238.310,-61.2,0.400,-0.400,181.080,1000.0
2025-09-16T15:49:17.884877,2.770,0.640,238.290,-61.2,0.400,-0.400,181.080,1000.0
2025-09-16T15:49:17.908928,2.760,0.650,238.260,-61.2,0.400,-0.400,181.080,1000.0
2025-09-16T15:49:17.910974,2.730,0.650,238.220,-61.2,0.400,-0.400,181.080,1000.0
2025-09-16T15:49:17.940471,2.710,0.630,238.170,-61.2,0.400,-0.400,181.080,1000.0
2025-09-16T15:49:17.971305,2.680,0.610,238.110,-61.2,0.400,-0.400,181.080,1000.0
