Timestamp,Roll_Angle,Pitch_Angle,Yaw_Angle,Altitude,Roll_Setpoint,Pitch_Setpoint,Yaw_Setpoint,Altitude_Setpoint
2025-09-08T14:00:27.040562,2.610,2.630,24.260,-53.7,0.400,-0.400,181.080,1000.0
2025-09-08T14:00:27.043568,2.600,2.620,24.260,-53.7,0.400,-0.400,181.080,1000.0
2025-09-08T14:00:27.070560,2.600,2.620,24.260,-53.7,0.400,-0.400,181.080,1000.0
2025-09-08T14:00:27.176879,2.600,2.630,24.260,-53.7,0.400,-0.400,181.080,1000.0
2025-09-08T14:00:27.178878,2.600,2.620,24.260,-53.7,0.400,-0.400,181.080,1000.0
2025-09-08T14:00:27.180880,2.600,2.620,24.260,-53.8,0.400,-0.400,181.080,1000.0
2025-09-08T14:00:27.182880,2.600,2.630,24.260,-53.8,0.400,-0.400,181.080,1000.0
2025-09-08T14:00:27.183881,2.600,2.630,24.260,-53.8,0.400,-0.400,181.080,1000.0
2025-09-08T14:00:27.297342,2.600,2.630,24.260,-53.8,0.400,-0.400,181.080,1000.0
2025-09-08T14:00:27.298655,2.600,2.620,24.260,-53.8,0.400,-0.400,181.080,1000.0
2025-09-08T14:00:27.299656,2.600,2.630,24.260,-53.8,0.400,-0.400,181.080,1000.0
2025-09-08T14:00:27.301657,2.600,2.620,24.260,-53.8,0.400,-0.400,181.080,1000.0
2025-09-08T14:00:27.302657,2.600,2.630,24.250,-53.8,0.400,-0.400,181.080,1000.0
2025-09-08T14:00:27.418691,2.600,2.640,24.250,-53.8,0.400,-0.400,181.080,1000.0
2025-09-08T14:00:27.421692,2.600,2.630,24.250,-53.8,0.400,-0.400,181.080,1000.0
2025-09-08T14:00:27.424697,2.590,2.620,24.250,-53.8,0.400,-0.400,181.080,1000.0
2025-09-08T14:00:27.425691,2.590,2.630,24.250,-53.8,0.400,-0.400,181.080,1000.0
2025-09-08T14:00:27.427691,2.590,2.630,24.250,-53.8,0.400,-0.400,181.080,1000.0
2025-09-08T14:00:27.540003,2.600,2.630,24.250,-53.8,0.400,-0.400,181.080,1000.0
2025-09-08T14:00:27.541999,2.600,2.620,24.250,-53.8,0.400,-0.400,181.080,1000.0
2025-09-08T14:00:27.544000,2.600,2.630,24.250,-53.8,0.400,-0.400,181.080,1000.0
2025-09-08T14:00:27.544999,2.600,2.620,24.240,-53.8,0.400,-0.400,181.080,1000.0
2025-09-08T14:00:27.547001,2.600,2.630,24.240,-53.9,0.400,-0.400,181.080,1000.0
2025-09-08T14:00:27.660455,2.600,2.630,24.240,-53.9,0.400,-0.400,181.080,1000.0
2025-09-08T14:00:27.662448,2.600,2.630,24.250,-53.9,0.400,-0.400,181.080,1000.0
2025-09-08T14:00:27.663449,2.600,2.630,24.240,-53.9,0.400,-0.400,181.080,1000.0
2025-09-08T14:00:27.665449,2.600,2.630,24.240,-53.9,0.400,-0.400,181.080,1000.0
2025-09-08T14:00:27.666450,2.600,2.630,24.240,-53.9,0.400,-0.400,181.080,1000.0
2025-09-08T14:00:27.781960,2.600,2.630,24.250,-53.9,0.400,-0.400,181.080,1000.0
2025-09-08T14:00:27.783959,2.610,2.630,24.250,-53.9,0.400,-0.400,181.080,1000.0
2025-09-08T14:00:27.784967,2.610,2.630,24.250,-53.9,0.400,-0.400,181.080,1000.0
2025-09-08T14:00:27.785961,2.610,2.640,24.250,-53.9,0.400,-0.400,181.080,1000.0
2025-09-08T14:00:27.787961,2.610,2.640,24.250,-53.9,0.400,-0.400,181.080,1000.0
2025-09-08T14:00:27.903289,2.610,2.640,24.250,-53.9,0.400,-0.400,181.080,1000.0
2025-09-08T14:00:27.904287,2.610,2.640,24.250,-53.9,0.400,-0.400,181.080,1000.0
2025-09-08T14:00:27.906288,2.610,2.640,24.250,-53.9,0.400,-0.400,181.080,1000.0
2025-09-08T14:00:27.907288,2.610,2.640,24.250,-53.9,0.400,-0.400,181.080,1000.0
2025-09-08T14:00:27.909289,2.600,2.640,24.250,-53.9,0.400,-0.400,181.080,1000.0
2025-09-08T14:00:28.024821,2.600,2.640,24.250,-53.9,0.400,-0.400,181.080,1000.0
2025-09-08T14:00:28.026815,2.600,2.640,24.250,-53.9,0.400,-0.400,181.080,1000.0
2025-09-08T14:00:28.028817,2.600,2.640,24.250,-53.9,0.400,-0.400,181.080,1000.0
2025-09-08T14:00:28.029815,2.600,2.640,24.250,-53.9,0.400,-0.400,181.080,1000.0
2025-09-08T14:00:28.030820,2.600,2.640,24.250,-53.9,0.400,-0.400,181.080,1000.0
2025-09-08T14:00:28.146838,2.600,2.640,24.250,-53.9,0.400,-0.400,181.080,1000.0
2025-09-08T14:00:28.148839,2.600,2.640,24.250,-53.9,0.400,-0.400,181.080,1000.0
2025-09-08T14:00:28.151844,2.600,2.640,24.250,-53.9,0.400,-0.400,181.080,1000.0
2025-09-08T14:00:28.152840,2.590,2.640,24.250,-53.9,0.400,-0.400,181.080,1000.0
2025-09-08T14:00:28.154838,2.560,2.670,24.250,-53.9,0.400,-0.400,181.080,1000.0
2025-09-08T14:00:28.266662,2.540,2.680,24.250,-53.9,0.400,-0.400,181.080,1000.0
2025-09-08T14:00:28.268659,2.530,2.690,24.250,-53.9,0.400,-0.400,181.080,1000.0
2025-09-08T14:00:28.269659,2.520,2.690,24.250,-53.9,0.400,-0.400,181.080,1000.0
2025-09-08T14:00:28.271661,2.510,2.690,24.250,-53.9,0.400,-0.400,181.080,1000.0
2025-09-08T14:00:28.272659,2.480,2.710,24.250,-53.9,0.400,-0.400,181.080,1000.0
2025-09-08T14:00:28.386589,2.440,2.750,24.260,-53.9,0.400,-0.400,181.080,1000.0
2025-09-08T14:00:28.388588,2.380,2.800,24.260,-53.9,0.400,-0.400,181.080,1000.0
2025-09-08T14:00:28.389588,2.320,2.850,24.260,-53.9,0.400,-0.400,181.080,1000.0
2025-09-08T14:00:28.391590,2.290,2.880,24.260,-54.0,0.400,-0.400,181.080,1000.0
2025-09-08T14:00:28.392589,2.270,2.890,24.250,-54.0,0.400,-0.400,181.080,1000.0
2025-09-08T14:00:28.509137,2.240,2.900,24.260,-54.0,0.400,-0.400,181.080,1000.0
2025-09-08T14:00:28.510137,2.190,2.940,24.260,-54.0,0.400,-0.400,181.080,1000.0
2025-09-08T14:00:28.512140,2.100,3.030,24.260,-54.0,0.400,-0.400,181.080,1000.0
2025-09-08T14:00:28.514140,2.010,3.090,24.260,-54.0,0.400,-0.400,181.080,1000.0
2025-09-08T14:00:28.516138,1.940,3.160,24.260,-54.0,0.400,-0.400,181.080,1000.0
2025-09-08T14:00:28.628222,1.870,3.210,24.260,-54.0,0.400,-0.400,181.080,1000.0
2025-09-08T14:00:28.629210,1.780,3.290,24.250,-54.0,0.400,-0.400,181.080,1000.0
2025-09-08T14:00:28.631213,1.650,3.410,24.250,-54.0,0.400,-0.400,181.080,1000.0
2025-09-08T14:00:28.633212,1.500,3.550,24.240,-54.1,0.400,-0.400,181.080,1000.0
2025-09-08T14:00:28.634211,1.370,3.680,24.240,-54.1,0.400,-0.400,181.080,1000.0
2025-09-08T14:00:28.747888,1.340,3.690,24.280,-54.1,0.400,-0.400,181.080,1000.0
2025-09-08T14:00:28.749888,1.360,3.660,24.280,-54.1,0.400,-0.400,181.080,1000.0
2025-09-08T14:00:28.750887,1.430,3.590,24.290,-54.1,0.400,-0.400,181.080,1000.0
2025-09-08T14:00:28.752888,1.450,3.560,24.290,-54.2,0.400,-0.400,181.080,1000.0
2025-09-08T14:00:28.753888,1.410,3.590,24.290,-54.2,0.400,-0.400,181.080,1000.0
2025-09-08T14:00:28.868507,1.360,3.640,24.290,-54.2,0.400,-0.400,181.080,1000.0
2025-09-08T14:00:28.870499,1.320,3.670,24.290,-54.2,0.400,-0.400,181.080,1000.0
2025-09-08T14:00:28.871498,1.330,3.660,24.280,-54.3,0.400,-0.400,181.080,1000.0
2025-09-08T14:00:28.873498,1.350,3.640,24.290,-54.3,0.400,-0.400,181.080,1000.0
2025-09-08T14:00:28.874496,1.360,3.620,24.290,-54.3,0.400,-0.400,181.080,1000.0
2025-09-08T14:00:28.990855,1.350,3.640,24.290,-54.3,0.400,-0.400,181.080,1000.0
2025-09-08T14:00:28.992854,1.340,3.660,24.290,-54.4,0.400,-0.400,181.080,1000.0
2025-09-08T14:00:28.993854,1.340,3.690,24.290,-54.4,0.400,-0.400,181.080,1000.0
2025-09-08T14:00:28.994856,1.360,3.680,24.290,-54.4,0.400,-0.400,181.080,1000.0
2025-09-08T14:00:28.996854,1.380,3.670,24.290,-54.4,0.400,-0.400,181.080,1000.0
2025-09-08T14:00:29.111611,1.410,3.660,24.290,-54.3,0.400,-0.400,181.080,1000.0
2025-09-08T14:00:29.113610,1.420,3.680,24.300,-54.3,0.400,-0.400,181.080,1000.0
2025-09-08T14:00:29.115612,1.410,3.690,24.290,-54.3,0.400,-0.400,181.080,1000.0
2025-09-08T14:00:29.117614,1.410,3.700,24.300,-54.3,0.400,-0.400,181.080,1000.0
2025-09-08T14:00:29.118611,1.430,3.700,24.300,-54.3,0.400,-0.400,181.080,1000.0
2025-09-08T14:00:29.234085,1.450,3.690,24.290,-54.3,0.400,-0.400,181.080,1000.0
2025-09-08T14:00:29.236093,1.460,3.700,24.290,-54.3,0.400,-0.400,181.080,1000.0
2025-09-08T14:00:29.238090,1.450,3.700,24.290,-54.2,0.400,-0.400,181.080,1000.0
2025-09-08T14:00:29.239091,1.460,3.720,24.290,-54.2,0.400,-0.400,181.080,1000.0
2025-09-08T14:00:29.240090,1.460,3.720,24.290,-54.2,0.400,-0.400,181.080,1000.0
2025-09-08T14:00:29.357809,1.480,3.710,24.290,-54.2,0.400,-0.400,181.080,1000.0
2025-09-08T14:00:29.358809,1.480,3.720,24.290,-54.2,0.400,-0.400,181.080,1000.0
2025-09-08T14:00:29.360810,1.480,3.730,24.280,-54.1,0.400,-0.400,181.080,1000.0
2025-09-08T14:00:29.361810,1.480,3.740,24.280,-54.1,0.400,-0.400,181.080,1000.0
2025-09-08T14:00:29.362809,1.490,3.740,24.280,-54.1,0.400,-0.400,181.080,1000.0
2025-09-08T14:00:29.478995,1.500,3.740,24.290,-54.1,0.400,-0.400,181.080,1000.0
2025-09-08T14:00:29.480996,1.500,3.740,24.290,-54.1,0.400,-0.400,181.080,1000.0
2025-09-08T14:00:29.482996,1.500,3.740,24.290,-54.1,0.400,-0.400,181.080,1000.0
2025-09-08T14:00:29.485006,1.490,3.750,24.290,-54.1,0.400,-0.400,181.080,1000.0
2025-09-08T14:00:29.485995,1.500,3.750,24.290,-54.1,0.400,-0.400,181.080,1000.0
2025-09-08T14:00:29.600021,1.500,3.750,24.290,-54.1,0.400,-0.400,181.080,1000.0
2025-09-08T14:00:29.602027,1.510,3.750,24.290,-54.1,0.400,-0.400,181.080,1000.0
2025-09-08T14:00:29.604038,1.510,3.760,24.290,-54.0,0.400,-0.400,181.080,1000.0
2025-09-08T14:00:29.605027,1.510,3.760,24.290,-54.0,0.400,-0.400,181.080,1000.0
2025-09-08T14:00:29.607027,1.510,3.760,24.290,-54.0,0.400,-0.400,181.080,1000.0
2025-09-08T14:00:29.720603,1.510,3.770,24.290,-54.0,0.400,-0.400,181.080,1000.0
2025-09-08T14:00:29.722603,1.520,3.770,24.290,-54.0,0.400,-0.400,181.080,1000.0
2025-09-08T14:00:29.724605,1.530,3.760,24.290,-54.0,0.400,-0.400,181.080,1000.0
2025-09-08T14:00:29.727605,1.520,3.770,24.290,-54.0,0.400,-0.400,181.080,1000.0
2025-09-08T14:00:29.729605,1.520,3.770,24.290,-54.0,0.400,-0.400,181.080,1000.0
2025-09-08T14:00:29.841394,1.520,3.770,24.290,-54.0,0.400,-0.400,181.080,1000.0
2025-09-08T14:00:29.842395,1.520,3.770,24.290,-54.0,0.400,-0.400,181.080,1000.0
2025-09-08T14:00:29.844393,1.530,3.760,24.290,-54.0,0.400,-0.400,181.080,1000.0
2025-09-08T14:00:29.845395,1.530,3.770,24.290,-53.9,0.400,-0.400,181.080,1000.0
2025-09-08T14:00:29.846394,1.530,3.760,24.290,-53.9,0.400,-0.400,181.080,1000.0
2025-09-08T14:00:29.963661,1.530,3.770,24.290,-53.9,0.400,-0.400,181.080,1000.0
2025-09-08T14:00:29.966665,1.530,3.770,24.290,-53.9,0.400,-0.400,181.080,1000.0
2025-09-08T14:00:29.968664,1.530,3.770,24.290,-53.9,0.400,-0.400,181.080,1000.0
2025-09-08T14:00:29.970667,1.530,3.770,24.290,-53.9,0.400,-0.400,181.080,1000.0
2025-09-08T14:00:29.972662,1.540,3.780,24.300,-53.9,0.400,-0.400,181.080,1000.0
2025-09-08T14:00:30.084439,1.530,3.780,24.300,-53.9,0.400,-0.400,181.080,1000.0
2025-09-08T14:00:30.086439,1.540,3.780,24.300,-53.9,0.400,-0.400,181.080,1000.0
2025-09-08T14:00:30.088438,1.540,3.780,24.300,-53.9,0.400,-0.400,181.080,1000.0
2025-09-08T14:00:30.089438,1.540,3.780,24.290,-53.9,0.400,-0.400,181.080,1000.0
2025-09-08T14:00:30.090438,1.540,3.780,24.290,-53.9,0.400,-0.400,181.080,1000.0
2025-09-08T14:00:30.205480,1.530,3.790,24.290,-53.9,0.400,-0.400,181.080,1000.0
2025-09-08T14:00:30.207481,1.530,3.790,24.290,-53.9,0.400,-0.400,181.080,1000.0
2025-09-08T14:00:30.209487,1.540,3.790,24.280,-53.9,0.400,-0.400,181.080,1000.0
2025-09-08T14:00:30.210480,1.540,3.790,24.280,-53.9,0.400,-0.400,181.080,1000.0
2025-09-08T14:00:30.212481,1.540,3.790,24.280,-53.9,0.400,-0.400,181.080,1000.0
2025-09-08T14:00:30.326669,1.540,3.790,24.280,-53.9,0.400,-0.400,181.080,1000.0
2025-09-08T14:00:30.328666,1.530,3.790,24.290,-53.9,0.400,-0.400,181.080,1000.0
2025-09-08T14:00:30.330667,1.540,3.780,24.280,-53.9,0.400,-0.400,181.080,1000.0
2025-09-08T14:00:30.333667,1.540,3.790,24.280,-53.9,0.400,-0.400,181.080,1000.0
2025-09-08T14:00:30.335668,1.540,3.780,24.290,-53.9,0.400,-0.400,181.080,1000.0
2025-09-08T14:00:30.446978,1.540,3.780,24.290,-53.9,0.400,-0.400,181.080,1000.0
2025-09-08T14:00:30.448978,1.540,3.780,24.280,-53.9,0.400,-0.400,181.080,1000.0
2025-09-08T14:00:30.450978,1.540,3.780,24.290,-53.9,0.400,-0.400,181.080,1000.0
2025-09-08T14:00:30.451977,1.540,3.780,24.280,-53.9,0.400,-0.400,181.080,1000.0
2025-09-08T14:00:30.453977,1.540,3.780,24.290,-53.8,0.400,-0.400,181.080,1000.0
2025-09-08T14:00:30.568962,1.540,3.780,24.290,-53.8,0.400,-0.400,181.080,1000.0
2025-09-08T14:00:30.570968,1.540,3.780,24.290,-53.8,0.400,-0.400,181.080,1000.0
2025-09-08T14:00:30.571967,1.540,3.780,24.290,-53.8,0.400,-0.400,181.080,1000.0
2025-09-08T14:00:30.573966,1.540,3.780,24.290,-53.8,0.400,-0.400,181.080,1000.0
2025-09-08T14:00:30.574967,1.540,3.790,24.290,-53.8,0.400,-0.400,181.080,1000.0
2025-09-08T14:00:30.691056,1.540,3.790,24.290,-53.8,0.400,-0.400,181.080,1000.0
2025-09-08T14:00:30.693056,1.540,3.790,24.280,-53.8,0.400,-0.400,181.080,1000.0
2025-09-08T14:00:30.695057,1.550,3.790,24.280,-53.8,0.400,-0.400,181.080,1000.0
2025-09-08T14:00:30.696058,1.550,3.790,24.280,-53.8,0.400,-0.400,181.080,1000.0
2025-09-08T14:00:30.698061,1.550,3.800,24.280,-53.8,0.400,-0.400,181.080,1000.0
2025-09-08T14:00:30.812770,1.550,3.800,24.280,-53.8,0.400,-0.400,181.080,1000.0
2025-09-08T14:00:30.815770,1.550,3.800,24.280,-53.8,0.400,-0.400,181.080,1000.0
2025-09-08T14:00:30.816768,1.560,3.800,24.280,-53.8,0.400,-0.400,181.080,1000.0
2025-09-08T14:00:30.818769,1.560,3.800,24.280,-53.8,0.400,-0.400,181.080,1000.0
2025-09-08T14:00:30.819768,1.560,3.800,24.270,-53.8,0.400,-0.400,181.080,1000.0
2025-09-08T14:00:30.933251,1.560,3.800,24.280,-53.8,0.400,-0.400,181.080,1000.0
2025-09-08T14:00:30.935252,1.560,3.800,24.270,-53.8,0.400,-0.400,181.080,1000.0
2025-09-08T14:00:30.937254,1.550,3.800,24.270,-53.8,0.400,-0.400,181.080,1000.0
2025-09-08T14:00:30.938253,1.550,3.800,24.270,-53.8,0.400,-0.400,181.080,1000.0
2025-09-08T14:00:30.939263,1.550,3.800,24.270,-53.8,0.400,-0.400,181.080,1000.0
2025-09-08T14:00:31.054355,1.550,3.800,24.270,-53.8,0.400,-0.400,181.080,1000.0
2025-09-08T14:00:31.055362,1.550,3.800,24.270,-53.8,0.400,-0.400,181.080,1000.0
2025-09-08T14:00:31.057357,1.550,3.790,24.270,-53.8,0.400,-0.400,181.080,1000.0
2025-09-08T14:00:31.058357,1.540,3.790,24.270,-53.8,0.400,-0.400,181.080,1000.0
2025-09-08T14:00:31.059356,1.540,3.790,24.270,-53.8,0.400,-0.400,181.080,1000.0
2025-09-08T14:00:31.174542,1.540,3.790,24.280,-53.8,0.400,-0.400,181.080,1000.0
2025-09-08T14:00:31.176548,1.540,3.790,24.280,-53.8,0.400,-0.400,181.080,1000.0
2025-09-08T14:00:31.177548,1.540,3.790,24.280,-53.8,0.400,-0.400,181.080,1000.0
2025-09-08T14:00:31.179551,1.540,3.790,24.280,-53.8,0.400,-0.400,181.080,1000.0
2025-09-08T14:00:31.180549,1.540,3.790,24.280,-53.8,0.400,-0.400,181.080,1000.0
2025-09-08T14:00:31.296738,1.540,3.790,24.280,-53.8,0.400,-0.400,181.080,1000.0
2025-09-08T14:00:31.298738,1.540,3.780,24.270,-53.8,0.400,-0.400,181.080,1000.0
2025-09-08T14:00:31.299738,1.540,3.790,24.270,-53.8,0.400,-0.400,181.080,1000.0
2025-09-08T14:00:31.301737,1.540,3.790,24.270,-53.8,0.400,-0.400,181.080,1000.0
2025-09-08T14:00:31.302739,1.540,3.790,24.280,-53.8,0.400,-0.400,181.080,1000.0
2025-09-08T14:00:31.419001,1.540,3.790,24.280,-53.8,0.400,-0.400,181.080,1000.0
2025-09-08T14:00:31.422008,1.530,3.800,24.270,-53.8,0.400,-0.400,181.080,1000.0
2025-09-08T14:00:31.424009,1.530,3.800,24.280,-53.8,0.400,-0.400,181.080,1000.0
2025-09-08T14:00:31.425007,1.530,3.800,24.280,-53.8,0.400,-0.400,181.080,1000.0
2025-09-08T14:00:31.427009,1.530,3.800,24.270,-53.8,0.400,-0.400,181.080,1000.0
2025-09-08T14:00:31.540575,1.530,3.800,24.270,-53.8,0.400,-0.400,181.080,1000.0
2025-09-08T14:00:31.542574,1.530,3.800,24.270,-53.8,0.400,-0.400,181.080,1000.0
2025-09-08T14:00:31.543577,1.530,3.800,24.280,-53.8,0.400,-0.400,181.080,1000.0
2025-09-08T14:00:31.545577,1.530,3.800,24.280,-53.8,0.400,-0.400,181.080,1000.0
2025-09-08T14:00:31.547576,1.530,3.800,24.280,-53.8,0.400,-0.400,181.080,1000.0
2025-09-08T14:00:31.662270,1.530,3.800,24.280,-53.8,0.400,-0.400,181.080,1000.0
2025-09-08T14:00:31.663276,1.530,3.800,24.280,-53.8,0.400,-0.400,181.080,1000.0
2025-09-08T14:00:31.665275,1.530,3.800,24.280,-53.8,0.400,-0.400,181.080,1000.0
2025-09-08T14:00:31.666277,1.530,3.800,24.280,-53.8,0.400,-0.400,181.080,1000.0
2025-09-08T14:00:31.668276,1.530,3.810,24.280,-53.8,0.400,-0.400,181.080,1000.0
2025-09-08T14:00:31.782772,1.530,3.810,24.280,-53.8,0.400,-0.400,181.080,1000.0
2025-09-08T14:00:31.784772,1.530,3.810,24.280,-53.8,0.400,-0.400,181.080,1000.0
2025-09-08T14:00:31.786772,1.530,3.810,24.280,-53.8,0.400,-0.400,181.080,1000.0
2025-09-08T14:00:31.787773,1.530,3.810,24.280,-53.8,0.400,-0.400,181.080,1000.0
2025-09-08T14:00:31.789772,1.530,3.810,24.280,-53.8,0.400,-0.400,181.080,1000.0
2025-09-08T14:00:31.901772,1.530,3.810,24.280,-53.8,0.400,-0.400,181.080,1000.0
2025-09-08T14:00:31.903775,1.530,3.810,24.280,-53.8,0.400,-0.400,181.080,1000.0
2025-09-08T14:00:31.904773,1.530,3.810,24.280,-53.8,0.400,-0.400,181.080,1000.0
2025-09-08T14:00:31.906773,1.530,3.810,24.280,-53.8,0.400,-0.400,181.080,1000.0
2025-09-08T14:00:31.908773,1.530,3.810,24.280,-53.8,0.400,-0.400,181.080,1000.0
2025-09-08T14:00:32.021775,1.530,3.810,24.280,-53.8,0.400,-0.400,181.080,1000.0
2025-09-08T14:00:32.023774,1.530,3.810,24.280,-53.8,0.400,-0.400,181.080,1000.0
2025-09-08T14:00:32.025772,1.530,3.810,24.280,-53.8,0.400,-0.400,181.080,1000.0
2025-09-08T14:00:32.027775,1.540,3.810,24.280,-53.8,0.400,-0.400,181.080,1000.0
2025-09-08T14:00:32.029773,1.540,3.810,24.280,-53.8,0.400,-0.400,181.080,1000.0
2025-09-08T14:00:32.142416,1.540,3.810,24.280,-53.8,0.400,-0.400,181.080,1000.0
2025-09-08T14:00:32.144416,1.540,3.810,24.280,-53.8,0.400,-0.400,181.080,1000.0
2025-09-08T14:00:32.145417,1.540,3.810,24.280,-53.8,0.400,-0.400,181.080,1000.0
2025-09-08T14:00:32.146416,1.550,3.820,24.280,-53.8,0.400,-0.400,181.080,1000.0
2025-09-08T14:00:32.148416,1.550,3.820,24.280,-53.8,0.400,-0.400,181.080,1000.0
2025-09-08T14:00:32.262524,1.550,3.820,24.280,-53.8,0.400,-0.400,181.080,1000.0
2025-09-08T14:00:32.264522,1.560,3.820,24.280,-53.8,0.400,-0.400,181.080,1000.0
2025-09-08T14:00:32.265524,1.560,3.820,24.280,-53.8,0.400,-0.400,181.080,1000.0
2025-09-08T14:00:32.266525,1.560,3.820,24.280,-53.8,0.400,-0.400,181.080,1000.0
2025-09-08T14:00:32.268525,1.560,3.820,24.280,-53.8,0.400,-0.400,181.080,1000.0
2025-09-08T14:00:32.385947,1.560,3.820,24.280,-53.8,0.400,-0.400,181.080,1000.0
2025-09-08T14:00:32.386949,1.560,3.820,24.280,-53.8,0.400,-0.400,181.080,1000.0
2025-09-08T14:00:32.388950,1.560,3.820,24.280,-53.8,0.400,-0.400,181.080,1000.0
2025-09-08T14:00:32.389950,1.560,3.820,24.280,-53.8,0.400,-0.400,181.080,1000.0
2025-09-08T14:00:32.391951,1.560,3.820,24.280,-53.8,0.400,-0.400,181.080,1000.0
2025-09-08T14:00:32.506435,1.570,3.830,24.280,-53.8,0.400,-0.400,181.080,1000.0
2025-09-08T14:00:32.508433,1.570,3.830,24.280,-53.8,0.400,-0.400,181.080,1000.0
2025-09-08T14:00:32.509434,1.570,3.830,24.280,-53.8,0.400,-0.400,181.080,1000.0
2025-09-08T14:00:32.511435,1.570,3.830,24.280,-53.8,0.400,-0.400,181.080,1000.0
2025-09-08T14:00:32.512438,1.580,3.840,24.280,-53.8,0.400,-0.400,181.080,1000.0
2025-09-08T14:00:32.627929,1.580,3.840,24.280,-53.8,0.400,-0.400,181.080,1000.0
2025-09-08T14:00:32.629928,1.570,3.840,24.280,-53.8,0.400,-0.400,181.080,1000.0
2025-09-08T14:00:32.630927,1.570,3.840,24.280,-53.8,0.400,-0.400,181.080,1000.0
2025-09-08T14:00:32.632930,1.570,3.840,24.280,-53.8,0.400,-0.400,181.080,1000.0
2025-09-08T14:00:32.633930,1.570,3.840,24.280,-53.8,0.400,-0.400,181.080,1000.0
2025-09-08T14:00:32.747760,1.570,3.840,24.280,-53.8,0.400,-0.400,181.080,1000.0
2025-09-08T14:00:32.749766,1.570,3.850,24.280,-53.8,0.400,-0.400,181.080,1000.0
2025-09-08T14:00:32.751767,1.580,3.850,24.280,-53.8,0.400,-0.400,181.080,1000.0
2025-09-08T14:00:32.752765,1.580,3.850,24.280,-53.8,0.400,-0.400,181.080,1000.0
2025-09-08T14:00:32.753771,1.580,3.850,24.280,-53.8,0.400,-0.400,181.080,1000.0
2025-09-08T14:00:32.870810,1.580,3.850,24.280,-53.8,0.400,-0.400,181.080,1000.0
2025-09-08T14:00:32.872808,1.580,3.850,24.280,-53.8,0.400,-0.400,181.080,1000.0
2025-09-08T14:00:32.873808,1.580,3.850,24.280,-53.8,0.400,-0.400,181.080,1000.0
2025-09-08T14:00:32.874810,1.580,3.860,24.280,-53.8,0.400,-0.400,181.080,1000.0
2025-09-08T14:00:32.876810,1.580,3.860,24.280,-53.8,0.400,-0.400,181.080,1000.0
2025-09-08T14:00:32.991029,1.580,3.860,24.280,-53.8,0.400,-0.400,181.080,1000.0
2025-09-08T14:00:33.096919,1.580,3.860,24.280,-53.8,0.400,-0.400,181.080,1000.0
2025-09-08T14:00:33.204131,1.580,3.860,24.280,-53.8,0.400,-0.400,181.080,1000.0
2025-09-08T14:00:33.309129,1.550,3.850,24.300,-53.8,0.400,-0.400,181.080,1000.0
2025-09-08T14:00:33.429538,1.560,3.850,24.300,-53.8,0.400,-0.400,181.080,1000.0
2025-09-08T14:00:33.549669,1.570,3.830,24.300,-53.8,0.400,-0.400,181.080,1000.0
2025-09-08T14:00:33.656875,1.590,3.810,24.300,-53.8,0.400,-0.400,181.080,1000.0
2025-09-08T14:00:33.763883,1.580,3.800,24.300,-53.8,0.400,-0.400,181.080,1000.0
2025-09-08T14:00:33.871016,1.590,3.780,24.270,-53.8,0.400,-0.400,181.080,1000.0
2025-09-08T14:00:33.976765,1.590,3.770,24.270,-53.8,0.400,-0.400,181.080,1000.0
2025-09-08T14:00:34.113705,1.550,3.790,24.630,-53.8,0.400,-0.400,181.080,1000.0
2025-09-08T14:00:34.310641,1.430,3.810,25.720,-53.8,0.400,-0.400,181.080,1000.0
2025-09-08T14:00:34.507232,1.410,3.800,25.710,-53.8,0.400,-0.400,181.080,1000.0
2025-09-08T14:00:34.627222,1.370,3.820,25.720,-53.8,0.400,-0.400,181.080,1000.0
2025-09-08T14:00:34.633223,1.360,3.810,25.720,-53.8,0.400,-0.400,181.080,1000.0
2025-09-08T14:00:34.635221,1.360,3.810,25.720,-53.8,0.400,-0.400,181.080,1000.0
2025-09-08T14:00:34.747919,1.360,3.800,25.720,-53.8,0.400,-0.400,181.080,1000.0
2025-09-08T14:00:34.749380,1.360,3.800,25.720,-53.8,0.400,-0.400,181.080,1000.0
2025-09-08T14:00:34.751384,1.360,3.810,25.720,-53.8,0.400,-0.400,181.080,1000.0
2025-09-08T14:00:34.752380,1.350,3.820,25.720,-53.8,0.400,-0.400,181.080,1000.0
2025-09-08T14:00:34.754381,1.350,3.830,25.720,-53.8,0.400,-0.400,181.080,1000.0
2025-09-08T14:00:34.868654,1.350,3.840,25.720,-53.8,0.400,-0.400,181.080,1000.0
2025-09-08T14:00:34.869654,1.340,3.840,25.720,-53.8,0.400,-0.400,181.080,1000.0
2025-09-08T14:00:34.871654,1.340,3.840,25.720,-53.8,0.400,-0.400,181.080,1000.0
2025-09-08T14:00:34.872661,1.340,3.850,25.720,-53.8,0.400,-0.400,181.080,1000.0
2025-09-08T14:00:34.873654,1.340,3.850,25.720,-53.8,0.400,-0.400,181.080,1000.0
2025-09-08T14:00:34.988845,1.330,3.850,25.720,-53.8,0.400,-0.400,181.080,1000.0
2025-09-08T14:00:34.990844,1.330,3.850,25.710,-53.8,0.400,-0.400,181.080,1000.0
2025-09-08T14:00:34.992846,1.330,3.860,25.710,-53.8,0.400,-0.400,181.080,1000.0
2025-09-08T14:00:34.993847,1.330,3.860,25.710,-53.8,0.400,-0.400,181.080,1000.0
2025-09-08T14:00:34.994846,1.320,3.870,25.720,-53.8,0.400,-0.400,181.080,1000.0
2025-09-08T14:00:35.109894,1.320,3.870,25.710,-53.8,0.400,-0.400,181.080,1000.0
2025-09-08T14:00:35.112891,1.320,3.870,25.720,-53.8,0.400,-0.400,181.080,1000.0
2025-09-08T14:00:35.114892,1.310,3.880,25.710,-53.8,0.400,-0.400,181.080,1000.0
2025-09-08T14:00:35.116893,1.330,3.870,25.710,-53.8,0.400,-0.400,181.080,1000.0
2025-09-08T14:00:35.118894,1.320,3.880,25.710,-53.8,0.400,-0.400,181.080,1000.0
2025-09-08T14:00:35.231641,1.330,3.880,25.710,-53.8,0.400,-0.400,181.080,1000.0
2025-09-08T14:00:35.233639,1.330,3.880,25.720,-53.8,0.400,-0.400,181.080,1000.0
2025-09-08T14:00:35.234641,1.330,3.890,25.720,-53.8,0.400,-0.400,181.080,1000.0
2025-09-08T14:00:35.236640,1.330,3.890,25.720,-53.8,0.400,-0.400,181.080,1000.0
2025-09-08T14:00:35.237640,1.330,3.890,25.710,-53.8,0.400,-0.400,181.080,1000.0
2025-09-08T14:00:35.351669,1.330,3.890,25.710,-53.8,0.400,-0.400,181.080,1000.0
2025-09-08T14:00:35.353672,1.340,3.890,25.710,-53.8,0.400,-0.400,181.080,1000.0
2025-09-08T14:00:35.354671,1.350,3.900,25.710,-53.8,0.400,-0.400,181.080,1000.0
2025-09-08T14:00:35.356670,1.340,3.910,25.710,-53.8,0.400,-0.400,181.080,1000.0
2025-09-08T14:00:35.357678,1.340,3.910,25.710,-53.8,0.400,-0.400,181.080,1000.0
2025-09-08T14:00:35.474346,1.350,3.910,25.720,-53.8,0.400,-0.400,181.080,1000.0
2025-09-08T14:00:35.476346,1.350,3.920,25.720,-53.8,0.400,-0.400,181.080,1000.0
2025-09-08T14:00:35.477347,1.350,3.930,25.720,-53.8,0.400,-0.400,181.080,1000.0
2025-09-08T14:00:35.478345,1.350,3.940,25.720,-53.8,0.400,-0.400,181.080,1000.0
2025-09-08T14:00:35.480346,1.350,3.940,25.720,-53.8,0.400,-0.400,181.080,1000.0
2025-09-08T14:00:35.596743,1.350,3.950,25.720,-53.8,0.400,-0.400,181.080,1000.0
2025-09-08T14:00:35.597743,1.350,3.950,25.720,-53.8,0.400,-0.400,181.080,1000.0
2025-09-08T14:00:35.599743,1.340,3.960,25.720,-53.8,0.400,-0.400,181.080,1000.0
2025-09-08T14:00:35.600746,1.340,3.960,25.720,-53.8,0.400,-0.400,181.080,1000.0
2025-09-08T14:00:35.602745,1.340,3.970,25.720,-53.8,0.400,-0.400,181.080,1000.0
2025-09-08T14:00:35.716939,1.330,3.970,25.720,-53.8,0.400,-0.400,181.080,1000.0
2025-09-08T14:00:35.719936,1.330,3.970,25.720,-53.8,0.400,-0.400,181.080,1000.0
2025-09-08T14:00:35.721936,1.330,3.960,25.720,-53.8,0.400,-0.400,181.080,1000.0
2025-09-08T14:00:35.723936,1.330,3.970,25.720,-53.8,0.400,-0.400,181.080,1000.0
2025-09-08T14:00:35.724935,1.320,3.970,25.720,-53.8,0.400,-0.400,181.080,1000.0
2025-09-08T14:00:35.837393,1.320,3.970,25.720,-53.8,0.400,-0.400,181.080,1000.0
2025-09-08T14:00:35.839394,1.320,3.970,25.720,-53.8,0.400,-0.400,181.080,1000.0
2025-09-08T14:00:35.840395,1.320,3.980,25.720,-53.8,0.400,-0.400,181.080,1000.0
2025-09-08T14:00:35.842394,1.320,3.980,25.720,-53.8,0.400,-0.400,181.080,1000.0
2025-09-08T14:00:35.843394,1.320,3.980,25.720,-53.8,0.400,-0.400,181.080,1000.0
2025-09-08T14:00:35.958399,1.320,3.990,25.720,-53.8,0.400,-0.400,181.080,1000.0
2025-09-08T14:00:35.959403,1.310,3.980,25.720,-53.8,0.400,-0.400,181.080,1000.0
2025-09-08T14:00:35.960403,1.310,3.990,25.720,-53.8,0.400,-0.400,181.080,1000.0
2025-09-08T14:00:35.962403,1.300,3.980,25.720,-53.8,0.400,-0.400,181.080,1000.0
2025-09-08T14:00:35.963403,1.310,3.990,25.720,-53.8,0.400,-0.400,181.080,1000.0
2025-09-08T14:00:36.078496,1.300,3.980,25.720,-53.8,0.400,-0.400,181.080,1000.0
2025-09-08T14:00:36.080494,1.300,3.980,25.730,-53.8,0.400,-0.400,181.080,1000.0
2025-09-08T14:00:36.081493,1.310,3.990,25.720,-53.8,0.400,-0.400,181.080,1000.0
2025-09-08T14:00:36.083494,1.310,3.990,25.720,-53.8,0.400,-0.400,181.080,1000.0
2025-09-08T14:00:36.084496,1.310,3.980,25.720,-53.8,0.400,-0.400,181.080,1000.0
2025-09-08T14:00:36.199355,1.320,3.980,25.730,-53.8,0.400,-0.400,181.080,1000.0
2025-09-08T14:00:36.201369,1.320,3.980,25.730,-53.8,0.400,-0.400,181.080,1000.0
2025-09-08T14:00:36.202356,1.320,3.970,25.730,-53.8,0.400,-0.400,181.080,1000.0
2025-09-08T14:00:36.204357,1.320,3.970,25.730,-53.8,0.400,-0.400,181.080,1000.0
2025-09-08T14:00:36.206356,1.330,3.970,25.730,-53.8,0.400,-0.400,181.080,1000.0
2025-09-08T14:00:36.319224,1.330,3.970,25.730,-53.8,0.400,-0.400,181.080,1000.0
2025-09-08T14:00:36.321226,1.340,3.970,25.730,-53.8,0.400,-0.400,181.080,1000.0
2025-09-08T14:00:36.322226,1.340,3.970,25.730,-53.8,0.400,-0.400,181.080,1000.0
2025-09-08T14:00:36.323225,1.340,3.970,25.730,-53.8,0.400,-0.400,181.080,1000.0
2025-09-08T14:00:36.325225,1.340,3.970,25.730,-53.8,0.400,-0.400,181.080,1000.0
2025-09-08T14:00:36.441989,1.340,3.970,25.730,-53.8,0.400,-0.400,181.080,1000.0
2025-09-08T14:00:36.443990,1.340,3.970,25.730,-53.8,0.400,-0.400,181.080,1000.0
2025-09-08T14:00:36.444988,1.340,3.970,25.730,-53.8,0.400,-0.400,181.080,1000.0
2025-09-08T14:00:36.446991,1.340,3.960,25.720,-53.8,0.400,-0.400,181.080,1000.0
2025-09-08T14:00:36.447989,1.340,3.960,25.720,-53.8,0.400,-0.400,181.080,1000.0
2025-09-08T14:00:36.563919,1.340,3.960,25.720,-53.8,0.400,-0.400,181.080,1000.0
2025-09-08T14:00:36.564917,1.340,3.960,25.730,-53.8,0.400,-0.400,181.080,1000.0
2025-09-08T14:00:36.565918,1.340,3.960,25.730,-53.8,0.400,-0.400,181.080,1000.0
2025-09-08T14:00:36.567918,1.350,3.960,25.730,-53.8,0.400,-0.400,181.080,1000.0
2025-09-08T14:00:36.569918,1.350,3.960,25.730,-53.8,0.400,-0.400,181.080,1000.0
2025-09-08T14:00:36.685692,1.350,3.960,25.730,-53.8,0.400,-0.400,181.080,1000.0
2025-09-08T14:00:36.688692,1.340,3.960,25.730,-53.8,0.400,-0.400,181.080,1000.0
2025-09-08T14:00:36.689692,1.340,3.960,25.730,-53.7,0.400,-0.400,181.080,1000.0
2025-09-08T14:00:36.690696,1.340,3.960,25.730,-53.7,0.400,-0.400,181.080,1000.0
2025-09-08T14:00:36.691696,1.340,3.960,25.730,-53.7,0.400,-0.400,181.080,1000.0
2025-09-08T14:00:36.804579,1.340,3.960,25.730,-53.7,0.400,-0.400,181.080,1000.0
2025-09-08T14:00:36.806579,1.340,3.960,25.730,-53.7,0.400,-0.400,181.080,1000.0
2025-09-08T14:00:36.807579,1.350,3.960,25.730,-53.7,0.400,-0.400,181.080,1000.0
2025-09-08T14:00:36.809579,1.350,3.960,25.730,-53.7,0.400,-0.400,181.080,1000.0
2025-09-08T14:00:36.810579,1.350,3.960,25.730,-53.7,0.400,-0.400,181.080,1000.0
2025-09-08T14:00:36.925694,1.350,3.960,25.730,-53.7,0.400,-0.400,181.080,1000.0
2025-09-08T14:00:36.926689,1.350,3.960,25.730,-53.7,0.400,-0.400,181.080,1000.0
2025-09-08T14:00:36.928703,1.350,3.960,25.730,-53.7,0.400,-0.400,181.080,1000.0
2025-09-08T14:00:36.929700,1.350,3.960,25.730,-53.7,0.400,-0.400,181.080,1000.0
2025-09-08T14:00:36.930690,1.350,3.960,25.730,-53.7,0.400,-0.400,181.080,1000.0
2025-09-08T14:00:37.045862,1.350,3.960,25.730,-53.7,0.400,-0.400,181.080,1000.0
2025-09-08T14:00:37.047866,1.350,3.960,25.730,-53.7,0.400,-0.400,181.080,1000.0
2025-09-08T14:00:37.048866,1.350,3.960,25.730,-53.7,0.400,-0.400,181.080,1000.0
2025-09-08T14:00:37.049867,1.350,3.960,25.730,-53.8,0.400,-0.400,181.080,1000.0
2025-09-08T14:00:37.051867,1.350,3.960,25.730,-53.8,0.400,-0.400,181.080,1000.0
2025-09-08T14:00:37.168164,1.350,3.960,25.730,-53.8,0.400,-0.400,181.080,1000.0
2025-09-08T14:00:37.171176,1.350,3.960,25.730,-53.8,0.400,-0.400,181.080,1000.0
2025-09-08T14:00:37.173165,1.350,3.960,25.730,-53.8,0.400,-0.400,181.080,1000.0
2025-09-08T14:00:37.175167,1.350,3.960,25.730,-53.8,0.400,-0.400,181.080,1000.0
2025-09-08T14:00:37.177164,1.350,3.960,25.730,-53.8,0.400,-0.400,181.080,1000.0
2025-09-08T14:00:37.289411,1.350,3.960,25.730,-53.8,0.400,-0.400,181.080,1000.0
2025-09-08T14:00:37.291417,1.350,3.950,25.730,-53.8,0.400,-0.400,181.080,1000.0
2025-09-08T14:00:37.292417,1.350,3.950,25.730,-53.9,0.400,-0.400,181.080,1000.0
2025-09-08T14:00:37.294422,1.350,3.950,25.730,-53.9,0.400,-0.400,181.080,1000.0
2025-09-08T14:00:37.295417,1.350,3.950,25.730,-53.9,0.400,-0.400,181.080,1000.0
2025-09-08T14:00:37.409359,1.350,3.950,25.730,-53.9,0.400,-0.400,181.080,1000.0
2025-09-08T14:00:37.411359,1.350,3.950,25.730,-53.9,0.400,-0.400,181.080,1000.0
2025-09-08T14:00:37.413359,1.350,3.950,25.730,-53.9,0.400,-0.400,181.080,1000.0
2025-09-08T14:00:37.414361,1.350,3.950,25.730,-53.9,0.400,-0.400,181.080,1000.0
2025-09-08T14:00:37.416361,1.350,3.950,25.730,-53.9,0.400,-0.400,181.080,1000.0
2025-09-08T14:00:37.529896,1.350,3.950,25.730,-53.9,0.400,-0.400,181.080,1000.0
2025-09-08T14:00:37.531902,1.350,3.950,25.730,-53.9,0.400,-0.400,181.080,1000.0
2025-09-08T14:00:37.532901,1.350,3.950,25.730,-53.9,0.400,-0.400,181.080,1000.0
2025-09-08T14:00:37.533902,1.350,3.950,25.730,-53.9,0.400,-0.400,181.080,1000.0
2025-09-08T14:00:37.535902,1.350,3.950,25.730,-53.9,0.400,-0.400,181.080,1000.0
2025-09-08T14:00:37.649062,1.350,3.950,25.730,-53.9,0.400,-0.400,181.080,1000.0
2025-09-08T14:00:37.650060,1.350,3.950,25.730,-53.9,0.400,-0.400,181.080,1000.0
2025-09-08T14:00:37.652061,1.350,3.950,25.730,-53.8,0.400,-0.400,181.080,1000.0
2025-09-08T14:00:37.654063,1.350,3.950,25.730,-53.8,0.400,-0.400,181.080,1000.0
2025-09-08T14:00:37.655061,1.350,3.950,25.730,-53.8,0.400,-0.400,181.080,1000.0
2025-09-08T14:00:37.771403,1.350,3.950,25.730,-53.8,0.400,-0.400,181.080,1000.0
2025-09-08T14:00:37.773398,1.350,3.950,25.730,-53.8,0.400,-0.400,181.080,1000.0
2025-09-08T14:00:37.775397,1.350,3.950,25.730,-53.8,0.400,-0.400,181.080,1000.0
2025-09-08T14:00:37.776397,1.350,3.950,25.730,-53.8,0.400,-0.400,181.080,1000.0
2025-09-08T14:00:37.777397,1.350,3.950,25.730,-53.8,0.400,-0.400,181.080,1000.0
2025-09-08T14:00:37.893508,1.350,3.950,25.730,-53.8,0.400,-0.400,181.080,1000.0
2025-09-08T14:00:37.894512,1.350,3.950,25.730,-53.8,0.400,-0.400,181.080,1000.0
2025-09-08T14:00:37.896509,1.350,3.950,25.730,-53.8,0.400,-0.400,181.080,1000.0
2025-09-08T14:00:37.897511,1.350,3.950,25.730,-53.8,0.400,-0.400,181.080,1000.0
2025-09-08T14:00:37.899509,1.350,3.950,25.730,-53.8,0.400,-0.400,181.080,1000.0
2025-09-08T14:00:38.014062,1.350,3.950,25.730,-53.8,0.400,-0.400,181.080,1000.0
2025-09-08T14:00:38.017064,1.350,3.950,25.730,-53.8,0.400,-0.400,181.080,1000.0
2025-09-08T14:00:38.019061,1.350,3.950,25.730,-53.8,0.400,-0.400,181.080,1000.0
2025-09-08T14:00:38.021063,1.350,3.950,25.730,-53.8,0.400,-0.400,181.080,1000.0
2025-09-08T14:00:38.022060,1.350,3.950,25.730,-53.8,0.400,-0.400,181.080,1000.0
2025-09-08T14:00:38.136253,1.350,3.950,25.730,-53.8,0.400,-0.400,181.080,1000.0
2025-09-08T14:00:38.137249,1.350,3.950,25.730,-53.8,0.400,-0.400,181.080,1000.0
2025-09-08T14:00:38.139248,1.350,3.950,25.730,-53.8,0.400,-0.400,181.080,1000.0
2025-09-08T14:00:38.140250,1.350,3.950,25.730,-53.8,0.400,-0.400,181.080,1000.0
2025-09-08T14:00:38.141249,1.350,3.950,25.730,-53.8,0.400,-0.400,181.080,1000.0
2025-09-08T14:00:38.256984,1.350,3.950,25.730,-53.8,0.400,-0.400,181.080,1000.0
2025-09-08T14:00:38.258990,1.350,3.950,25.730,-53.8,0.400,-0.400,181.080,1000.0
2025-09-08T14:00:38.259989,1.350,3.950,25.730,-53.8,0.400,-0.400,181.080,1000.0
2025-09-08T14:00:38.260990,1.350,3.950,25.730,-53.8,0.400,-0.400,181.080,1000.0
2025-09-08T14:00:38.261989,1.350,3.950,25.730,-53.8,0.400,-0.400,181.080,1000.0
2025-09-08T14:00:38.379700,1.350,3.950,25.730,-53.8,0.400,-0.400,181.080,1000.0
2025-09-08T14:00:38.380688,1.350,3.950,25.730,-53.8,0.400,-0.400,181.080,1000.0
2025-09-08T14:00:38.382688,1.350,3.950,25.730,-53.8,0.400,-0.400,181.080,1000.0
2025-09-08T14:00:38.383688,1.350,3.950,25.730,-53.8,0.400,-0.400,181.080,1000.0
2025-09-08T14:00:38.385689,1.350,3.950,25.730,-53.8,0.400,-0.400,181.080,1000.0
2025-09-08T14:00:38.501324,1.350,3.950,25.730,-53.8,0.400,-0.400,181.080,1000.0
2025-09-08T14:00:38.503323,1.350,3.950,25.730,-53.8,0.400,-0.400,181.080,1000.0
2025-09-08T14:00:38.504324,1.350,3.950,25.730,-53.8,0.400,-0.400,181.080,1000.0
2025-09-08T14:00:38.505324,1.350,3.950,25.730,-53.8,0.400,-0.400,181.080,1000.0
2025-09-08T14:00:38.507324,1.350,3.960,25.730,-53.8,0.400,-0.400,181.080,1000.0
2025-09-08T14:00:38.621965,1.350,3.960,25.730,-53.8,0.400,-0.400,181.080,1000.0
2025-09-08T14:00:38.622966,1.350,3.970,25.730,-53.8,0.400,-0.400,181.080,1000.0
2025-09-08T14:00:38.624966,1.350,3.970,25.730,-53.8,0.400,-0.400,181.080,1000.0
2025-09-08T14:00:38.625965,1.350,3.970,25.730,-53.8,0.400,-0.400,181.080,1000.0
2025-09-08T14:00:38.626965,1.350,3.970,25.730,-53.8,0.400,-0.400,181.080,1000.0
2025-09-08T14:00:38.741987,1.350,3.960,25.730,-53.8,0.400,-0.400,181.080,1000.0
2025-09-08T14:00:38.742987,1.350,3.960,25.730,-53.8,0.400,-0.400,181.080,1000.0
2025-09-08T14:00:38.744988,1.350,3.960,25.730,-53.8,0.400,-0.400,181.080,1000.0
2025-09-08T14:00:38.745986,1.350,3.960,25.730,-53.8,0.400,-0.400,181.080,1000.0
2025-09-08T14:00:38.747987,1.350,3.960,25.730,-53.8,0.400,-0.400,181.080,1000.0
2025-09-08T14:00:38.862267,1.350,3.960,25.730,-53.8,0.400,-0.400,181.080,1000.0
2025-09-08T14:00:38.864233,1.350,3.960,25.730,-53.8,0.400,-0.400,181.080,1000.0
2025-09-08T14:00:38.865237,1.350,3.960,25.730,-53.8,0.400,-0.400,181.080,1000.0
2025-09-08T14:00:38.866233,1.350,3.960,25.730,-53.8,0.400,-0.400,181.080,1000.0
2025-09-08T14:00:38.868232,1.350,3.960,25.730,-53.8,0.400,-0.400,181.080,1000.0
2025-09-08T14:00:38.982878,1.350,3.960,25.730,-53.8,0.400,-0.400,181.080,1000.0
2025-09-08T14:00:38.983878,1.350,3.960,25.730,-53.8,0.400,-0.400,181.080,1000.0
2025-09-08T14:00:38.985880,1.350,3.960,25.730,-53.8,0.400,-0.400,181.080,1000.0
2025-09-08T14:00:38.987882,1.350,3.960,25.730,-53.8,0.400,-0.400,181.080,1000.0
2025-09-08T14:00:38.988881,1.350,3.960,25.730,-53.8,0.400,-0.400,181.080,1000.0
2025-09-08T14:00:39.103799,1.350,3.960,25.730,-53.8,0.400,-0.400,181.080,1000.0
2025-09-08T14:00:39.105799,1.350,3.950,25.730,-53.7,0.400,-0.400,181.080,1000.0
2025-09-08T14:00:39.106799,1.350,3.950,25.730,-53.7,0.400,-0.400,181.080,1000.0
2025-09-08T14:00:39.107800,1.350,3.950,25.730,-53.7,0.400,-0.400,181.080,1000.0
2025-09-08T14:00:39.109811,1.350,3.950,25.730,-53.7,0.400,-0.400,181.080,1000.0
2025-09-08T14:00:39.226191,1.350,3.950,25.730,-53.7,0.400,-0.400,181.080,1000.0
2025-09-08T14:00:39.228192,1.350,3.950,25.730,-53.7,0.400,-0.400,181.080,1000.0
2025-09-08T14:00:39.230192,1.350,3.950,25.730,-53.7,0.400,-0.400,181.080,1000.0
2025-09-08T14:00:39.231192,1.350,3.950,25.730,-53.8,0.400,-0.400,181.080,1000.0
2025-09-08T14:00:39.233192,1.350,3.950,25.730,-53.8,0.400,-0.400,181.080,1000.0
2025-09-08T14:00:39.346262,1.350,3.950,25.730,-53.8,0.400,-0.400,181.080,1000.0
2025-09-08T14:00:39.348271,1.350,3.950,25.730,-53.8,0.400,-0.400,181.080,1000.0
2025-09-08T14:00:39.349262,1.350,3.950,25.730,-53.8,0.400,-0.400,181.080,1000.0
2025-09-08T14:00:39.351264,1.350,3.950,25.730,-53.8,0.400,-0.400,181.080,1000.0
2025-09-08T14:00:39.353266,1.350,3.950,25.730,-53.8,0.400,-0.400,181.080,1000.0
2025-09-08T14:00:39.468465,1.350,3.950,25.730,-53.8,0.400,-0.400,181.080,1000.0
2025-09-08T14:00:39.470463,1.350,3.950,25.730,-53.8,0.400,-0.400,181.080,1000.0
2025-09-08T14:00:39.472464,1.350,3.950,25.730,-53.8,0.400,-0.400,181.080,1000.0
2025-09-08T14:00:39.473465,1.350,3.950,25.730,-53.8,0.400,-0.400,181.080,1000.0
2025-09-08T14:00:39.475465,1.350,3.950,25.730,-53.8,0.400,-0.400,181.080,1000.0
2025-09-08T14:00:39.589278,1.350,3.950,25.730,-53.8,0.400,-0.400,181.080,1000.0
2025-09-08T14:00:39.591280,1.350,3.950,25.730,-53.8,0.400,-0.400,181.080,1000.0
2025-09-08T14:00:39.593278,1.350,3.950,25.730,-53.8,0.400,-0.400,181.080,1000.0
2025-09-08T14:00:39.594279,1.350,3.950,25.730,-53.8,0.400,-0.400,181.080,1000.0
2025-09-08T14:00:39.595279,1.350,3.950,25.730,-53.8,0.400,-0.400,181.080,1000.0
2025-09-08T14:00:39.710376,1.350,3.950,25.730,-53.8,0.400,-0.400,181.080,1000.0
2025-09-08T14:00:39.712377,1.350,3.950,25.730,-53.8,0.400,-0.400,181.080,1000.0
2025-09-08T14:00:39.714376,1.350,3.950,25.730,-53.8,0.400,-0.400,181.080,1000.0
2025-09-08T14:00:39.715376,1.350,3.950,25.730,-53.8,0.400,-0.400,181.080,1000.0
2025-09-08T14:00:39.716376,1.350,3.950,25.730,-53.8,0.400,-0.400,181.080,1000.0
2025-09-08T14:00:39.831094,1.350,3.950,25.730,-53.8,0.400,-0.400,181.080,1000.0
2025-09-08T14:00:39.833044,1.350,3.950,25.730,-53.8,0.400,-0.400,181.080,1000.0
2025-09-08T14:00:39.835041,1.350,3.950,25.730,-53.8,0.400,-0.400,181.080,1000.0
2025-09-08T14:00:39.837042,1.350,3.950,25.730,-53.8,0.400,-0.400,181.080,1000.0
2025-09-08T14:00:39.838041,1.350,3.950,25.730,-53.8,0.400,-0.400,181.080,1000.0
2025-09-08T14:00:39.952174,1.350,3.950,25.730,-53.8,0.400,-0.400,181.080,1000.0
2025-09-08T14:00:39.954175,1.350,3.950,25.730,-53.8,0.400,-0.400,181.080,1000.0
2025-09-08T14:00:39.956174,1.350,3.950,25.730,-53.8,0.400,-0.400,181.080,1000.0
2025-09-08T14:00:39.957174,1.350,3.950,25.730,-53.8,0.400,-0.400,181.080,1000.0
2025-09-08T14:00:39.959175,1.350,3.950,25.730,-53.8,0.400,-0.400,181.080,1000.0
2025-09-08T14:00:40.072628,1.350,3.950,25.730,-53.8,0.400,-0.400,181.080,1000.0
2025-09-08T14:00:40.073629,1.350,3.950,25.730,-53.8,0.400,-0.400,181.080,1000.0
2025-09-08T14:00:40.075629,1.350,3.950,25.730,-53.8,0.400,-0.400,181.080,1000.0
2025-09-08T14:00:40.076629,1.350,3.950,25.730,-53.8,0.400,-0.400,181.080,1000.0
2025-09-08T14:00:40.077629,1.350,3.950,25.730,-53.8,0.400,-0.400,181.080,1000.0
2025-09-08T14:00:40.192180,1.350,3.950,25.730,-53.8,0.400,-0.400,181.080,1000.0
2025-09-08T14:00:40.194181,1.350,3.950,25.730,-53.8,0.400,-0.400,181.080,1000.0
2025-09-08T14:00:40.195182,1.350,3.950,25.730,-53.8,0.400,-0.400,181.080,1000.0
2025-09-08T14:00:40.196180,1.350,3.950,25.730,-53.8,0.400,-0.400,181.080,1000.0
2025-09-08T14:00:40.197180,1.350,3.950,25.730,-53.8,0.400,-0.400,181.080,1000.0
2025-09-08T14:00:40.313812,1.350,3.950,25.730,-53.8,0.400,-0.400,181.080,1000.0
2025-09-08T14:00:40.315812,1.350,3.950,25.730,-53.8,0.400,-0.400,181.080,1000.0
2025-09-08T14:00:40.318815,1.350,3.950,25.730,-53.8,0.400,-0.400,181.080,1000.0
2025-09-08T14:00:40.319812,1.350,3.950,25.730,-53.8,0.400,-0.400,181.080,1000.0
2025-09-08T14:00:40.321815,1.350,3.950,25.730,-53.8,0.400,-0.400,181.080,1000.0
2025-09-08T14:00:40.433436,1.350,3.950,25.730,-53.8,0.400,-0.400,181.080,1000.0
2025-09-08T14:00:40.435435,1.350,3.950,25.730,-53.8,0.400,-0.400,181.080,1000.0
2025-09-08T14:00:40.436434,1.350,3.950,25.730,-53.8,0.400,-0.400,181.080,1000.0
2025-09-08T14:00:40.438436,1.350,3.950,25.730,-53.8,0.400,-0.400,181.080,1000.0
2025-09-08T14:00:40.439437,1.350,3.950,25.730,-53.8,0.400,-0.400,181.080,1000.0
2025-09-08T14:00:40.555474,1.350,3.950,25.730,-53.8,0.400,-0.400,181.080,1000.0
2025-09-08T14:00:40.556473,1.350,3.960,25.730,-53.8,0.400,-0.400,181.080,1000.0
2025-09-08T14:00:40.558474,1.350,3.950,25.730,-53.8,0.400,-0.400,181.080,1000.0
2025-09-08T14:00:40.559474,1.350,3.950,25.730,-53.8,0.400,-0.400,181.080,1000.0
2025-09-08T14:00:40.561473,1.350,3.950,25.730,-53.8,0.400,-0.400,181.080,1000.0
2025-09-08T14:00:40.676459,1.350,3.950,25.730,-53.8,0.400,-0.400,181.080,1000.0
2025-09-08T14:00:40.677459,1.350,3.950,25.730,-53.8,0.400,-0.400,181.080,1000.0
2025-09-08T14:00:40.678459,1.350,3.950,25.730,-53.8,0.400,-0.400,181.080,1000.0
2025-09-08T14:00:40.680460,1.350,3.950,25.730,-53.8,0.400,-0.400,181.080,1000.0
2025-09-08T14:00:40.681460,1.350,3.950,25.730,-53.8,0.400,-0.400,181.080,1000.0
2025-09-08T14:00:40.795842,1.350,3.950,25.730,-53.8,0.400,-0.400,181.080,1000.0
2025-09-08T14:00:40.797847,1.350,3.960,25.730,-53.8,0.400,-0.400,181.080,1000.0
2025-09-08T14:00:40.798847,1.350,3.960,25.730,-53.8,0.400,-0.400,181.080,1000.0
2025-09-08T14:00:40.800846,1.350,3.960,25.730,-53.8,0.400,-0.400,181.080,1000.0
2025-09-08T14:00:40.801848,1.350,3.960,25.730,-53.8,0.400,-0.400,181.080,1000.0
2025-09-08T14:00:40.917452,1.350,3.960,25.730,-53.8,0.400,-0.400,181.080,1000.0
2025-09-08T14:00:40.919450,1.350,3.960,25.730,-53.8,0.400,-0.400,181.080,1000.0
2025-09-08T14:00:40.921450,1.340,3.960,25.740,-53.8,0.400,-0.400,181.080,1000.0
2025-09-08T14:00:40.923449,1.340,3.960,25.730,-53.8,0.400,-0.400,181.080,1000.0
2025-09-08T14:00:40.924449,1.340,3.960,25.730,-53.8,0.400,-0.400,181.080,1000.0
2025-09-08T14:00:41.037311,1.340,3.960,25.730,-53.8,0.400,-0.400,181.080,1000.0
2025-09-08T14:00:41.039311,1.340,3.960,25.730,-53.8,0.400,-0.400,181.080,1000.0
2025-09-08T14:00:41.040310,1.350,3.960,25.730,-53.8,0.400,-0.400,181.080,1000.0
2025-09-08T14:00:41.042313,1.350,3.960,25.730,-53.8,0.400,-0.400,181.080,1000.0
2025-09-08T14:00:41.043315,1.350,3.960,25.730,-53.8,0.400,-0.400,181.080,1000.0
2025-09-08T14:00:41.159566,1.350,3.960,25.740,-53.8,0.400,-0.400,181.080,1000.0
2025-09-08T14:00:41.160571,1.350,3.950,25.740,-53.8,0.400,-0.400,181.080,1000.0
2025-09-08T14:00:41.162571,1.350,3.960,25.740,-53.8,0.400,-0.400,181.080,1000.0
2025-09-08T14:00:41.163572,1.350,3.950,25.740,-53.8,0.400,-0.400,181.080,1000.0
2025-09-08T14:00:41.164571,1.350,3.950,25.740,-53.8,0.400,-0.400,181.080,1000.0
2025-09-08T14:00:41.279512,1.350,3.950,25.740,-53.8,0.400,-0.400,181.080,1000.0
2025-09-08T14:00:41.281502,1.350,3.950,25.740,-53.8,0.400,-0.400,181.080,1000.0
2025-09-08T14:00:41.283503,1.350,3.950,25.740,-53.8,0.400,-0.400,181.080,1000.0
2025-09-08T14:00:41.285508,1.350,3.950,25.740,-53.8,0.400,-0.400,181.080,1000.0
2025-09-08T14:00:41.286503,1.350,3.950,25.740,-53.8,0.400,-0.400,181.080,1000.0
2025-09-08T14:00:41.399659,1.350,3.950,25.740,-53.8,0.400,-0.400,181.080,1000.0
2025-09-08T14:00:41.401653,1.350,3.950,25.740,-53.8,0.400,-0.400,181.080,1000.0
2025-09-08T14:00:41.402641,1.350,3.950,25.740,-53.8,0.400,-0.400,181.080,1000.0
2025-09-08T14:00:41.404641,1.350,3.940,25.740,-53.8,0.400,-0.400,181.080,1000.0
2025-09-08T14:00:41.405642,1.350,3.950,25.740,-53.8,0.400,-0.400,181.080,1000.0
2025-09-08T14:00:41.520614,1.350,3.950,25.730,-53.8,0.400,-0.400,181.080,1000.0
2025-09-08T14:00:41.523615,1.350,3.950,25.730,-53.8,0.400,-0.400,181.080,1000.0
2025-09-08T14:00:41.525614,1.350,3.940,25.730,-53.8,0.400,-0.400,181.080,1000.0
2025-09-08T14:00:41.526614,1.360,3.950,25.730,-53.8,0.400,-0.400,181.080,1000.0
2025-09-08T14:00:41.528615,1.350,3.950,25.740,-53.8,0.400,-0.400,181.080,1000.0
2025-09-08T14:00:41.640515,1.350,3.950,25.730,-53.8,0.400,-0.400,181.080,1000.0
2025-09-08T14:00:41.641517,1.350,3.950,25.740,-53.8,0.400,-0.400,181.080,1000.0
2025-09-08T14:00:41.642517,1.350,3.950,25.730,-53.8,0.400,-0.400,181.080,1000.0
2025-09-08T14:00:41.644517,1.350,3.950,25.740,-53.8,0.400,-0.400,181.080,1000.0
2025-09-08T14:00:41.645518,1.350,3.950,25.740,-53.8,0.400,-0.400,181.080,1000.0
2025-09-08T14:00:41.759632,1.410,3.910,25.750,-53.8,0.400,-0.400,181.080,1000.0
2025-09-08T14:00:41.760630,1.520,3.800,25.750,-53.8,0.400,-0.400,181.080,1000.0
2025-09-08T14:00:41.761630,1.650,3.670,25.760,-53.8,0.400,-0.400,181.080,1000.0
2025-09-08T14:00:41.763632,1.800,3.520,25.770,-53.8,0.400,-0.400,181.080,1000.0
2025-09-08T14:00:41.764632,1.890,3.440,25.780,-53.8,0.400,-0.400,181.080,1000.0
2025-09-08T14:00:41.880246,1.880,3.460,25.770,-53.8,0.400,-0.400,181.080,1000.0
2025-09-08T14:00:41.882245,1.830,3.500,25.780,-53.8,0.400,-0.400,181.080,1000.0
2025-09-08T14:00:41.883247,1.770,3.570,25.770,-53.8,0.400,-0.400,181.080,1000.0
2025-09-08T14:00:41.885246,1.750,3.580,25.770,-53.8,0.400,-0.400,181.080,1000.0
2025-09-08T14:00:41.887250,1.770,3.570,25.780,-53.8,0.400,-0.400,181.080,1000.0
2025-09-08T14:00:42.000083,1.760,3.590,25.780,-53.8,0.400,-0.400,181.080,1000.0
2025-09-08T14:00:42.002083,1.740,3.610,25.780,-53.8,0.400,-0.400,181.080,1000.0
2025-09-08T14:00:42.004083,1.670,3.670,25.770,-53.8,0.400,-0.400,181.080,1000.0
2025-09-08T14:00:42.006084,1.590,3.760,25.770,-53.8,0.400,-0.400,181.080,1000.0
2025-09-08T14:00:42.008086,1.550,3.800,25.760,-53.8,0.400,-0.400,181.080,1000.0
2025-09-08T14:00:42.122033,1.540,3.810,25.760,-53.8,0.400,-0.400,181.080,1000.0
2025-09-08T14:00:42.125036,1.540,3.780,25.760,-53.8,0.400,-0.400,181.080,1000.0
2025-09-08T14:00:42.127039,1.520,3.770,25.760,-53.8,0.400,-0.400,181.080,1000.0
2025-09-08T14:00:42.128037,1.480,3.780,25.760,-53.8,0.400,-0.400,181.080,1000.0
2025-09-08T14:00:42.130037,1.450,3.790,25.760,-53.8,0.400,-0.400,181.080,1000.0
2025-09-08T14:00:42.241719,1.410,3.810,25.760,-53.8,0.400,-0.400,181.080,1000.0
2025-09-08T14:00:42.242717,1.410,3.790,25.770,-53.8,0.400,-0.400,181.080,1000.0
2025-09-08T14:00:42.244718,1.430,3.750,25.770,-53.8,0.400,-0.400,181.080,1000.0
2025-09-08T14:00:42.245719,1.440,3.740,25.770,-53.8,0.400,-0.400,181.080,1000.0
2025-09-08T14:00:42.247719,1.450,3.710,25.770,-53.8,0.400,-0.400,181.080,1000.0
2025-09-08T14:00:42.362400,1.450,3.710,25.770,-53.8,0.400,-0.400,181.080,1000.0
2025-09-08T14:00:42.364357,1.430,3.710,25.770,-53.8,0.400,-0.400,181.080,1000.0
2025-09-08T14:00:42.365356,1.380,3.750,25.770,-53.8,0.400,-0.400,181.080,1000.0
2025-09-08T14:00:42.366355,1.340,3.790,25.760,-53.8,0.400,-0.400,181.080,1000.0
2025-09-08T14:00:42.368355,1.300,3.830,25.760,-53.8,0.400,-0.400,181.080,1000.0
2025-09-08T14:00:42.482486,1.280,3.850,25.760,-53.8,0.400,-0.400,181.080,1000.0
2025-09-08T14:00:42.484488,1.290,3.820,25.760,-53.8,0.400,-0.400,181.080,1000.0
2025-09-08T14:00:42.485487,1.290,3.820,25.760,-53.8,0.400,-0.400,181.080,1000.0
2025-09-08T14:00:42.487486,1.290,3.820,25.760,-53.8,0.400,-0.400,181.080,1000.0
2025-09-08T14:00:42.488488,1.260,3.850,25.760,-53.8,0.400,-0.400,181.080,1000.0
2025-09-08T14:00:42.605187,1.250,3.860,25.760,-53.8,0.400,-0.400,181.080,1000.0
2025-09-08T14:00:42.606186,1.240,3.870,25.760,-53.8,0.400,-0.400,181.080,1000.0
2025-09-08T14:00:42.608186,1.240,3.870,25.760,-53.8,0.400,-0.400,181.080,1000.0
2025-09-08T14:00:42.609185,1.250,3.880,25.760,-53.8,0.400,-0.400,181.080,1000.0
2025-09-08T14:00:42.610186,1.240,3.880,25.760,-53.8,0.400,-0.400,181.080,1000.0
2025-09-08T14:00:42.724693,1.240,3.900,25.760,-53.8,0.400,-0.400,181.080,1000.0
2025-09-08T14:00:42.726695,1.240,3.900,25.760,-53.8,0.400,-0.400,181.080,1000.0
2025-09-08T14:00:42.727694,1.240,3.900,25.760,-53.8,0.400,-0.400,181.080,1000.0
2025-09-08T14:00:42.728695,1.240,3.900,25.760,-53.8,0.400,-0.400,181.080,1000.0
2025-09-08T14:00:42.730694,1.240,3.910,25.760,-53.8,0.400,-0.400,181.080,1000.0
2025-09-08T14:00:42.846204,1.240,3.910,25.760,-53.8,0.400,-0.400,181.080,1000.0
2025-09-08T14:00:42.848205,1.250,3.910,25.760,-53.8,0.400,-0.400,181.080,1000.0
2025-09-08T14:00:42.849204,1.250,3.910,25.750,-53.8,0.400,-0.400,181.080,1000.0
2025-09-08T14:00:42.850205,1.260,3.910,25.750,-53.8,0.400,-0.400,181.080,1000.0
2025-09-08T14:00:42.852207,1.260,3.910,25.750,-53.8,0.400,-0.400,181.080,1000.0
2025-09-08T14:00:42.967011,1.260,3.910,25.750,-53.8,0.400,-0.400,181.080,1000.0
2025-09-08T14:00:42.969016,1.260,3.900,25.750,-53.8,0.400,-0.400,181.080,1000.0
2025-09-08T14:00:42.970016,1.260,3.900,25.750,-53.8,0.400,-0.400,181.080,1000.0
2025-09-08T14:00:42.971017,1.270,3.900,25.750,-53.8,0.400,-0.400,181.080,1000.0
2025-09-08T14:00:42.973018,1.270,3.900,25.750,-53.8,0.400,-0.400,181.080,1000.0
2025-09-08T14:00:43.087363,1.280,3.910,25.740,-53.8,0.400,-0.400,181.080,1000.0
2025-09-08T14:00:43.089349,1.280,3.910,25.750,-53.8,0.400,-0.400,181.080,1000.0
2025-09-08T14:00:43.090349,1.290,3.910,25.740,-53.9,0.400,-0.400,181.080,1000.0
2025-09-08T14:00:43.091351,1.290,3.910,25.740,-53.9,0.400,-0.400,181.080,1000.0
2025-09-08T14:00:43.093349,1.290,3.910,25.750,-53.9,0.400,-0.400,181.080,1000.0
2025-09-08T14:00:43.208289,1.290,3.910,25.740,-53.9,0.400,-0.400,181.080,1000.0
2025-09-08T14:00:43.210287,1.290,3.920,25.750,-53.8,0.400,-0.400,181.080,1000.0
2025-09-08T14:00:43.212288,1.300,3.920,25.750,-53.8,0.400,-0.400,181.080,1000.0
2025-09-08T14:00:43.213288,1.300,3.910,25.750,-53.8,0.400,-0.400,181.080,1000.0
2025-09-08T14:00:43.215288,1.300,3.920,25.750,-53.8,0.400,-0.400,181.080,1000.0
2025-09-08T14:00:43.329085,1.300,3.920,25.750,-53.8,0.400,-0.400,181.080,1000.0
2025-09-08T14:00:43.331097,1.300,3.910,25.750,-53.9,0.400,-0.400,181.080,1000.0
2025-09-08T14:00:43.333090,1.300,3.920,25.750,-53.9,0.400,-0.400,181.080,1000.0
2025-09-08T14:00:43.334086,1.310,3.910,25.750,-53.9,0.400,-0.400,181.080,1000.0
2025-09-08T14:00:43.336089,1.310,3.910,25.750,-53.9,0.400,-0.400,181.080,1000.0
2025-09-08T14:00:43.449239,1.310,3.910,25.750,-53.9,0.400,-0.400,181.080,1000.0
2025-09-08T14:00:43.451240,1.310,3.910,25.740,-53.8,0.400,-0.400,181.080,1000.0
2025-09-08T14:00:43.452239,1.320,3.920,25.750,-53.8,0.400,-0.400,181.080,1000.0
2025-09-08T14:00:43.453240,1.320,3.920,25.740,-53.8,0.400,-0.400,181.080,1000.0
2025-09-08T14:00:43.455241,1.320,3.910,25.750,-53.8,0.400,-0.400,181.080,1000.0
2025-09-08T14:00:43.573217,1.330,3.920,25.750,-53.8,0.400,-0.400,181.080,1000.0
2025-09-08T14:00:43.577214,1.330,3.920,25.750,-53.8,0.400,-0.400,181.080,1000.0
2025-09-08T14:00:43.579214,1.330,3.910,25.750,-53.8,0.400,-0.400,181.080,1000.0
2025-09-08T14:00:43.580214,1.330,3.910,25.750,-53.8,0.400,-0.400,181.080,1000.0
2025-09-08T14:00:43.581216,1.330,3.910,25.750,-53.8,0.400,-0.400,181.080,1000.0
2025-09-08T14:00:43.690266,1.330,3.910,25.750,-53.8,0.400,-0.400,181.080,1000.0
2025-09-08T14:00:43.691272,1.330,3.910,25.750,-53.8,0.400,-0.400,181.080,1000.0
2025-09-08T14:00:43.692272,1.330,3.910,25.750,-53.8,0.400,-0.400,181.080,1000.0
2025-09-08T14:00:43.694273,1.330,3.910,25.750,-53.8,0.400,-0.400,181.080,1000.0
2025-09-08T14:00:43.695272,1.330,3.910,25.750,-53.8,0.400,-0.400,181.080,1000.0
2025-09-08T14:00:43.812928,1.330,3.910,25.750,-53.7,0.400,-0.400,181.080,1000.0
2025-09-08T14:00:43.813926,1.340,3.910,25.740,-53.7,0.400,-0.400,181.080,1000.0
2025-09-08T14:00:43.815929,1.330,3.910,25.740,-53.7,0.400,-0.400,181.080,1000.0
2025-09-08T14:00:43.816926,1.340,3.910,25.740,-53.7,0.400,-0.400,181.080,1000.0
2025-09-08T14:00:43.817928,1.340,3.910,25.740,-53.7,0.400,-0.400,181.080,1000.0
2025-09-08T14:00:43.935515,1.340,3.910,25.740,-53.8,0.400,-0.400,181.080,1000.0
2025-09-08T14:00:43.938514,1.340,3.920,25.750,-53.8,0.400,-0.400,181.080,1000.0
2025-09-08T14:00:43.939513,1.350,3.920,25.750,-53.8,0.400,-0.400,181.080,1000.0
2025-09-08T14:00:43.941512,1.350,3.930,25.750,-53.8,0.400,-0.400,181.080,1000.0
2025-09-08T14:00:43.943513,1.350,3.930,25.740,-53.8,0.400,-0.400,181.080,1000.0
2025-09-08T14:00:44.053253,1.350,3.930,25.740,-53.8,0.400,-0.400,181.080,1000.0
2025-09-08T14:00:44.055260,1.350,3.930,25.730,-53.8,0.400,-0.400,181.080,1000.0
2025-09-08T14:00:44.057260,1.350,3.930,25.740,-53.7,0.400,-0.400,181.080,1000.0
2025-09-08T14:00:44.058259,1.350,3.930,25.740,-53.7,0.400,-0.400,181.080,1000.0
2025-09-08T14:00:44.060259,1.350,3.930,25.730,-53.7,0.400,-0.400,181.080,1000.0
2025-09-08T14:00:44.173857,1.350,3.930,25.730,-53.8,0.400,-0.400,181.080,1000.0
2025-09-08T14:00:44.175857,1.350,3.930,25.730,-53.8,0.400,-0.400,181.080,1000.0
2025-09-08T14:00:44.177858,1.350,3.930,25.730,-53.8,0.400,-0.400,181.080,1000.0
2025-09-08T14:00:44.178868,1.350,3.930,25.730,-53.8,0.400,-0.400,181.080,1000.0
2025-09-08T14:00:44.179858,1.350,3.930,25.720,-53.8,0.400,-0.400,181.080,1000.0
2025-09-08T14:00:44.295240,1.350,3.930,25.720,-53.7,0.400,-0.400,181.080,1000.0
2025-09-08T14:00:44.296240,1.350,3.940,25.720,-53.7,0.400,-0.400,181.080,1000.0
2025-09-08T14:00:44.298239,1.350,3.940,25.720,-53.8,0.400,-0.400,181.080,1000.0
2025-09-08T14:00:44.299240,1.350,3.940,25.720,-53.8,0.400,-0.400,181.080,1000.0
2025-09-08T14:00:44.300240,1.350,3.940,25.720,-53.8,0.400,-0.400,181.080,1000.0
2025-09-08T14:00:44.421195,1.350,3.940,25.720,-53.8,0.400,-0.400,181.080,1000.0
2025-09-08T14:00:44.429195,1.350,3.940,25.720,-53.8,0.400,-0.400,181.080,1000.0
2025-09-08T14:00:44.430191,1.350,3.940,25.720,-53.8,0.400,-0.400,181.080,1000.0
2025-09-08T14:00:44.432190,1.350,3.940,25.720,-53.8,0.400,-0.400,181.080,1000.0
2025-09-08T14:00:44.433189,1.350,3.940,25.720,-53.8,0.400,-0.400,181.080,1000.0
2025-09-08T14:00:44.551231,1.350,3.940,25.720,-53.8,0.400,-0.400,181.080,1000.0
2025-09-08T14:00:44.553229,1.350,3.940,25.720,-53.8,0.400,-0.400,181.080,1000.0
2025-09-08T14:00:44.555230,1.350,3.940,25.720,-53.8,0.400,-0.400,181.080,1000.0
2025-09-08T14:00:44.556232,1.350,3.940,25.720,-53.8,0.400,-0.400,181.080,1000.0
2025-09-08T14:00:44.558230,1.350,3.940,25.720,-53.8,0.400,-0.400,181.080,1000.0
2025-09-08T14:00:44.673338,1.350,3.940,25.720,-53.8,0.400,-0.400,181.080,1000.0
2025-09-08T14:00:44.675349,1.350,3.940,25.720,-53.8,0.400,-0.400,181.080,1000.0
2025-09-08T14:00:44.676329,1.350,3.940,25.720,-53.8,0.400,-0.400,181.080,1000.0
2025-09-08T14:00:44.678329,1.350,3.940,25.720,-53.8,0.400,-0.400,181.080,1000.0
2025-09-08T14:00:44.679329,1.350,3.940,25.720,-53.8,0.400,-0.400,181.080,1000.0
2025-09-08T14:00:44.793955,1.360,3.950,25.720,-53.8,0.400,-0.400,181.080,1000.0
2025-09-08T14:00:44.794960,1.350,3.950,25.720,-53.8,0.400,-0.400,181.080,1000.0
2025-09-08T14:00:44.796960,1.350,3.950,25.720,-53.9,0.400,-0.400,181.080,1000.0
2025-09-08T14:00:44.797959,1.340,3.950,25.720,-53.9,0.400,-0.400,181.080,1000.0
2025-09-08T14:00:44.798959,1.340,3.950,25.720,-53.9,0.400,-0.400,181.080,1000.0
2025-09-08T14:00:44.918340,1.340,3.950,25.720,-53.9,0.400,-0.400,181.080,1000.0
2025-09-08T14:00:44.920339,1.340,3.950,25.720,-53.9,0.400,-0.400,181.080,1000.0
2025-09-08T14:00:44.923343,1.340,3.950,25.720,-53.9,0.400,-0.400,181.080,1000.0
2025-09-08T14:00:44.925339,1.340,3.950,25.720,-53.9,0.400,-0.400,181.080,1000.0
2025-09-08T14:00:44.926344,1.340,3.950,25.720,-53.9,0.400,-0.400,181.080,1000.0
2025-09-08T14:00:45.035678,1.340,3.950,25.720,-53.9,0.400,-0.400,181.080,1000.0
2025-09-08T14:00:45.037678,1.330,3.950,25.720,-53.9,0.400,-0.400,181.080,1000.0
2025-09-08T14:00:45.038679,1.330,3.950,25.720,-53.8,0.400,-0.400,181.080,1000.0
2025-09-08T14:00:45.040685,1.330,3.950,25.720,-53.8,0.400,-0.400,181.080,1000.0
2025-09-08T14:00:45.041679,1.330,3.950,25.720,-53.8,0.400,-0.400,181.080,1000.0
2025-09-08T14:00:45.158009,1.330,3.950,25.720,-53.8,0.400,-0.400,181.080,1000.0
2025-09-08T14:00:45.159995,1.340,3.950,25.720,-53.8,0.400,-0.400,181.080,1000.0
2025-09-08T14:00:45.160996,1.340,3.950,25.720,-53.8,0.400,-0.400,181.080,1000.0
2025-09-08T14:00:45.161994,1.340,3.950,25.720,-53.8,0.400,-0.400,181.080,1000.0
2025-09-08T14:00:45.163995,1.340,3.950,25.720,-53.8,0.400,-0.400,181.080,1000.0
2025-09-08T14:00:45.283806,1.340,3.950,25.720,-53.8,0.400,-0.400,181.080,1000.0
2025-09-08T14:00:45.285793,1.340,3.950,25.720,-53.8,0.400,-0.400,181.080,1000.0
2025-09-08T14:00:45.286793,1.340,3.950,25.720,-53.8,0.400,-0.400,181.080,1000.0
2025-09-08T14:00:45.288792,1.350,3.950,25.720,-53.8,0.400,-0.400,181.080,1000.0
2025-09-08T14:00:45.290795,1.350,3.960,25.720,-53.8,0.400,-0.400,181.080,1000.0
2025-09-08T14:00:45.400802,1.350,3.960,25.720,-53.8,0.400,-0.400,181.080,1000.0
2025-09-08T14:00:45.401802,1.340,3.960,25.720,-53.8,0.400,-0.400,181.080,1000.0
2025-09-08T14:00:45.402809,1.340,3.960,25.730,-53.8,0.400,-0.400,181.080,1000.0
2025-09-08T14:00:45.404809,1.340,3.960,25.730,-53.8,0.400,-0.400,181.080,1000.0
2025-09-08T14:00:45.405811,1.350,3.970,25.730,-53.8,0.400,-0.400,181.080,1000.0
2025-09-08T14:00:45.520706,1.350,3.970,25.730,-53.8,0.400,-0.400,181.080,1000.0
2025-09-08T14:00:45.522664,1.350,3.970,25.730,-53.8,0.400,-0.400,181.080,1000.0
2025-09-08T14:00:45.524663,1.350,3.980,25.730,-53.8,0.400,-0.400,181.080,1000.0
2025-09-08T14:00:45.525663,1.350,3.980,25.730,-53.8,0.400,-0.400,181.080,1000.0
2025-09-08T14:00:45.527675,1.350,3.980,25.730,-53.8,0.400,-0.400,181.080,1000.0
2025-09-08T14:00:45.641848,1.350,3.980,25.730,-53.8,0.400,-0.400,181.080,1000.0
2025-09-08T14:00:45.643847,1.350,3.980,25.730,-53.8,0.400,-0.400,181.080,1000.0
2025-09-08T14:00:45.645850,1.350,3.980,25.730,-53.8,0.400,-0.400,181.080,1000.0
2025-09-08T14:00:45.646846,1.350,3.990,25.730,-53.8,0.400,-0.400,181.080,1000.0
2025-09-08T14:00:45.648859,1.350,3.990,25.730,-53.8,0.400,-0.400,181.080,1000.0
2025-09-08T14:00:45.762627,1.350,3.990,25.730,-53.8,0.400,-0.400,181.080,1000.0
2025-09-08T14:00:45.764625,1.350,3.990,25.730,-53.8,0.400,-0.400,181.080,1000.0
2025-09-08T14:00:45.765638,1.350,3.990,25.730,-53.8,0.400,-0.400,181.080,1000.0
2025-09-08T14:00:45.766626,1.350,3.990,25.730,-53.7,0.400,-0.400,181.080,1000.0
2025-09-08T14:00:45.768626,1.360,3.980,25.730,-53.7,0.400,-0.400,181.080,1000.0
2025-09-08T14:00:45.891602,1.350,3.980,25.730,-53.7,0.400,-0.400,181.080,1000.0
2025-09-08T14:00:45.894597,1.350,3.980,25.730,-53.8,0.400,-0.400,181.080,1000.0
2025-09-08T14:00:45.896598,1.350,3.970,25.730,-53.8,0.400,-0.400,181.080,1000.0
2025-09-08T14:00:45.898596,1.350,3.970,25.730,-53.8,0.400,-0.400,181.080,1000.0
2025-09-08T14:00:45.900599,1.350,3.970,25.730,-53.8,0.400,-0.400,181.080,1000.0
2025-09-08T14:00:46.006644,1.350,3.970,25.730,-53.8,0.400,-0.400,181.080,1000.0
2025-09-08T14:00:46.008136,1.350,3.970,25.730,-53.8,0.400,-0.400,181.080,1000.0
2025-09-08T14:00:46.009136,1.350,3.970,25.730,-53.8,0.400,-0.400,181.080,1000.0
2025-09-08T14:00:46.010134,1.350,3.970,25.730,-53.8,0.400,-0.400,181.080,1000.0
2025-09-08T14:00:46.012134,1.350,3.970,25.730,-53.8,0.400,-0.400,181.080,1000.0
2025-09-08T14:00:46.129794,1.350,3.970,25.730,-53.8,0.400,-0.400,181.080,1000.0
2025-09-08T14:00:46.132697,1.350,3.970,25.720,-53.8,0.400,-0.400,181.080,1000.0
2025-09-08T14:00:46.134699,1.350,3.960,25.720,-53.8,0.400,-0.400,181.080,1000.0
2025-09-08T14:00:46.136696,1.350,3.960,25.720,-53.8,0.400,-0.400,181.080,1000.0
2025-09-08T14:00:46.137696,1.350,3.960,25.720,-53.8,0.400,-0.400,181.080,1000.0
2025-09-08T14:00:46.248083,1.350,3.960,25.720,-53.8,0.400,-0.400,181.080,1000.0
2025-09-08T14:00:46.249083,1.350,3.960,25.720,-53.8,0.400,-0.400,181.080,1000.0
2025-09-08T14:00:46.251083,1.350,3.960,25.720,-53.8,0.400,-0.400,181.080,1000.0
2025-09-08T14:00:46.252084,1.350,3.960,25.720,-53.8,0.400,-0.400,181.080,1000.0
2025-09-08T14:00:46.253084,1.350,3.960,25.720,-53.8,0.400,-0.400,181.080,1000.0
2025-09-08T14:00:46.371419,1.350,3.960,25.720,-53.8,0.400,-0.400,181.080,1000.0
2025-09-08T14:00:46.374402,1.350,3.960,25.720,-53.8,0.400,-0.400,181.080,1000.0
2025-09-08T14:00:46.375401,1.350,3.960,25.720,-53.8,0.400,-0.400,181.080,1000.0
2025-09-08T14:00:46.377401,1.350,3.960,25.720,-53.8,0.400,-0.400,181.080,1000.0
2025-09-08T14:00:46.378402,1.350,3.960,25.720,-53.8,0.400,-0.400,181.080,1000.0
2025-09-08T14:00:46.488765,1.350,3.960,25.720,-53.8,0.400,-0.400,181.080,1000.0
2025-09-08T14:00:46.489753,1.340,3.960,25.720,-53.8,0.400,-0.400,181.080,1000.0
2025-09-08T14:00:46.491759,1.340,3.960,25.720,-53.8,0.400,-0.400,181.080,1000.0
2025-09-08T14:00:46.492758,1.340,3.960,25.720,-53.8,0.400,-0.400,181.080,1000.0
