Timestamp,Roll_Angle,Pitch_Angle,Yaw_Angle,Altitude,Roll_Setpoint,Pitch_Setpoint,Yaw_Setpoint,Altitude_Setpoint
2025-09-10T14:43:03.880759,0.000,0.000,0.000,0.0,0.400,-0.400,181.080,1000.0
2025-09-10T14:43:03.888761,2.310,2.590,121.190,-3.9,0.400,-0.400,181.080,1000.0
2025-09-10T14:43:03.910310,2.290,2.550,121.180,-7.4,0.400,-0.400,181.080,1000.0
2025-09-10T14:43:03.911309,2.270,2.530,121.180,-10.5,0.400,-0.400,181.080,1000.0
2025-09-10T14:43:03.940309,2.250,2.520,121.180,-13.4,0.400,-0.400,181.080,1000.0
2025-09-10T14:43:03.970872,2.260,2.540,121.180,-15.9,0.400,-0.400,181.080,1000.0
2025-09-10T14:43:03.978871,2.270,2.550,121.180,-18.3,0.400,-0.400,181.080,1000.0
2025-09-10T14:43:04.000884,2.290,2.580,121.180,-20.3,0.400,-0.400,181.080,1000.0
2025-09-10T14:43:04.003883,2.290,2.580,121.180,-22.2,0.400,-0.400,181.080,1000.0
2025-09-10T14:43:04.045923,2.270,2.560,121.180,-23.9,0.400,-0.400,181.080,1000.0
2025-09-10T14:43:04.076241,2.260,2.560,121.180,-25.4,0.400,-0.400,181.080,1000.0
2025-09-10T14:43:04.094043,2.230,2.540,121.190,-26.8,0.400,-0.400,181.080,1000.0
2025-09-10T14:43:04.120935,2.210,2.520,121.190,-28.0,0.400,-0.400,181.080,1000.0
2025-09-10T14:43:04.122933,2.210,2.530,121.190,-29.1,0.400,-0.400,181.080,1000.0
2025-09-10T14:43:04.135933,2.200,2.520,121.180,-30.1,0.400,-0.400,181.080,1000.0
2025-09-10T14:43:04.181259,2.200,2.520,121.180,-31.0,0.400,-0.400,181.080,1000.0
2025-09-10T14:43:04.186257,2.200,2.540,121.190,-31.8,0.400,-0.400,181.080,1000.0
2025-09-10T14:43:04.211931,2.200,2.540,121.190,-32.5,0.400,-0.400,181.080,1000.0
2025-09-10T14:43:04.213936,1.520,2.650,121.190,-33.2,0.400,-0.400,181.080,1000.0
2025-09-10T14:43:04.241975,1.490,2.660,121.190,-33.8,0.400,-0.400,181.080,1000.0
2025-09-10T14:43:04.272641,1.450,2.670,121.190,-34.3,0.400,-0.400,181.080,1000.0
2025-09-10T14:43:04.276639,1.390,2.670,121.190,-34.8,0.400,-0.400,181.080,1000.0
2025-09-10T14:43:04.318139,1.350,2.670,121.190,-35.2,0.400,-0.400,181.080,1000.0
2025-09-10T14:43:04.319631,1.310,2.670,121.190,-35.6,0.400,-0.400,181.080,1000.0
2025-09-10T14:43:04.347136,1.280,2.670,121.190,-36.0,0.400,-0.400,181.080,1000.0
2025-09-10T14:43:04.377150,1.260,2.690,121.190,-36.3,0.400,-0.400,181.080,1000.0
2025-09-10T14:43:04.384150,1.230,2.700,121.180,-36.5,0.400,-0.400,181.080,1000.0
2025-09-10T14:43:04.407009,1.200,2.700,121.190,-36.8,0.400,-0.400,181.080,1000.0
2025-09-10T14:43:04.408000,1.180,2.700,121.190,-37.0,0.400,-0.400,181.080,1000.0
2025-09-10T14:43:04.436818,1.140,2.690,121.190,-37.2,0.400,-0.400,181.080,1000.0
2025-09-10T14:43:04.481909,1.110,2.680,121.190,-37.4,0.400,-0.400,181.080,1000.0
2025-09-10T14:43:04.487906,1.090,2.680,121.200,-37.6,0.400,-0.400,181.080,1000.0
2025-09-10T14:43:04.512018,1.060,2.680,121.190,-37.7,0.400,-0.400,181.080,1000.0
2025-09-10T14:43:04.515011,1.040,2.690,121.190,-37.9,0.400,-0.400,181.080,1000.0
2025-09-10T14:43:04.557438,1.030,2.700,121.200,-38.0,0.400,-0.400,181.080,1000.0
2025-09-10T14:43:04.587772,1.010,2.700,121.200,-38.1,0.400,-0.400,181.080,1000.0
2025-09-10T14:43:04.591773,1.000,2.700,121.200,-38.2,0.400,-0.400,181.080,1000.0
2025-09-10T14:43:04.617775,0.980,2.710,121.200,-38.3,0.400,-0.400,181.080,1000.0
2025-09-10T14:43:04.619776,0.970,2.730,121.200,-38.4,0.400,-0.400,181.080,1000.0
2025-09-10T14:43:04.647773,0.970,2.740,121.200,-38.5,0.400,-0.400,181.080,1000.0
2025-09-10T14:43:04.649775,0.970,2.750,121.200,-38.5,0.400,-0.400,181.080,1000.0
2025-09-10T14:43:04.677771,0.960,2.750,121.200,-38.6,0.400,-0.400,181.080,1000.0
2025-09-10T14:43:04.707652,0.940,2.750,121.200,-38.6,0.400,-0.400,181.080,1000.0
2025-09-10T14:43:04.709651,0.920,2.750,121.200,-38.7,0.400,-0.400,181.080,1000.0
2025-09-10T14:43:04.737651,0.910,2.750,121.200,-38.7,0.400,-0.400,181.080,1000.0
2025-09-10T14:43:04.767660,0.910,2.760,121.200,-38.7,0.400,-0.400,181.080,1000.0
2025-09-10T14:43:04.801186,0.900,2.760,121.200,-38.8,0.400,-0.400,181.080,1000.0
2025-09-10T14:43:04.828186,0.900,2.770,121.200,-38.8,0.400,-0.400,181.080,1000.0
2025-09-10T14:43:04.829185,0.900,2.780,121.200,-38.8,0.400,-0.400,181.080,1000.0
2025-09-10T14:43:04.858186,0.890,2.790,121.200,-38.8,0.400,-0.400,181.080,1000.0
2025-09-10T14:43:04.859183,0.880,2.790,121.200,-38.9,0.400,-0.400,181.080,1000.0
2025-09-10T14:43:04.887912,0.880,2.790,121.200,-38.9,0.400,-0.400,181.080,1000.0
2025-09-10T14:43:04.918396,0.880,2.790,121.200,-38.9,0.400,-0.400,181.080,1000.0
2025-09-10T14:43:04.919920,0.880,2.800,121.200,-38.9,0.400,-0.400,181.080,1000.0
2025-09-10T14:43:04.947922,0.900,2.810,121.200,-38.9,0.400,-0.400,181.080,1000.0
2025-09-10T14:43:04.950923,0.900,2.830,121.200,-39.0,0.400,-0.400,181.080,1000.0
2025-09-10T14:43:04.977873,0.910,2.840,121.200,-39.0,0.400,-0.400,181.080,1000.0
2025-09-10T14:43:05.007873,0.910,2.860,121.200,-39.0,0.400,-0.400,181.080,1000.0
2025-09-10T14:43:05.009873,0.910,2.860,121.200,-39.0,0.400,-0.400,181.080,1000.0
2025-09-10T14:43:05.052629,0.910,2.860,121.200,-39.0,0.400,-0.400,181.080,1000.0
2025-09-10T14:43:05.054236,0.910,2.860,121.200,-39.0,0.400,-0.400,181.080,1000.0
2025-09-10T14:43:05.083214,0.910,2.860,121.200,-39.0,0.400,-0.400,181.080,1000.0
2025-09-10T14:43:05.127230,0.910,2.860,121.200,-39.0,0.400,-0.400,181.080,1000.0
2025-09-10T14:43:05.129225,0.920,2.860,121.200,-39.0,0.400,-0.400,181.080,1000.0
2025-09-10T14:43:05.143224,0.920,2.870,121.200,-39.0,0.400,-0.400,181.080,1000.0
2025-09-10T14:43:05.158233,0.920,2.870,121.200,-39.0,0.400,-0.400,181.080,1000.0
2025-09-10T14:43:05.188250,0.940,2.880,121.200,-39.0,0.400,-0.400,181.080,1000.0
2025-09-10T14:43:05.218883,0.940,2.900,121.210,-39.0,0.400,-0.400,181.080,1000.0
2025-09-10T14:43:05.219882,0.950,2.900,121.200,-39.1,0.400,-0.400,181.080,1000.0
2025-09-10T14:43:05.248665,0.950,2.910,121.200,-39.1,0.400,-0.400,181.080,1000.0
2025-09-10T14:43:05.251666,0.960,2.900,121.200,-39.1,0.400,-0.400,181.080,1000.0
2025-09-10T14:43:05.293824,0.960,2.910,121.210,-39.1,0.400,-0.400,181.080,1000.0
2025-09-10T14:43:05.323860,0.970,2.920,121.200,-39.1,0.400,-0.400,181.080,1000.0
2025-09-10T14:43:05.324861,0.980,2.930,121.200,-39.1,0.400,-0.400,181.080,1000.0
2025-09-10T14:43:05.353828,0.990,2.940,121.200,-39.1,0.400,-0.400,181.080,1000.0
2025-09-10T14:43:05.355828,0.990,2.940,121.200,-39.1,0.400,-0.400,181.080,1000.0
2025-09-10T14:43:05.384387,0.980,2.930,121.200,-39.1,0.400,-0.400,181.080,1000.0
2025-09-10T14:43:05.414589,0.980,2.930,121.200,-39.1,0.400,-0.400,181.080,1000.0
2025-09-10T14:43:05.416577,0.980,2.920,121.210,-39.1,0.400,-0.400,181.080,1000.0
2025-09-10T14:43:05.444547,0.980,2.920,121.210,-39.1,0.400,-0.400,181.080,1000.0
2025-09-10T14:43:05.459516,0.980,2.930,121.210,-39.1,0.400,-0.400,181.080,1000.0
2025-09-10T14:43:05.473515,0.980,2.940,121.210,-39.1,0.400,-0.400,181.080,1000.0
2025-09-10T14:43:05.519594,0.980,2.940,121.210,-39.1,0.400,-0.400,181.080,1000.0
2025-09-10T14:43:05.520592,0.980,2.940,121.210,-39.1,0.400,-0.400,181.080,1000.0
2025-09-10T14:43:05.565477,0.980,2.930,121.210,-39.1,0.400,-0.400,181.080,1000.0
2025-09-10T14:43:05.567475,0.980,2.930,121.200,-39.1,0.400,-0.400,181.080,1000.0
2025-09-10T14:43:05.596052,0.970,2.920,121.200,-39.1,0.400,-0.400,181.080,1000.0
2025-09-10T14:43:05.626344,0.980,2.920,121.200,-39.1,0.400,-0.400,181.080,1000.0
2025-09-10T14:43:05.628345,0.980,2.920,121.200,-39.1,0.400,-0.400,181.080,1000.0
2025-09-10T14:43:05.656911,0.980,2.930,121.200,-39.1,0.400,-0.400,181.080,1000.0
2025-09-10T14:43:05.658911,0.980,2.920,121.200,-39.1,0.400,-0.400,181.080,1000.0
2025-09-10T14:43:05.687224,0.980,2.920,121.190,-39.1,0.400,-0.400,181.080,1000.0
2025-09-10T14:43:05.717648,0.980,2.910,121.190,-39.1,0.400,-0.400,181.080,1000.0
2025-09-10T14:43:05.718634,0.970,2.900,121.190,-39.1,0.400,-0.400,181.080,1000.0
2025-09-10T14:43:05.747636,0.980,2.900,121.190,-39.1,0.400,-0.400,181.080,1000.0
2025-09-10T14:43:05.750638,0.970,2.890,121.190,-39.1,0.400,-0.400,181.080,1000.0
2025-09-10T14:43:05.777670,0.980,2.900,121.190,-39.1,0.400,-0.400,181.080,1000.0
2025-09-10T14:43:05.792737,0.980,2.900,121.190,-39.1,0.400,-0.400,181.080,1000.0
2025-09-10T14:43:05.807559,0.980,2.920,121.190,-39.1,0.400,-0.400,181.080,1000.0
2025-09-10T14:43:05.868596,0.980,2.920,121.190,-39.1,0.400,-0.400,181.080,1000.0
2025-09-10T14:43:05.872252,0.980,2.920,121.190,-39.1,0.400,-0.400,181.080,1000.0
2025-09-10T14:43:05.898915,0.990,2.910,121.190,-39.1,0.400,-0.400,181.080,1000.0
2025-09-10T14:43:05.900911,0.980,2.920,121.190,-39.1,0.400,-0.400,181.080,1000.0
2025-09-10T14:43:05.929308,0.980,2.910,121.190,-39.1,0.400,-0.400,181.080,1000.0
2025-09-10T14:43:05.959761,0.970,2.900,121.190,-39.1,0.400,-0.400,181.080,1000.0
2025-09-10T14:43:05.962758,0.980,2.910,121.190,-39.2,0.400,-0.400,181.080,1000.0
2025-09-10T14:43:05.989760,0.980,2.920,121.190,-39.2,0.400,-0.400,181.080,1000.0
2025-09-10T14:43:05.991759,1.000,2.930,121.190,-39.2,0.400,-0.400,181.080,1000.0
2025-09-10T14:43:06.019943,0.990,2.940,121.190,-39.2,0.400,-0.400,181.080,1000.0
2025-09-10T14:43:06.050264,0.990,2.940,121.190,-39.2,0.400,-0.400,181.080,1000.0
2025-09-10T14:43:06.052264,0.980,2.940,121.190,-39.2,0.400,-0.400,181.080,1000.0
2025-09-10T14:43:06.080298,0.990,2.930,121.180,-39.2,0.400,-0.400,181.080,1000.0
2025-09-10T14:43:06.082299,0.990,2.930,121.180,-39.2,0.400,-0.400,181.080,1000.0
2025-09-10T14:43:06.126047,0.990,2.920,121.190,-39.2,0.400,-0.400,181.080,1000.0
2025-09-10T14:43:06.156182,1.000,2.930,121.190,-39.2,0.400,-0.400,181.080,1000.0
2025-09-10T14:43:06.171050,1.010,2.920,121.190,-39.2,0.400,-0.400,181.080,1000.0
2025-09-10T14:43:06.201050,1.010,2.920,121.190,-39.2,0.400,-0.400,181.080,1000.0
2025-09-10T14:43:06.205049,1.010,2.930,121.180,-39.2,0.400,-0.400,181.080,1000.0
2025-09-10T14:43:06.233049,1.020,2.930,121.180,-39.2,0.400,-0.400,181.080,1000.0
2025-09-10T14:43:06.261049,1.030,2.930,121.180,-39.2,0.400,-0.400,181.080,1000.0
2025-09-10T14:43:06.263049,1.030,2.930,121.180,-39.2,0.400,-0.400,181.080,1000.0
2025-09-10T14:43:06.291047,1.030,2.910,121.180,-39.2,0.400,-0.400,181.080,1000.0
2025-09-10T14:43:06.292050,1.030,2.900,121.180,-39.2,0.400,-0.400,181.080,1000.0
2025-09-10T14:43:06.321050,1.020,2.890,121.170,-39.2,0.400,-0.400,181.080,1000.0
2025-09-10T14:43:06.351050,1.020,2.880,121.180,-39.2,0.400,-0.400,181.080,1000.0
2025-09-10T14:43:06.352050,1.020,2.880,121.180,-39.2,0.400,-0.400,181.080,1000.0
2025-09-10T14:43:06.396049,1.030,2.890,121.180,-39.2,0.400,-0.400,181.080,1000.0
2025-09-10T14:43:06.398049,1.030,2.890,121.180,-39.2,0.400,-0.400,181.080,1000.0
2025-09-10T14:43:06.426049,1.030,2.890,121.180,-39.2,0.400,-0.400,181.080,1000.0
2025-09-10T14:43:06.456049,1.020,2.890,121.170,-39.3,0.400,-0.400,181.080,1000.0
2025-09-10T14:43:06.470047,1.020,2.890,121.170,-39.3,0.400,-0.400,181.080,1000.0
2025-09-10T14:43:06.486050,1.020,2.880,121.170,-39.3,0.400,-0.400,181.080,1000.0
2025-09-10T14:43:06.501050,1.000,2.860,121.170,-39.3,0.400,-0.400,181.080,1000.0
2025-09-10T14:43:06.531059,0.990,2.850,121.170,-39.3,0.400,-0.400,181.080,1000.0
2025-09-10T14:43:06.561055,0.980,2.830,121.170,-39.3,0.400,-0.400,181.080,1000.0
2025-09-10T14:43:06.563058,0.970,2.820,121.170,-39.3,0.400,-0.400,181.080,1000.0
2025-09-10T14:43:06.591057,0.960,2.810,121.170,-39.3,0.400,-0.400,181.080,1000.0
2025-09-10T14:43:06.593056,0.960,2.800,121.170,-39.3,0.400,-0.400,181.080,1000.0
2025-09-10T14:43:06.636057,0.970,2.810,121.170,-39.2,0.400,-0.400,181.080,1000.0
2025-09-10T14:43:06.638058,0.970,2.820,121.170,-39.2,0.400,-0.400,181.080,1000.0
2025-09-10T14:43:06.666060,0.970,2.820,121.170,-39.2,0.400,-0.400,181.080,1000.0
2025-09-10T14:43:06.696072,0.960,2.810,121.170,-39.2,0.400,-0.400,181.080,1000.0
2025-09-10T14:43:06.698074,0.960,2.810,121.170,-39.2,0.400,-0.400,181.080,1000.0
2025-09-10T14:43:06.726362,0.960,2.830,121.170,-39.2,0.400,-0.400,181.080,1000.0
2025-09-10T14:43:06.728363,0.990,2.860,121.170,-39.2,0.400,-0.400,181.080,1000.0
2025-09-10T14:43:06.756363,1.000,2.870,121.170,-39.2,0.400,-0.400,181.080,1000.0
2025-09-10T14:43:06.786953,1.010,2.880,121.170,-39.2,0.400,-0.400,181.080,1000.0
2025-09-10T14:43:06.788953,1.010,2.880,121.170,-39.2,0.400,-0.400,181.080,1000.0
2025-09-10T14:43:06.816949,0.990,2.860,121.170,-39.2,0.400,-0.400,181.080,1000.0
2025-09-10T14:43:06.818951,0.980,2.840,121.180,-39.2,0.400,-0.400,181.080,1000.0
2025-09-10T14:43:06.876949,0.960,2.810,121.180,-39.2,0.400,-0.400,181.080,1000.0
2025-09-10T14:43:06.906948,0.960,2.810,121.180,-39.2,0.400,-0.400,181.080,1000.0
2025-09-10T14:43:06.907948,0.960,2.810,121.180,-39.2,0.400,-0.400,181.080,1000.0
2025-09-10T14:43:06.936948,0.960,2.800,121.180,-39.2,0.400,-0.400,181.080,1000.0
2025-09-10T14:43:06.938953,0.950,2.780,121.180,-39.2,0.400,-0.400,181.080,1000.0
2025-09-10T14:43:06.966951,0.930,2.750,121.180,-39.2,0.400,-0.400,181.080,1000.0
2025-09-10T14:43:06.996949,0.900,2.710,121.180,-39.2,0.400,-0.400,181.080,1000.0
2025-09-10T14:43:06.998952,0.870,2.690,121.180,-39.2,0.400,-0.400,181.080,1000.0
2025-09-10T14:43:07.026948,0.870,2.670,121.180,-39.2,0.400,-0.400,181.080,1000.0
2025-09-10T14:43:07.027949,0.870,2.670,121.180,-39.2,0.400,-0.400,181.080,1000.0
2025-09-10T14:43:07.056950,0.880,2.680,121.180,-39.2,0.400,-0.400,181.080,1000.0
2025-09-10T14:43:07.086948,0.900,2.700,121.170,-39.2,0.400,-0.400,181.080,1000.0
2025-09-10T14:43:07.087948,0.900,2.710,121.170,-39.2,0.400,-0.400,181.080,1000.0
2025-09-10T14:43:07.131777,0.910,2.700,121.170,-39.2,0.400,-0.400,181.080,1000.0
2025-09-10T14:43:07.133781,0.900,2.690,121.170,-39.2,0.400,-0.400,181.080,1000.0
2025-09-10T14:43:07.161584,0.900,2.690,121.180,-39.2,0.400,-0.400,181.080,1000.0
2025-09-10T14:43:07.206932,0.900,2.690,121.170,-39.2,0.400,-0.400,181.080,1000.0
2025-09-10T14:43:07.208933,0.920,2.700,121.180,-39.2,0.400,-0.400,181.080,1000.0
2025-09-10T14:43:07.236819,0.930,2.700,121.170,-39.2,0.400,-0.400,181.080,1000.0
2025-09-10T14:43:07.238820,0.930,2.710,121.180,-39.2,0.400,-0.400,181.080,1000.0
2025-09-10T14:43:07.267995,0.940,2.710,121.170,-39.2,0.400,-0.400,181.080,1000.0
2025-09-10T14:43:07.296964,0.940,2.730,121.180,-39.2,0.400,-0.400,181.080,1000.0
2025-09-10T14:43:07.299967,0.960,2.740,121.180,-39.3,0.400,-0.400,181.080,1000.0
2025-09-10T14:43:07.326950,0.980,2.760,121.180,-39.3,0.400,-0.400,181.080,1000.0
2025-09-10T14:43:07.328950,0.990,2.790,121.180,-39.3,0.400,-0.400,181.080,1000.0
2025-09-10T14:43:07.371891,1.010,2.790,121.180,-39.3,0.400,-0.400,181.080,1000.0
2025-09-10T14:43:07.402132,1.000,2.790,121.180,-39.2,0.400,-0.400,181.080,1000.0
2025-09-10T14:43:07.403656,0.990,2.760,121.180,-39.2,0.400,-0.400,181.080,1000.0
2025-09-10T14:43:07.432325,0.980,2.760,121.180,-39.2,0.400,-0.400,181.080,1000.0
2025-09-10T14:43:07.435317,0.970,2.750,121.180,-39.2,0.400,-0.400,181.080,1000.0
2025-09-10T14:43:07.462281,0.980,2.750,121.180,-39.2,0.400,-0.400,181.080,1000.0
2025-09-10T14:43:07.476270,1.000,2.780,121.180,-39.3,0.400,-0.400,181.080,1000.0
2025-09-10T14:43:07.492263,1.010,2.790,121.180,-39.3,0.400,-0.400,181.080,1000.0
2025-09-10T14:43:07.536953,1.020,2.800,121.180,-39.3,0.400,-0.400,181.080,1000.0
2025-09-10T14:43:07.538954,1.020,2.800,121.180,-39.3,0.400,-0.400,181.080,1000.0
2025-09-10T14:43:07.567960,1.010,2.790,121.180,-39.3,0.400,-0.400,181.080,1000.0
2025-09-10T14:43:07.613573,1.010,2.790,121.180,-39.3,0.400,-0.400,181.080,1000.0
2025-09-10T14:43:07.616574,1.010,2.790,121.180,-39.3,0.400,-0.400,181.080,1000.0
2025-09-10T14:43:07.644639,1.020,2.790,121.170,-39.3,0.400,-0.400,181.080,1000.0
2025-09-10T14:43:07.646644,1.030,2.790,121.170,-39.3,0.400,-0.400,181.080,1000.0
2025-09-10T14:43:07.676184,1.030,2.780,121.170,-39.3,0.400,-0.400,181.080,1000.0
2025-09-10T14:43:07.680188,1.020,2.770,121.170,-39.3,0.400,-0.400,181.080,1000.0
2025-09-10T14:43:07.706609,1.010,2.760,121.170,-39.3,0.400,-0.400,181.080,1000.0
2025-09-10T14:43:07.737061,1.000,2.750,121.170,-39.3,0.400,-0.400,181.080,1000.0
2025-09-10T14:43:07.739062,1.000,2.750,121.170,-39.3,0.400,-0.400,181.080,1000.0
2025-09-10T14:43:07.766807,1.000,2.760,121.170,-39.3,0.400,-0.400,181.080,1000.0
2025-09-10T14:43:07.773446,1.010,2.780,121.170,-39.3,0.400,-0.400,181.080,1000.0
2025-09-10T14:43:07.797446,1.020,2.770,121.170,-39.3,0.400,-0.400,181.080,1000.0
2025-09-10T14:43:07.827018,1.020,2.770,121.170,-39.3,0.400,-0.400,181.080,1000.0
2025-09-10T14:43:07.829017,1.020,2.770,121.170,-39.3,0.400,-0.400,181.080,1000.0
2025-09-10T14:43:07.871794,1.020,2.770,121.170,-39.3,0.400,-0.400,181.080,1000.0
2025-09-10T14:43:07.879793,1.020,2.770,121.170,-39.3,0.400,-0.400,181.080,1000.0
2025-09-10T14:43:07.886796,1.020,2.770,121.170,-39.3,0.400,-0.400,181.080,1000.0
2025-09-10T14:43:07.948099,1.030,2.780,121.170,-39.3,0.400,-0.400,181.080,1000.0
2025-09-10T14:43:07.951100,1.040,2.790,121.170,-39.3,0.400,-0.400,181.080,1000.0
2025-09-10T14:43:07.978955,1.050,2.800,121.170,-39.3,0.400,-0.400,181.080,1000.0
2025-09-10T14:43:07.983957,1.040,2.790,121.170,-39.3,0.400,-0.400,181.080,1000.0
2025-09-10T14:43:08.009490,1.040,2.800,121.170,-39.3,0.400,-0.400,181.080,1000.0
2025-09-10T14:43:08.040022,1.040,2.800,121.170,-39.3,0.400,-0.400,181.080,1000.0
2025-09-10T14:43:08.042022,1.050,2.810,121.180,-39.3,0.400,-0.400,181.080,1000.0
2025-09-10T14:43:08.070020,1.050,2.820,121.170,-39.3,0.400,-0.400,181.080,1000.0
2025-09-10T14:43:08.077021,1.070,2.830,121.170,-39.3,0.400,-0.400,181.080,1000.0
2025-09-10T14:43:08.100717,1.060,2.840,121.170,-39.3,0.400,-0.400,181.080,1000.0
2025-09-10T14:43:08.130410,1.060,2.830,121.170,-39.3,0.400,-0.400,181.080,1000.0
2025-09-10T14:43:08.132411,1.050,2.830,121.170,-39.3,0.400,-0.400,181.080,1000.0
2025-09-10T14:43:08.160518,1.050,2.830,121.170,-39.3,0.400,-0.400,181.080,1000.0
2025-09-10T14:43:08.175517,1.040,2.830,121.170,-39.3,0.400,-0.400,181.080,1000.0
2025-09-10T14:43:08.220651,1.040,2.830,121.170,-39.3,0.400,-0.400,181.080,1000.0
2025-09-10T14:43:08.222658,1.050,2.840,121.170,-39.3,0.400,-0.400,181.080,1000.0
2025-09-10T14:43:08.224643,1.040,2.830,121.170,-39.3,0.400,-0.400,181.080,1000.0
2025-09-10T14:43:08.281290,1.030,2.820,121.170,-39.3,0.400,-0.400,181.080,1000.0
2025-09-10T14:43:08.287620,1.030,2.820,121.170,-39.3,0.400,-0.400,181.080,1000.0
2025-09-10T14:43:08.311234,1.030,2.820,121.170,-39.3,0.400,-0.400,181.080,1000.0
2025-09-10T14:43:08.342362,1.030,2.830,121.170,-39.3,0.400,-0.400,181.080,1000.0
2025-09-10T14:43:08.344365,1.030,2.830,121.170,-39.3,0.400,-0.400,181.080,1000.0
2025-09-10T14:43:08.372196,1.030,2.830,121.170,-39.3,0.400,-0.400,181.080,1000.0
2025-09-10T14:43:08.376141,1.030,2.820,121.170,-39.3,0.400,-0.400,181.080,1000.0
2025-09-10T14:43:08.402161,1.020,2.810,121.160,-39.3,0.400,-0.400,181.080,1000.0
2025-09-10T14:43:08.432153,1.010,2.810,121.160,-39.3,0.400,-0.400,181.080,1000.0
2025-09-10T14:43:08.435151,1.010,2.810,121.160,-39.3,0.400,-0.400,181.080,1000.0
2025-09-10T14:43:08.477301,1.010,2.810,121.160,-39.3,0.400,-0.400,181.080,1000.0
2025-09-10T14:43:08.481303,1.010,2.810,121.160,-39.3,0.400,-0.400,181.080,1000.0
2025-09-10T14:43:08.507333,1.020,2.810,121.160,-39.3,0.400,-0.400,181.080,1000.0
2025-09-10T14:43:08.537419,1.030,2.800,121.160,-39.3,0.400,-0.400,181.080,1000.0
2025-09-10T14:43:08.551865,1.020,2.800,121.160,-39.3,0.400,-0.400,181.080,1000.0
2025-09-10T14:43:08.582148,1.010,2.790,121.170,-39.3,0.400,-0.400,181.080,1000.0
2025-09-10T14:43:08.587757,1.010,2.790,121.170,-39.3,0.400,-0.400,181.080,1000.0
2025-09-10T14:43:08.612182,1.010,2.790,121.160,-39.3,0.400,-0.400,181.080,1000.0
2025-09-10T14:43:08.614166,1.010,2.790,121.160,-39.3,0.400,-0.400,181.080,1000.0
2025-09-10T14:43:08.641778,1.020,2.790,121.160,-39.3,0.400,-0.400,181.080,1000.0
2025-09-10T14:43:08.671854,1.030,2.800,121.160,-39.3,0.400,-0.400,181.080,1000.0
2025-09-10T14:43:08.675852,1.020,2.800,121.160,-39.3,0.400,-0.400,181.080,1000.0
2025-09-10T14:43:08.716990,1.030,2.800,121.160,-39.3,0.400,-0.400,181.080,1000.0
2025-09-10T14:43:08.718993,1.030,2.800,121.160,-39.3,0.400,-0.400,181.080,1000.0
2025-09-10T14:43:08.746992,1.030,2.810,121.170,-39.3,0.400,-0.400,181.080,1000.0
2025-09-10T14:43:08.777003,1.030,2.820,121.170,-39.3,0.400,-0.400,181.080,1000.0
2025-09-10T14:43:08.785001,1.030,2.830,121.170,-39.3,0.400,-0.400,181.080,1000.0
2025-09-10T14:43:08.807313,1.030,2.830,121.160,-39.4,0.400,-0.400,181.080,1000.0
2025-09-10T14:43:08.809315,1.030,2.830,121.160,-39.4,0.400,-0.400,181.080,1000.0
2025-09-10T14:43:08.837254,1.020,2.820,121.160,-39.4,0.400,-0.400,181.080,1000.0
2025-09-10T14:43:08.867342,1.020,2.830,121.160,-39.4,0.400,-0.400,181.080,1000.0
2025-09-10T14:43:08.885353,1.030,2.830,121.160,-39.4,0.400,-0.400,181.080,1000.0
2025-09-10T14:43:08.897404,1.020,2.820,121.160,-39.4,0.400,-0.400,181.080,1000.0
2025-09-10T14:43:08.913331,1.020,2.820,121.160,-39.4,0.400,-0.400,181.080,1000.0
2025-09-10T14:43:08.943533,1.010,2.830,121.160,-39.4,0.400,-0.400,181.080,1000.0
2025-09-10T14:43:08.988531,1.010,2.830,121.160,-39.4,0.400,-0.400,181.080,1000.0
2025-09-10T14:43:08.994534,1.010,2.830,121.160,-39.4,0.400,-0.400,181.080,1000.0
2025-09-10T14:43:09.018981,1.010,2.830,121.160,-39.4,0.400,-0.400,181.080,1000.0
2025-09-10T14:43:09.022000,1.010,2.830,121.160,-39.4,0.400,-0.400,181.080,1000.0
2025-09-10T14:43:09.048976,1.010,2.830,121.160,-39.4,0.400,-0.400,181.080,1000.0
2025-09-10T14:43:09.078977,1.000,2.820,121.160,-39.4,0.400,-0.400,181.080,1000.0
2025-09-10T14:43:09.082980,1.000,2.820,121.160,-39.4,0.400,-0.400,181.080,1000.0
2025-09-10T14:43:09.108818,1.010,2.820,121.160,-39.4,0.400,-0.400,181.080,1000.0
2025-09-10T14:43:09.109819,1.010,2.820,121.160,-39.4,0.400,-0.400,181.080,1000.0
2025-09-10T14:43:09.139389,1.010,2.830,121.160,-39.4,0.400,-0.400,181.080,1000.0
2025-09-10T14:43:09.170213,1.010,2.830,121.160,-39.4,0.400,-0.400,181.080,1000.0
2025-09-10T14:43:09.184216,1.020,2.840,121.170,-39.4,0.400,-0.400,181.080,1000.0
2025-09-10T14:43:09.199263,1.020,2.840,121.170,-39.4,0.400,-0.400,181.080,1000.0
2025-09-10T14:43:09.214728,1.010,2.830,121.160,-39.4,0.400,-0.400,181.080,1000.0
2025-09-10T14:43:09.245447,1.010,2.830,121.160,-39.4,0.400,-0.400,181.080,1000.0
2025-09-10T14:43:09.291681,1.010,2.820,121.160,-39.4,0.400,-0.400,181.080,1000.0
2025-09-10T14:43:09.295680,1.010,2.820,121.170,-39.4,0.400,-0.400,181.080,1000.0
2025-09-10T14:43:09.321885,1.010,2.820,121.170,-39.4,0.400,-0.400,181.080,1000.0
2025-09-10T14:43:09.323561,1.000,2.820,121.170,-39.4,0.400,-0.400,181.080,1000.0
2025-09-10T14:43:09.352153,1.000,2.820,121.170,-39.4,0.400,-0.400,181.080,1000.0
2025-09-10T14:43:09.382552,1.000,2.820,121.170,-39.4,0.400,-0.400,181.080,1000.0
2025-09-10T14:43:09.387714,1.000,2.820,121.170,-39.4,0.400,-0.400,181.080,1000.0
2025-09-10T14:43:09.412700,1.000,2.820,121.170,-39.4,0.400,-0.400,181.080,1000.0
2025-09-10T14:43:09.414701,1.000,2.820,121.170,-39.4,0.400,-0.400,181.080,1000.0
2025-09-10T14:43:09.442929,1.000,2.830,121.170,-39.4,0.400,-0.400,181.080,1000.0
2025-09-10T14:43:09.654856,1.000,2.830,121.170,-39.4,0.400,-0.400,181.080,1000.0
2025-09-10T14:43:09.851858,1.000,2.830,121.170,-39.4,0.400,-0.400,181.080,1000.0
2025-09-10T14:43:10.062913,1.000,2.830,121.170,-39.4,0.400,-0.400,181.080,1000.0
2025-09-10T14:43:10.068913,0.990,2.830,121.190,-39.4,0.400,-0.400,181.080,1000.0
2025-09-10T14:43:10.075911,0.990,2.830,121.190,-39.4,0.400,-0.400,181.080,1000.0
2025-09-10T14:43:10.107911,0.990,2.820,121.190,-39.4,0.400,-0.400,181.080,1000.0
2025-09-10T14:43:10.122912,0.980,2.810,121.190,-39.4,0.400,-0.400,181.080,1000.0
2025-09-10T14:43:10.152911,0.980,2.810,121.190,-39.4,0.400,-0.400,181.080,1000.0
2025-09-10T14:43:10.154689,0.990,2.800,121.200,-39.4,0.400,-0.400,181.080,1000.0
2025-09-10T14:43:10.197910,0.990,2.810,121.200,-39.4,0.400,-0.400,181.080,1000.0
2025-09-10T14:43:10.228469,0.990,2.800,121.200,-39.4,0.400,-0.400,181.080,1000.0
2025-09-10T14:43:10.229468,0.990,2.800,121.200,-39.4,0.400,-0.400,181.080,1000.0
2025-09-10T14:43:10.258468,0.980,2.790,121.200,-39.4,0.400,-0.400,181.080,1000.0
2025-09-10T14:43:10.259468,0.980,2.790,121.200,-39.4,0.400,-0.400,181.080,1000.0
2025-09-10T14:43:10.288432,0.970,2.770,121.200,-39.4,0.400,-0.400,181.080,1000.0
2025-09-10T14:43:10.289434,0.970,2.780,121.200,-39.4,0.400,-0.400,181.080,1000.0
2025-09-10T14:43:10.318432,0.970,2.790,121.200,-39.4,0.400,-0.400,181.080,1000.0
2025-09-10T14:43:10.349155,0.970,2.790,121.200,-39.4,0.400,-0.400,181.080,1000.0
2025-09-10T14:43:10.351157,0.980,2.790,121.200,-39.4,0.400,-0.400,181.080,1000.0
2025-09-10T14:43:10.379162,0.980,2.800,121.200,-39.4,0.400,-0.400,181.080,1000.0
2025-09-10T14:43:10.409154,0.980,2.800,121.200,-39.4,0.400,-0.400,181.080,1000.0
2025-09-10T14:43:10.410154,0.980,2.790,121.200,-39.4,0.400,-0.400,181.080,1000.0
2025-09-10T14:43:10.454154,0.980,2.800,121.200,-39.4,0.400,-0.400,181.080,1000.0
2025-09-10T14:43:10.469158,0.990,2.800,121.200,-39.4,0.400,-0.400,181.080,1000.0
2025-09-10T14:43:10.475157,0.990,2.810,121.190,-39.4,0.400,-0.400,181.080,1000.0
2025-09-10T14:43:10.499159,0.990,2.810,121.200,-39.4,0.400,-0.400,181.080,1000.0
2025-09-10T14:43:10.528666,1.000,2.810,121.190,-39.4,0.400,-0.400,181.080,1000.0
2025-09-10T14:43:10.559665,1.000,2.810,121.190,-39.4,0.400,-0.400,181.080,1000.0
2025-09-10T14:43:10.560666,0.990,2.810,121.190,-39.4,0.400,-0.400,181.080,1000.0
2025-09-10T14:43:10.589667,1.000,2.820,121.190,-39.4,0.400,-0.400,181.080,1000.0
2025-09-10T14:43:10.591665,0.990,2.810,121.190,-39.4,0.400,-0.400,181.080,1000.0
2025-09-10T14:43:10.619668,0.990,2.810,121.190,-39.4,0.400,-0.400,181.080,1000.0
2025-09-10T14:43:10.650175,1.000,2.820,121.200,-39.4,0.400,-0.400,181.080,1000.0
2025-09-10T14:43:10.652176,1.000,2.820,121.190,-39.4,0.400,-0.400,181.080,1000.0
2025-09-10T14:43:10.695173,1.000,2.820,121.190,-39.4,0.400,-0.400,181.080,1000.0
2025-09-10T14:43:10.696174,0.990,2.810,121.200,-39.4,0.400,-0.400,181.080,1000.0
2025-09-10T14:43:10.725173,1.000,2.810,121.190,-39.4,0.400,-0.400,181.080,1000.0
2025-09-10T14:43:10.755175,0.990,2.810,121.190,-39.4,0.400,-0.400,181.080,1000.0
2025-09-10T14:43:10.770176,1.000,2.800,121.190,-39.4,0.400,-0.400,181.080,1000.0
2025-09-10T14:43:10.785174,0.990,2.810,121.190,-39.4,0.400,-0.400,181.080,1000.0
2025-09-10T14:43:10.788176,0.990,2.810,121.190,-39.4,0.400,-0.400,181.080,1000.0
2025-09-10T14:43:10.815175,0.990,2.810,121.190,-39.4,0.400,-0.400,181.080,1000.0
2025-09-10T14:43:10.860178,0.990,2.810,121.190,-39.4,0.400,-0.400,181.080,1000.0
2025-09-10T14:43:10.861174,1.000,2.820,121.190,-39.4,0.400,-0.400,181.080,1000.0
2025-09-10T14:43:10.890688,1.000,2.820,121.190,-39.4,0.400,-0.400,181.080,1000.0
2025-09-10T14:43:10.892688,1.000,2.830,121.190,-39.4,0.400,-0.400,181.080,1000.0
2025-09-10T14:43:10.920687,1.010,2.840,121.190,-39.4,0.400,-0.400,181.080,1000.0
2025-09-10T14:43:10.966712,1.000,2.840,121.190,-39.4,0.400,-0.400,181.080,1000.0
2025-09-10T14:43:10.968713,1.000,2.840,121.190,-39.4,0.400,-0.400,181.080,1000.0
2025-09-10T14:43:10.995719,1.000,2.840,121.190,-39.4,0.400,-0.400,181.080,1000.0
2025-09-10T14:43:10.997720,0.990,2.840,121.190,-39.4,0.400,-0.400,181.080,1000.0
2025-09-10T14:43:11.027088,0.990,2.830,121.190,-39.4,0.400,-0.400,181.080,1000.0
2025-09-10T14:43:11.057687,0.990,2.840,121.190,-39.4,0.400,-0.400,181.080,1000.0
2025-09-10T14:43:11.058688,0.990,2.840,121.190,-39.4,0.400,-0.400,181.080,1000.0
2025-09-10T14:43:11.088581,0.990,2.840,121.190,-39.4,0.400,-0.400,181.080,1000.0
2025-09-10T14:43:11.090181,0.990,2.840,121.190,-39.4,0.400,-0.400,181.080,1000.0
2025-09-10T14:43:11.118380,0.980,2.840,121.190,-39.4,0.400,-0.400,181.080,1000.0
2025-09-10T14:43:11.164212,0.980,2.840,121.190,-39.4,0.400,-0.400,181.080,1000.0
2025-09-10T14:43:11.165213,0.980,2.840,121.190,-39.4,0.400,-0.400,181.080,1000.0
2025-09-10T14:43:11.193952,0.980,2.840,121.200,-39.5,0.400,-0.400,181.080,1000.0
2025-09-10T14:43:11.195952,0.970,2.830,121.200,-39.5,0.400,-0.400,181.080,1000.0
2025-09-10T14:43:11.224586,0.970,2.830,121.200,-39.5,0.400,-0.400,181.080,1000.0
2025-09-10T14:43:11.269485,0.960,2.830,121.200,-39.5,0.400,-0.400,181.080,1000.0
2025-09-10T14:43:11.272484,0.960,2.830,121.200,-39.5,0.400,-0.400,181.080,1000.0
2025-09-10T14:43:11.299754,0.960,2.830,121.200,-39.5,0.400,-0.400,181.080,1000.0
2025-09-10T14:43:11.301757,0.960,2.830,121.190,-39.5,0.400,-0.400,181.080,1000.0
2025-09-10T14:43:11.329798,0.960,2.830,121.190,-39.5,0.400,-0.400,181.080,1000.0
2025-09-10T14:43:11.360498,0.950,2.830,121.190,-39.5,0.400,-0.400,181.080,1000.0
2025-09-10T14:43:11.362500,0.950,2.830,121.190,-39.5,0.400,-0.400,181.080,1000.0
2025-09-10T14:43:11.390878,0.950,2.820,121.190,-39.5,0.400,-0.400,181.080,1000.0
2025-09-10T14:43:11.391878,0.950,2.820,121.190,-39.5,0.400,-0.400,181.080,1000.0
2025-09-10T14:43:11.420903,0.960,2.820,121.190,-39.5,0.400,-0.400,181.080,1000.0
2025-09-10T14:43:11.422426,0.960,2.820,121.190,-39.5,0.400,-0.400,181.080,1000.0
2025-09-10T14:43:11.451208,0.960,2.820,121.190,-39.5,0.400,-0.400,181.080,1000.0
2025-09-10T14:43:11.481462,0.950,2.810,121.190,-39.5,0.400,-0.400,181.080,1000.0
2025-09-10T14:43:11.497625,0.920,2.770,121.200,-39.5,0.400,-0.400,181.080,1000.0
2025-09-10T14:43:11.512732,0.900,2.750,121.200,-39.5,0.400,-0.400,181.080,1000.0
2025-09-10T14:43:11.528412,0.880,2.740,121.200,-39.5,0.400,-0.400,181.080,1000.0
2025-09-10T14:43:11.574030,0.890,2.750,121.200,-39.5,0.400,-0.400,181.080,1000.0
2025-09-10T14:43:11.603654,0.890,2.760,121.200,-39.5,0.400,-0.400,181.080,1000.0
2025-09-10T14:43:11.605654,0.900,2.780,121.200,-39.5,0.400,-0.400,181.080,1000.0
2025-09-10T14:43:11.634879,0.900,2.780,121.200,-39.5,0.400,-0.400,181.080,1000.0
2025-09-10T14:43:11.636881,0.890,2.770,121.200,-39.5,0.400,-0.400,181.080,1000.0
2025-09-10T14:43:11.663997,0.870,2.760,121.190,-39.5,0.400,-0.400,181.080,1000.0
2025-09-10T14:43:11.693746,0.860,2.730,121.200,-39.5,0.400,-0.400,181.080,1000.0
2025-09-10T14:43:11.695716,0.850,2.720,121.190,-39.5,0.400,-0.400,181.080,1000.0
2025-09-10T14:43:11.724332,0.850,2.720,121.190,-39.5,0.400,-0.400,181.080,1000.0
2025-09-10T14:43:11.725331,0.840,2.730,121.190,-39.5,0.400,-0.400,181.080,1000.0
2025-09-10T14:43:11.754852,0.840,2.730,121.190,-39.5,0.400,-0.400,181.080,1000.0
2025-09-10T14:43:11.784936,0.830,2.730,121.190,-39.5,0.400,-0.400,181.080,1000.0
2025-09-10T14:43:11.787934,0.830,2.730,121.200,-39.5,0.400,-0.400,181.080,1000.0
2025-09-10T14:43:11.845214,0.850,2.750,121.190,-39.5,0.400,-0.400,181.080,1000.0
2025-09-10T14:43:11.847221,0.850,2.750,121.190,-39.5,0.400,-0.400,181.080,1000.0
2025-09-10T14:43:11.875238,0.850,2.760,121.190,-39.5,0.400,-0.400,181.080,1000.0
2025-09-10T14:43:11.905684,0.860,2.770,121.200,-39.5,0.400,-0.400,181.080,1000.0
2025-09-10T14:43:11.906683,0.840,2.750,121.190,-39.5,0.400,-0.400,181.080,1000.0
2025-09-10T14:43:11.935686,0.830,2.750,121.190,-39.5,0.400,-0.400,181.080,1000.0
2025-09-10T14:43:11.937684,0.830,2.750,121.190,-39.5,0.400,-0.400,181.080,1000.0
2025-09-10T14:43:11.965388,0.820,2.740,121.190,-39.5,0.400,-0.400,181.080,1000.0
2025-09-10T14:43:11.995564,0.820,2.740,121.190,-39.5,0.400,-0.400,181.080,1000.0
2025-09-10T14:43:11.996571,0.820,2.750,121.190,-39.4,0.400,-0.400,181.080,1000.0
2025-09-10T14:43:12.025569,0.810,2.750,121.190,-39.4,0.400,-0.400,181.080,1000.0
2025-09-10T14:43:12.027569,0.810,2.750,121.190,-39.4,0.400,-0.400,181.080,1000.0
2025-09-10T14:43:12.070223,0.800,2.740,121.190,-39.4,0.400,-0.400,181.080,1000.0
2025-09-10T14:43:12.101052,0.800,2.740,121.190,-39.5,0.400,-0.400,181.080,1000.0
2025-09-10T14:43:12.104052,0.800,2.740,121.190,-39.5,0.400,-0.400,181.080,1000.0
2025-09-10T14:43:12.131775,0.810,2.750,121.190,-39.5,0.400,-0.400,181.080,1000.0
2025-09-10T14:43:12.133783,0.810,2.760,121.180,-39.5,0.400,-0.400,181.080,1000.0
2025-09-10T14:43:12.161676,0.820,2.770,121.190,-39.5,0.400,-0.400,181.080,1000.0
2025-09-10T14:43:12.192419,0.810,2.770,121.180,-39.5,0.400,-0.400,181.080,1000.0
2025-09-10T14:43:12.207417,0.800,2.770,121.180,-39.5,0.400,-0.400,181.080,1000.0
2025-09-10T14:43:12.238075,0.800,2.760,121.190,-39.5,0.400,-0.400,181.080,1000.0
2025-09-10T14:43:12.240075,0.790,2.760,121.180,-39.5,0.400,-0.400,181.080,1000.0
2025-09-10T14:43:12.268139,0.780,2.760,121.190,-39.5,0.400,-0.400,181.080,1000.0
2025-09-10T14:43:12.275140,0.790,2.760,121.180,-39.4,0.400,-0.400,181.080,1000.0
2025-09-10T14:43:12.298101,0.790,2.770,121.180,-39.4,0.400,-0.400,181.080,1000.0
2025-09-10T14:43:12.328483,0.800,2.780,121.180,-39.4,0.400,-0.400,181.080,1000.0
2025-09-10T14:43:12.330483,0.800,2.790,121.180,-39.4,0.400,-0.400,181.080,1000.0
2025-09-10T14:43:12.373508,0.800,2.790,121.180,-39.4,0.400,-0.400,181.080,1000.0
2025-09-10T14:43:12.378498,0.800,2.790,121.180,-39.5,0.400,-0.400,181.080,1000.0
2025-09-10T14:43:12.403666,0.800,2.800,121.180,-39.5,0.400,-0.400,181.080,1000.0
2025-09-10T14:43:12.433787,0.790,2.800,121.180,-39.5,0.400,-0.400,181.080,1000.0
2025-09-10T14:43:12.436790,0.780,2.780,121.180,-39.5,0.400,-0.400,181.080,1000.0
2025-09-10T14:43:12.463785,0.760,2.770,121.180,-39.5,0.400,-0.400,181.080,1000.0
2025-09-10T14:43:12.468785,0.720,2.750,121.180,-39.5,0.400,-0.400,181.080,1000.0
2025-09-10T14:43:12.494315,0.700,2.730,121.180,-39.5,0.400,-0.400,181.080,1000.0
2025-09-10T14:43:12.524823,0.680,2.710,121.170,-39.5,0.400,-0.400,181.080,1000.0
2025-09-10T14:43:12.539833,0.680,2.710,121.170,-39.5,0.400,-0.400,181.080,1000.0
2025-09-10T14:43:12.569925,0.690,2.730,121.180,-39.5,0.400,-0.400,181.080,1000.0
2025-09-10T14:43:12.575924,0.710,2.750,121.180,-39.5,0.400,-0.400,181.080,1000.0
2025-09-10T14:43:12.600116,0.730,2.770,121.180,-39.5,0.400,-0.400,181.080,1000.0
2025-09-10T14:43:12.646017,0.740,2.790,121.180,-39.5,0.400,-0.400,181.080,1000.0
2025-09-10T14:43:12.648020,0.740,2.790,121.180,-39.5,0.400,-0.400,181.080,1000.0
2025-09-10T14:43:12.676335,0.720,2.770,121.190,-39.5,0.400,-0.400,181.080,1000.0
2025-09-10T14:43:12.682339,0.700,2.750,121.190,-39.5,0.400,-0.400,181.080,1000.0
2025-09-10T14:43:12.706858,0.690,2.730,121.180,-39.5,0.400,-0.400,181.080,1000.0
2025-09-10T14:43:12.736921,0.690,2.740,121.180,-39.5,0.400,-0.400,181.080,1000.0
2025-09-10T14:43:12.738921,0.680,2.730,121.180,-39.5,0.400,-0.400,181.080,1000.0
2025-09-10T14:43:12.767648,0.690,2.740,121.190,-39.5,0.400,-0.400,181.080,1000.0
2025-09-10T14:43:12.774636,0.710,2.760,121.190,-39.5,0.400,-0.400,181.080,1000.0
2025-09-10T14:43:12.798293,0.700,2.760,121.190,-39.5,0.400,-0.400,181.080,1000.0
2025-09-10T14:43:12.829148,0.690,2.750,121.190,-39.5,0.400,-0.400,181.080,1000.0
2025-09-10T14:43:12.844153,0.670,2.720,121.180,-39.5,0.400,-0.400,181.080,1000.0
2025-09-10T14:43:12.859261,0.640,2.680,121.180,-39.5,0.400,-0.400,181.080,1000.0
2025-09-10T14:43:12.878253,0.600,2.640,121.180,-39.5,0.400,-0.400,181.080,1000.0
2025-09-10T14:43:12.904253,0.570,2.610,121.180,-39.5,0.400,-0.400,181.080,1000.0
2025-09-10T14:43:12.949359,0.570,2.600,121.180,-39.5,0.400,-0.400,181.080,1000.0
2025-09-10T14:43:12.952351,0.600,2.650,121.180,-39.5,0.400,-0.400,181.080,1000.0
2025-09-10T14:43:12.979352,0.670,2.710,121.190,-39.5,0.400,-0.400,181.080,1000.0
2025-09-10T14:43:12.983351,0.680,2.720,121.190,-39.5,0.400,-0.400,181.080,1000.0
2025-09-10T14:43:13.009586,0.680,2.730,121.190,-39.5,0.400,-0.400,181.080,1000.0
2025-09-10T14:43:13.040881,0.680,2.720,121.200,-39.5,0.400,-0.400,181.080,1000.0
2025-09-10T14:43:13.041881,0.630,2.660,121.190,-39.5,0.400,-0.400,181.080,1000.0
2025-09-10T14:43:13.071143,0.580,2.610,121.190,-39.5,0.400,-0.400,181.080,1000.0
2025-09-10T14:43:13.077145,0.550,2.560,121.170,-39.5,0.400,-0.400,181.080,1000.0
2025-09-10T14:43:13.101093,0.530,2.540,121.170,-39.5,0.400,-0.400,181.080,1000.0
2025-09-10T14:43:13.131494,0.570,2.590,121.170,-39.4,0.400,-0.400,181.080,1000.0
2025-09-10T14:43:13.133494,0.630,2.660,121.170,-39.4,0.400,-0.400,181.080,1000.0
2025-09-10T14:43:13.162037,0.660,2.700,121.170,-39.4,0.400,-0.400,181.080,1000.0
2025-09-10T14:43:13.178926,0.670,2.700,121.170,-39.4,0.400,-0.400,181.080,1000.0
2025-09-10T14:43:13.191925,0.660,2.690,121.170,-39.4,0.400,-0.400,181.080,1000.0
2025-09-10T14:43:13.252980,0.630,2.650,121.170,-39.4,0.400,-0.400,181.080,1000.0
2025-09-10T14:43:13.254980,0.620,2.620,121.170,-39.4,0.400,-0.400,181.080,1000.0
2025-09-10T14:43:13.282270,0.630,2.640,121.170,-39.4,0.400,-0.400,181.080,1000.0
2025-09-10T14:43:13.287268,0.660,2.670,121.170,-39.4,0.400,-0.400,181.080,1000.0
2025-09-10T14:43:13.313038,0.690,2.710,121.180,-39.4,0.400,-0.400,181.080,1000.0
2025-09-10T14:43:13.315038,0.730,2.750,121.180,-39.4,0.400,-0.400,181.080,1000.0
2025-09-10T14:43:13.343558,0.770,2.790,121.180,-39.4,0.400,-0.400,181.080,1000.0
2025-09-10T14:43:13.375138,0.770,2.800,121.180,-39.4,0.400,-0.400,181.080,1000.0
2025-09-10T14:43:13.379127,0.760,2.780,121.180,-39.4,0.400,-0.400,181.080,1000.0
2025-09-10T14:43:13.404320,0.750,2.760,121.180,-39.4,0.400,-0.400,181.080,1000.0
2025-09-10T14:43:13.434055,0.750,2.760,121.180,-39.4,0.400,-0.400,181.080,1000.0
2025-09-10T14:43:13.436059,0.750,2.770,121.180,-39.4,0.400,-0.400,181.080,1000.0
2025-09-10T14:43:13.463883,0.770,2.780,121.180,-39.4,0.400,-0.400,181.080,1000.0
2025-09-10T14:43:13.468887,0.790,2.810,121.180,-39.4,0.400,-0.400,181.080,1000.0
2025-09-10T14:43:13.509715,0.800,2.820,121.180,-39.4,0.400,-0.400,181.080,1000.0
2025-09-10T14:43:13.510715,0.800,2.820,121.180,-39.4,0.400,-0.400,181.080,1000.0
2025-09-10T14:43:13.539843,0.810,2.820,121.180,-39.5,0.400,-0.400,181.080,1000.0
2025-09-10T14:43:13.585002,0.790,2.810,121.180,-39.5,0.400,-0.400,181.080,1000.0
2025-09-10T14:43:13.591002,0.790,2.810,121.180,-39.5,0.400,-0.400,181.080,1000.0
2025-09-10T14:43:13.614970,0.790,2.810,121.180,-39.5,0.400,-0.400,181.080,1000.0
2025-09-10T14:43:13.616968,0.800,2.820,121.180,-39.5,0.400,-0.400,181.080,1000.0
2025-09-10T14:43:13.645577,0.810,2.830,121.180,-39.5,0.400,-0.400,181.080,1000.0
2025-09-10T14:43:13.675578,0.830,2.850,121.180,-39.5,0.400,-0.400,181.080,1000.0
2025-09-10T14:43:13.680577,0.840,2.870,121.180,-39.5,0.400,-0.400,181.080,1000.0
2025-09-10T14:43:13.705840,0.850,2.880,121.180,-39.5,0.400,-0.400,181.080,1000.0
2025-09-10T14:43:13.707838,0.870,2.900,121.190,-39.5,0.400,-0.400,181.080,1000.0
2025-09-10T14:43:13.750956,0.870,2.920,121.190,-39.5,0.400,-0.400,181.080,1000.0
2025-09-10T14:43:13.781184,0.870,2.930,121.190,-39.5,0.400,-0.400,181.080,1000.0
2025-09-10T14:43:13.787188,0.870,2.930,121.190,-39.5,0.400,-0.400,181.080,1000.0
2025-09-10T14:43:13.810838,0.870,2.930,121.190,-39.5,0.400,-0.400,181.080,1000.0
2025-09-10T14:43:13.811838,0.860,2.930,121.190,-39.5,0.400,-0.400,181.080,1000.0
2025-09-10T14:43:13.840987,0.850,2.930,121.190,-39.5,0.400,-0.400,181.080,1000.0
2025-09-10T14:43:13.856005,0.840,2.910,121.190,-39.5,0.400,-0.400,181.080,1000.0
2025-09-10T14:43:13.871006,0.840,2.910,121.200,-39.5,0.400,-0.400,181.080,1000.0
2025-09-10T14:43:13.916431,0.840,2.910,121.190,-39.5,0.400,-0.400,181.080,1000.0
2025-09-10T14:43:13.918431,0.840,2.910,121.190,-39.5,0.400,-0.400,181.080,1000.0
2025-09-10T14:43:13.946120,0.830,2.900,121.190,-39.5,0.400,-0.400,181.080,1000.0
2025-09-10T14:43:13.976155,0.830,2.900,121.190,-39.5,0.400,-0.400,181.080,1000.0
2025-09-10T14:43:13.981159,0.850,2.920,121.190,-39.5,0.400,-0.400,181.080,1000.0
2025-09-10T14:43:14.021629,0.840,2.920,121.200,-39.5,0.400,-0.400,181.080,1000.0
2025-09-10T14:43:14.022627,0.840,2.910,121.200,-39.5,0.400,-0.400,181.080,1000.0
2025-09-10T14:43:14.051442,0.830,2.900,121.200,-39.5,0.400,-0.400,181.080,1000.0
2025-09-10T14:43:14.081446,0.830,2.890,121.200,-39.5,0.400,-0.400,181.080,1000.0
2025-09-10T14:43:14.086449,0.830,2.890,121.200,-39.5,0.400,-0.400,181.080,1000.0
2025-09-10T14:43:14.111797,0.830,2.890,121.200,-39.5,0.400,-0.400,181.080,1000.0
2025-09-10T14:43:14.112795,0.830,2.900,121.200,-39.5,0.400,-0.400,181.080,1000.0
2025-09-10T14:43:14.141796,0.840,2.900,121.200,-39.5,0.400,-0.400,181.080,1000.0
2025-09-10T14:43:14.172350,0.840,2.900,121.200,-39.5,0.400,-0.400,181.080,1000.0
2025-09-10T14:43:14.187350,0.840,2.900,121.200,-39.5,0.400,-0.400,181.080,1000.0
2025-09-10T14:43:14.202352,0.830,2.890,121.200,-39.5,0.400,-0.400,181.080,1000.0
2025-09-10T14:43:14.204353,0.830,2.880,121.200,-39.5,0.400,-0.400,181.080,1000.0
2025-09-10T14:43:14.232348,0.830,2.880,121.200,-39.5,0.400,-0.400,181.080,1000.0
2025-09-10T14:43:14.262355,0.840,2.890,121.200,-39.5,0.400,-0.400,181.080,1000.0
2025-09-10T14:43:14.291962,0.840,2.900,121.190,-39.5,0.400,-0.400,181.080,1000.0
2025-09-10T14:43:14.322953,0.840,2.890,121.200,-39.5,0.400,-0.400,181.080,1000.0
2025-09-10T14:43:14.323953,0.840,2.890,121.200,-39.5,0.400,-0.400,181.080,1000.0
2025-09-10T14:43:14.352955,0.830,2.880,121.200,-39.5,0.400,-0.400,181.080,1000.0
2025-09-10T14:43:14.382959,0.830,2.870,121.200,-39.5,0.400,-0.400,181.080,1000.0
2025-09-10T14:43:14.387955,0.820,2.870,121.200,-39.5,0.400,-0.400,181.080,1000.0
2025-09-10T14:43:14.412954,0.830,2.870,121.190,-39.5,0.400,-0.400,181.080,1000.0
2025-09-10T14:43:14.413954,0.840,2.880,121.190,-39.5,0.400,-0.400,181.080,1000.0
2025-09-10T14:43:14.442952,0.830,2.880,121.190,-39.5,0.400,-0.400,181.080,1000.0
2025-09-10T14:43:14.443953,0.830,2.870,121.190,-39.5,0.400,-0.400,181.080,1000.0
2025-09-10T14:43:14.472954,0.820,2.860,121.190,-39.5,0.400,-0.400,181.080,1000.0
2025-09-10T14:43:14.517957,0.810,2.850,121.190,-39.5,0.400,-0.400,181.080,1000.0
2025-09-10T14:43:14.519956,0.820,2.850,121.200,-39.5,0.400,-0.400,181.080,1000.0
2025-09-10T14:43:14.547954,0.830,2.860,121.200,-39.5,0.400,-0.400,181.080,1000.0
2025-09-10T14:43:14.549954,0.830,2.860,121.200,-39.5,0.400,-0.400,181.080,1000.0
2025-09-10T14:43:14.576955,0.840,2.870,121.200,-39.6,0.400,-0.400,181.080,1000.0
2025-09-10T14:43:14.622979,0.840,2.870,121.200,-39.6,0.400,-0.400,181.080,1000.0
2025-09-10T14:43:14.623978,0.840,2.870,121.200,-39.6,0.400,-0.400,181.080,1000.0
2025-09-10T14:43:14.652980,0.840,2.870,121.200,-39.6,0.400,-0.400,181.080,1000.0
2025-09-10T14:43:14.654979,0.840,2.870,121.190,-39.6,0.400,-0.400,181.080,1000.0
2025-09-10T14:43:14.682977,0.840,2.870,121.190,-39.5,0.400,-0.400,181.080,1000.0
2025-09-10T14:43:14.712978,0.850,2.870,121.190,-39.5,0.400,-0.400,181.080,1000.0
2025-09-10T14:43:14.714979,0.850,2.870,121.190,-39.5,0.400,-0.400,181.080,1000.0
2025-09-10T14:43:14.757978,0.850,2.860,121.190,-39.5,0.400,-0.400,181.080,1000.0
2025-09-10T14:43:14.758977,0.850,2.860,121.190,-39.5,0.400,-0.400,181.080,1000.0
2025-09-10T14:43:14.787979,0.840,2.870,121.190,-39.5,0.400,-0.400,181.080,1000.0
2025-09-10T14:43:14.817977,0.840,2.870,121.190,-39.5,0.400,-0.400,181.080,1000.0
2025-09-10T14:43:14.818977,0.840,2.870,121.190,-39.5,0.400,-0.400,181.080,1000.0
2025-09-10T14:43:14.848106,0.850,2.870,121.190,-39.5,0.400,-0.400,181.080,1000.0
2025-09-10T14:43:14.863108,0.850,2.860,121.190,-39.5,0.400,-0.400,181.080,1000.0
2025-09-10T14:43:14.878109,0.850,2.850,121.190,-39.6,0.400,-0.400,181.080,1000.0
2025-09-10T14:43:14.923156,0.850,2.840,121.190,-39.6,0.400,-0.400,181.080,1000.0
2025-09-10T14:43:14.924152,0.850,2.840,121.200,-39.6,0.400,-0.400,181.080,1000.0
2025-09-10T14:43:14.953157,0.860,2.840,121.200,-39.6,0.400,-0.400,181.080,1000.0
2025-09-10T14:43:14.955157,0.860,2.840,121.190,-39.5,0.400,-0.400,181.080,1000.0
2025-09-10T14:43:14.998182,0.860,2.850,121.190,-39.5,0.400,-0.400,181.080,1000.0
2025-09-10T14:43:15.028181,0.870,2.860,121.190,-39.5,0.400,-0.400,181.080,1000.0
2025-09-10T14:43:15.029179,0.870,2.860,121.190,-39.5,0.400,-0.400,181.080,1000.0
2025-09-10T14:43:15.058261,0.870,2.860,121.190,-39.5,0.400,-0.400,181.080,1000.0
2025-09-10T14:43:15.060261,0.870,2.870,121.190,-39.5,0.400,-0.400,181.080,1000.0
2025-09-10T14:43:15.088463,0.880,2.860,121.190,-39.5,0.400,-0.400,181.080,1000.0
2025-09-10T14:43:15.118513,0.880,2.860,121.190,-39.5,0.400,-0.400,181.080,1000.0
2025-09-10T14:43:15.120517,0.880,2.860,121.190,-39.5,0.400,-0.400,181.080,1000.0
2025-09-10T14:43:15.148546,0.880,2.860,121.190,-39.5,0.400,-0.400,181.080,1000.0
2025-09-10T14:43:15.149546,0.890,2.860,121.190,-39.5,0.400,-0.400,181.080,1000.0
2025-09-10T14:43:15.179087,0.900,2.870,121.190,-39.5,0.400,-0.400,181.080,1000.0
2025-09-10T14:43:15.194079,0.910,2.880,121.190,-39.5,0.400,-0.400,181.080,1000.0
2025-09-10T14:43:15.209077,0.920,2.890,121.190,-39.5,0.400,-0.400,181.080,1000.0
2025-09-10T14:43:15.269280,0.930,2.900,121.190,-39.5,0.400,-0.400,181.080,1000.0
2025-09-10T14:43:15.272282,0.930,2.910,121.190,-39.5,0.400,-0.400,181.080,1000.0
2025-09-10T14:43:15.277279,0.930,2.910,121.190,-39.5,0.400,-0.400,181.080,1000.0
2025-09-10T14:43:15.330314,0.920,2.890,121.190,-39.5,0.400,-0.400,181.080,1000.0
2025-09-10T14:43:15.331315,0.920,2.890,121.190,-39.5,0.400,-0.400,181.080,1000.0
2025-09-10T14:43:15.360541,0.920,2.890,121.190,-39.5,0.400,-0.400,181.080,1000.0
2025-09-10T14:43:15.362536,0.920,2.900,121.190,-39.5,0.400,-0.400,181.080,1000.0
2025-09-10T14:43:15.390539,0.920,2.900,121.180,-39.5,0.400,-0.400,181.080,1000.0
2025-09-10T14:43:15.393536,0.930,2.910,121.190,-39.5,0.400,-0.400,181.080,1000.0
2025-09-10T14:43:15.421118,0.930,2.920,121.190,-39.6,0.400,-0.400,181.080,1000.0
2025-09-10T14:43:15.450780,0.930,2.910,121.180,-39.6,0.400,-0.400,181.080,1000.0
2025-09-10T14:43:15.452779,0.920,2.910,121.180,-39.6,0.400,-0.400,181.080,1000.0
2025-09-10T14:43:15.480731,0.920,2.910,121.180,-39.6,0.400,-0.400,181.080,1000.0
2025-09-10T14:43:15.481730,0.920,2.900,121.180,-39.6,0.400,-0.400,181.080,1000.0
2025-09-10T14:43:15.525549,0.910,2.900,121.180,-39.6,0.400,-0.400,181.080,1000.0
2025-09-10T14:43:15.556596,0.910,2.890,121.190,-39.6,0.400,-0.400,181.080,1000.0
2025-09-10T14:43:15.558596,0.910,2.890,121.190,-39.6,0.400,-0.400,181.080,1000.0
2025-09-10T14:43:15.587319,0.910,2.900,121.190,-39.6,0.400,-0.400,181.080,1000.0
2025-09-10T14:43:15.602574,0.920,2.900,121.190,-39.6,0.400,-0.400,181.080,1000.0
2025-09-10T14:43:15.617573,0.920,2.910,121.190,-39.6,0.400,-0.400,181.080,1000.0
2025-09-10T14:43:15.662957,0.930,2.920,121.180,-39.6,0.400,-0.400,181.080,1000.0
2025-09-10T14:43:15.663959,0.930,2.920,121.180,-39.6,0.400,-0.400,181.080,1000.0
2025-09-10T14:43:15.693644,0.920,2.920,121.180,-39.6,0.400,-0.400,181.080,1000.0
2025-09-10T14:43:15.694644,0.910,2.910,121.180,-39.6,0.400,-0.400,181.080,1000.0
2025-09-10T14:43:15.723988,0.900,2.910,121.180,-39.5,0.400,-0.400,181.080,1000.0
2025-09-10T14:43:15.754546,0.900,2.910,121.180,-39.5,0.400,-0.400,181.080,1000.0
2025-09-10T14:43:15.756557,0.910,2.900,121.180,-39.5,0.400,-0.400,181.080,1000.0
2025-09-10T14:43:15.784500,0.910,2.900,121.180,-39.5,0.400,-0.400,181.080,1000.0
2025-09-10T14:43:15.786502,0.900,2.910,121.180,-39.5,0.400,-0.400,181.080,1000.0
2025-09-10T14:43:15.830166,0.910,2.920,121.180,-39.5,0.400,-0.400,181.080,1000.0
2025-09-10T14:43:15.859793,0.910,2.930,121.170,-39.5,0.400,-0.400,181.080,1000.0
2025-09-10T14:43:15.860793,0.910,2.930,121.170,-39.5,0.400,-0.400,181.080,1000.0
2025-09-10T14:43:15.889969,0.910,2.930,121.170,-39.5,0.400,-0.400,181.080,1000.0
2025-09-10T14:43:15.891971,0.900,2.930,121.180,-39.5,0.400,-0.400,181.080,1000.0
2025-09-10T14:43:15.920310,0.890,2.910,121.180,-39.5,0.400,-0.400,181.080,1000.0
2025-09-10T14:43:15.935118,0.890,2.900,121.180,-39.6,0.400,-0.400,181.080,1000.0
2025-09-10T14:43:15.950688,0.890,2.910,121.180,-39.6,0.400,-0.400,181.080,1000.0
2025-09-10T14:43:15.995373,0.900,2.910,121.180,-39.6,0.400,-0.400,181.080,1000.0
2025-09-10T14:43:15.996373,0.920,2.920,121.180,-39.6,0.400,-0.400,181.080,1000.0
2025-09-10T14:43:16.026158,0.930,2.930,121.180,-39.6,0.400,-0.400,181.080,1000.0
2025-09-10T14:43:16.057343,0.930,2.940,121.180,-39.6,0.400,-0.400,181.080,1000.0
2025-09-10T14:43:16.059343,0.920,2.930,121.180,-39.5,0.400,-0.400,181.080,1000.0
2025-09-10T14:43:16.102406,0.920,2.930,121.180,-39.5,0.400,-0.400,181.080,1000.0
2025-09-10T14:43:16.104408,0.920,2.920,121.180,-39.5,0.400,-0.400,181.080,1000.0
2025-09-10T14:43:16.133658,0.920,2.920,121.180,-39.5,0.400,-0.400,181.080,1000.0
2025-09-10T14:43:16.164520,0.920,2.920,121.180,-39.6,0.400,-0.400,181.080,1000.0
2025-09-10T14:43:16.166524,0.920,2.910,121.180,-39.6,0.400,-0.400,181.080,1000.0
2025-09-10T14:43:16.194543,0.920,2.910,121.180,-39.6,0.400,-0.400,181.080,1000.0
2025-09-10T14:43:16.196544,0.920,2.910,121.180,-39.6,0.400,-0.400,181.080,1000.0
2025-09-10T14:43:16.224178,0.920,2.910,121.180,-39.6,0.400,-0.400,181.080,1000.0
2025-09-10T14:43:16.254180,0.920,2.910,121.180,-39.6,0.400,-0.400,181.080,1000.0
2025-09-10T14:43:16.269532,0.920,2.910,121.180,-39.6,0.400,-0.400,181.080,1000.0
2025-09-10T14:43:16.284531,0.920,2.910,121.180,-39.6,0.400,-0.400,181.080,1000.0
2025-09-10T14:43:16.299565,0.920,2.910,121.180,-39.6,0.400,-0.400,181.080,1000.0
2025-09-10T14:43:16.329068,0.920,2.910,121.180,-39.6,0.400,-0.400,181.080,1000.0
2025-09-10T14:43:16.331290,0.920,2.910,121.180,-39.6,0.400,-0.400,181.080,1000.0
2025-09-10T14:43:16.359525,0.920,2.910,121.180,-39.6,0.400,-0.400,181.080,1000.0
2025-09-10T14:43:16.405849,0.920,2.910,121.180,-39.6,0.400,-0.400,181.080,1000.0
2025-09-10T14:43:16.407848,0.920,2.910,121.180,-39.6,0.400,-0.400,181.080,1000.0
2025-09-10T14:43:16.435912,0.920,2.910,121.180,-39.6,0.400,-0.400,181.080,1000.0
2025-09-10T14:43:16.438945,0.920,2.910,121.180,-39.6,0.400,-0.400,181.080,1000.0
2025-09-10T14:43:16.466331,0.920,2.910,121.180,-39.6,0.400,-0.400,181.080,1000.0
2025-09-10T14:43:16.496158,0.920,2.900,121.180,-39.5,0.400,-0.400,181.080,1000.0
2025-09-10T14:43:16.498150,0.920,2.900,121.180,-39.5,0.400,-0.400,181.080,1000.0
2025-09-10T14:43:16.526196,0.920,2.900,121.180,-39.5,0.400,-0.400,181.080,1000.0
2025-09-10T14:43:16.527202,0.910,2.910,121.180,-39.5,0.400,-0.400,181.080,1000.0
2025-09-10T14:43:16.555966,0.910,2.910,121.180,-39.5,0.400,-0.400,181.080,1000.0
2025-09-10T14:43:16.585619,0.910,2.910,121.180,-39.5,0.400,-0.400,181.080,1000.0
2025-09-10T14:43:16.600619,0.910,2.910,121.180,-39.5,0.400,-0.400,181.080,1000.0
2025-09-10T14:43:16.615593,0.910,2.910,121.180,-39.5,0.400,-0.400,181.080,1000.0
2025-09-10T14:43:16.645996,0.920,2.920,121.180,-39.5,0.400,-0.400,181.080,1000.0
2025-09-10T14:43:16.676401,0.920,2.920,121.180,-39.6,0.400,-0.400,181.080,1000.0
2025-09-10T14:43:16.706423,0.920,2.910,121.180,-39.6,0.400,-0.400,181.080,1000.0
2025-09-10T14:43:16.707423,0.930,2.920,121.180,-39.6,0.400,-0.400,181.080,1000.0
2025-09-10T14:43:16.736131,0.930,2.920,121.180,-39.6,0.400,-0.400,181.080,1000.0
2025-09-10T14:43:16.738135,0.930,2.920,121.180,-39.6,0.400,-0.400,181.080,1000.0
2025-09-10T14:43:16.766357,0.930,2.930,121.180,-39.6,0.400,-0.400,181.080,1000.0
2025-09-10T14:43:16.796949,0.930,2.930,121.180,-39.6,0.400,-0.400,181.080,1000.0
2025-09-10T14:43:16.798949,0.930,2.930,121.180,-39.6,0.400,-0.400,181.080,1000.0
2025-09-10T14:43:16.827016,0.930,2.930,121.180,-39.6,0.400,-0.400,181.080,1000.0
2025-09-10T14:43:16.828017,0.930,2.930,121.180,-39.6,0.400,-0.400,181.080,1000.0
2025-09-10T14:43:16.857137,0.930,2.930,121.180,-39.6,0.400,-0.400,181.080,1000.0
2025-09-10T14:43:16.887488,0.930,2.930,121.180,-39.6,0.400,-0.400,181.080,1000.0
2025-09-10T14:43:16.889487,0.940,2.940,121.180,-39.6,0.400,-0.400,181.080,1000.0
2025-09-10T14:43:16.933154,0.940,2.940,121.180,-39.6,0.400,-0.400,181.080,1000.0
2025-09-10T14:43:16.935155,0.940,2.940,121.180,-39.6,0.400,-0.400,181.080,1000.0
2025-09-10T14:43:16.963595,0.940,2.940,121.180,-39.6,0.400,-0.400,181.080,1000.0
2025-09-10T14:43:17.009007,0.940,2.940,121.180,-39.6,0.400,-0.400,181.080,1000.0
2025-09-10T14:43:17.011006,0.940,2.940,121.180,-39.6,0.400,-0.400,181.080,1000.0
2025-09-10T14:43:17.038663,0.940,2.940,121.180,-39.6,0.400,-0.400,181.080,1000.0
2025-09-10T14:43:17.039664,0.950,2.940,121.180,-39.6,0.400,-0.400,181.080,1000.0
2025-09-10T14:43:17.068354,0.950,2.940,121.180,-39.6,0.400,-0.400,181.080,1000.0
2025-09-10T14:43:17.075356,0.940,2.940,121.180,-39.6,0.400,-0.400,181.080,1000.0
2025-09-10T14:43:17.098523,0.940,2.940,121.180,-39.6,0.400,-0.400,181.080,1000.0
2025-09-10T14:43:17.129241,0.940,2.950,121.180,-39.6,0.400,-0.400,181.080,1000.0
2025-09-10T14:43:17.130227,0.950,2.940,121.180,-39.6,0.400,-0.400,181.080,1000.0
2025-09-10T14:43:17.159358,0.950,2.950,121.180,-39.6,0.400,-0.400,181.080,1000.0
2025-09-10T14:43:17.163358,0.940,2.950,121.180,-39.6,0.400,-0.400,181.080,1000.0
2025-09-10T14:43:17.204367,0.940,2.950,121.180,-39.6,0.400,-0.400,181.080,1000.0
2025-09-10T14:43:17.234487,0.940,2.950,121.180,-39.6,0.400,-0.400,181.080,1000.0
2025-09-10T14:43:17.235487,0.930,2.960,121.180,-39.6,0.400,-0.400,181.080,1000.0
2025-09-10T14:43:17.265260,0.930,2.960,121.180,-39.6,0.400,-0.400,181.080,1000.0
2025-09-10T14:43:17.281977,0.920,2.960,121.180,-39.6,0.400,-0.400,181.080,1000.0
2025-09-10T14:43:17.294986,0.920,2.960,121.180,-39.6,0.400,-0.400,181.080,1000.0
2025-09-10T14:43:17.340513,0.930,2.960,121.180,-39.6,0.400,-0.400,181.080,1000.0
2025-09-10T14:43:17.342512,0.920,2.960,121.180,-39.6,0.400,-0.400,181.080,1000.0
2025-09-10T14:43:17.371166,0.920,2.960,121.180,-39.6,0.400,-0.400,181.080,1000.0
2025-09-10T14:43:17.377162,0.920,2.950,121.180,-39.6,0.400,-0.400,181.080,1000.0
2025-09-10T14:43:17.401206,0.920,2.950,121.180,-39.6,0.400,-0.400,181.080,1000.0
2025-09-10T14:43:17.431594,0.920,2.950,121.180,-39.6,0.400,-0.400,181.080,1000.0
2025-09-10T14:43:17.433601,0.920,2.940,121.180,-39.6,0.400,-0.400,181.080,1000.0
2025-09-10T14:43:17.477187,0.920,2.940,121.190,-39.6,0.400,-0.400,181.080,1000.0
2025-09-10T14:43:17.482190,0.920,2.940,121.180,-39.6,0.400,-0.400,181.080,1000.0
2025-09-10T14:43:17.507297,0.920,2.940,121.190,-39.6,0.400,-0.400,181.080,1000.0
2025-09-10T14:43:17.537232,0.910,2.940,121.190,-39.6,0.400,-0.400,181.080,1000.0
2025-09-10T14:43:17.540232,0.910,2.950,121.180,-39.6,0.400,-0.400,181.080,1000.0
2025-09-10T14:43:17.567347,0.910,2.950,121.180,-39.6,0.400,-0.400,181.080,1000.0
2025-09-10T14:43:17.576591,0.910,2.940,121.180,-39.6,0.400,-0.400,181.080,1000.0
2025-09-10T14:43:17.597393,0.910,2.940,121.180,-39.6,0.400,-0.400,181.080,1000.0
2025-09-10T14:43:17.628983,0.910,2.940,121.180,-39.6,0.400,-0.400,181.080,1000.0
2025-09-10T14:43:17.643868,0.910,2.930,121.190,-39.6,0.400,-0.400,181.080,1000.0
2025-09-10T14:43:17.675339,0.900,2.930,121.190,-39.6,0.400,-0.400,181.080,1000.0
2025-09-10T14:43:17.680340,0.900,2.930,121.190,-39.7,0.400,-0.400,181.080,1000.0
2025-09-10T14:43:17.704824,0.900,2.920,121.190,-39.7,0.400,-0.400,181.080,1000.0
2025-09-10T14:43:17.750231,0.900,2.920,121.190,-39.7,0.400,-0.400,181.080,1000.0
2025-09-10T14:43:17.752234,0.900,2.920,121.190,-39.7,0.400,-0.400,181.080,1000.0
2025-09-10T14:43:17.780104,0.910,2.920,121.190,-39.7,0.400,-0.400,181.080,1000.0
2025-09-10T14:43:17.784093,0.900,2.920,121.190,-39.7,0.400,-0.400,181.080,1000.0
2025-09-10T14:43:17.809965,0.900,2.920,121.190,-39.7,0.400,-0.400,181.080,1000.0
2025-09-10T14:43:17.840033,0.900,2.930,121.190,-39.7,0.400,-0.400,181.080,1000.0
2025-09-10T14:43:17.841033,0.900,2.920,121.190,-39.7,0.400,-0.400,181.080,1000.0
2025-09-10T14:43:17.869926,0.900,2.930,121.190,-39.7,0.400,-0.400,181.080,1000.0
2025-09-10T14:43:17.878926,0.910,2.930,121.190,-39.7,0.400,-0.400,181.080,1000.0
2025-09-10T14:43:17.899954,0.910,2.930,121.190,-39.7,0.400,-0.400,181.080,1000.0
2025-09-10T14:43:17.930772,0.910,2.940,121.180,-39.7,0.400,-0.400,181.080,1000.0
2025-09-10T14:43:17.945633,0.910,2.940,121.180,-39.7,0.400,-0.400,181.080,1000.0
2025-09-10T14:43:17.960633,0.910,2.940,121.180,-39.7,0.400,-0.400,181.080,1000.0
2025-09-10T14:43:17.979635,0.910,2.940,121.180,-39.7,0.400,-0.400,181.080,1000.0
2025-09-10T14:43:17.991017,0.910,2.940,121.180,-39.7,0.400,-0.400,181.080,1000.0
2025-09-10T14:43:18.051299,0.910,2.940,121.180,-39.7,0.400,-0.400,181.080,1000.0
2025-09-10T14:43:18.052298,0.910,2.940,121.180,-39.7,0.400,-0.400,181.080,1000.0
2025-09-10T14:43:18.081841,0.910,2.940,121.180,-39.7,0.400,-0.400,181.080,1000.0
2025-09-10T14:43:18.086842,0.910,2.940,121.180,-39.7,0.400,-0.400,181.080,1000.0
2025-09-10T14:43:18.111841,0.910,2.940,121.180,-39.7,0.400,-0.400,181.080,1000.0
2025-09-10T14:43:18.141473,0.910,2.940,121.180,-39.7,0.400,-0.400,181.080,1000.0
2025-09-10T14:43:18.143472,0.910,2.940,121.180,-39.7,0.400,-0.400,181.080,1000.0
2025-09-10T14:43:18.171234,0.910,2.940,121.180,-39.7,0.400,-0.400,181.080,1000.0
2025-09-10T14:43:18.177232,0.910,2.940,121.180,-39.7,0.400,-0.400,181.080,1000.0
2025-09-10T14:43:18.201234,0.910,2.940,121.180,-39.7,0.400,-0.400,181.080,1000.0
2025-09-10T14:43:18.203237,0.910,2.950,121.180,-39.7,0.400,-0.400,181.080,1000.0
2025-09-10T14:43:18.231233,0.910,2.950,121.180,-39.7,0.400,-0.400,181.080,1000.0
2025-09-10T14:43:18.276263,0.920,2.940,121.190,-39.7,0.400,-0.400,181.080,1000.0
2025-09-10T14:43:18.280234,0.920,2.940,121.190,-39.7,0.400,-0.400,181.080,1000.0
2025-09-10T14:43:18.306232,0.920,2.950,121.190,-39.7,0.400,-0.400,181.080,1000.0
2025-09-10T14:43:18.307235,0.920,2.950,121.190,-39.8,0.400,-0.400,181.080,1000.0
2025-09-10T14:43:18.336233,0.920,2.950,121.190,-39.8,0.400,-0.400,181.080,1000.0
2025-09-10T14:43:18.381232,0.920,2.950,121.190,-39.8,0.400,-0.400,181.080,1000.0
2025-09-10T14:43:18.385238,0.920,2.950,121.190,-39.8,0.400,-0.400,181.080,1000.0
2025-09-10T14:43:18.411233,0.920,2.950,121.190,-39.8,0.400,-0.400,181.080,1000.0
2025-09-10T14:43:18.412294,0.920,2.950,121.190,-39.8,0.400,-0.400,181.080,1000.0
2025-09-10T14:43:18.441288,0.930,2.950,121.190,-39.8,0.400,-0.400,181.080,1000.0
2025-09-10T14:43:18.471288,0.930,2.950,121.190,-39.7,0.400,-0.400,181.080,1000.0
2025-09-10T14:43:18.478290,0.930,2.950,121.190,-39.7,0.400,-0.400,181.080,1000.0
2025-09-10T14:43:18.516773,0.930,2.950,121.190,-39.7,0.400,-0.400,181.080,1000.0
2025-09-10T14:43:18.517774,0.930,2.950,121.190,-39.7,0.400,-0.400,181.080,1000.0
2025-09-10T14:43:18.546775,0.930,2.950,121.190,-39.7,0.400,-0.400,181.080,1000.0
2025-09-10T14:43:18.576773,0.930,2.950,121.190,-39.7,0.400,-0.400,181.080,1000.0
2025-09-10T14:43:18.580776,0.930,2.950,121.190,-39.7,0.400,-0.400,181.080,1000.0
2025-09-10T14:43:18.606775,0.930,2.950,121.190,-39.7,0.400,-0.400,181.080,1000.0
2025-09-10T14:43:18.607774,0.930,2.950,121.190,-39.7,0.400,-0.400,181.080,1000.0
2025-09-10T14:43:18.636774,0.930,2.950,121.190,-39.7,0.400,-0.400,181.080,1000.0
2025-09-10T14:43:18.681946,0.940,2.950,121.190,-39.7,0.400,-0.400,181.080,1000.0
2025-09-10T14:43:18.685945,0.940,2.950,121.190,-39.7,0.400,-0.400,181.080,1000.0
2025-09-10T14:43:18.711828,0.940,2.950,121.190,-39.7,0.400,-0.400,181.080,1000.0
2025-09-10T14:43:18.712822,0.940,2.950,121.190,-39.7,0.400,-0.400,181.080,1000.0
2025-09-10T14:43:18.756795,0.940,2.950,121.190,-39.7,0.400,-0.400,181.080,1000.0
2025-09-10T14:43:18.786804,0.940,2.950,121.190,-39.7,0.400,-0.400,181.080,1000.0
2025-09-10T14:43:18.791797,0.940,2.950,121.190,-39.7,0.400,-0.400,181.080,1000.0
2025-09-10T14:43:18.817113,0.940,2.950,121.190,-39.7,0.400,-0.400,181.080,1000.0
2025-09-10T14:43:18.819113,0.940,2.950,121.190,-39.7,0.400,-0.400,181.080,1000.0
2025-09-10T14:43:18.847627,0.940,2.950,121.190,-39.7,0.400,-0.400,181.080,1000.0
2025-09-10T14:43:18.877627,0.940,2.950,121.190,-39.6,0.400,-0.400,181.080,1000.0
2025-09-10T14:43:18.884637,0.940,2.950,121.190,-39.6,0.400,-0.400,181.080,1000.0
2025-09-10T14:43:18.907638,0.940,2.950,121.190,-39.6,0.400,-0.400,181.080,1000.0
2025-09-10T14:43:18.908638,0.950,2.940,121.190,-39.6,0.400,-0.400,181.080,1000.0
2025-09-10T14:43:18.937636,0.940,2.940,121.190,-39.6,0.400,-0.400,181.080,1000.0
2025-09-10T14:43:18.952636,0.940,2.940,121.190,-39.6,0.400,-0.400,181.080,1000.0
2025-09-10T14:43:18.967879,0.940,2.940,121.190,-39.6,0.400,-0.400,181.080,1000.0
2025-09-10T14:43:19.012887,0.940,2.940,121.190,-39.7,0.400,-0.400,181.080,1000.0
2025-09-10T14:43:19.028613,0.950,2.930,121.190,-39.7,0.400,-0.400,181.080,1000.0
2025-09-10T14:43:19.043757,0.950,2.930,121.190,-39.7,0.400,-0.400,181.080,1000.0
2025-09-10T14:43:19.088732,0.950,2.930,121.190,-39.7,0.400,-0.400,181.080,1000.0
2025-09-10T14:43:19.093730,0.950,2.930,121.190,-39.7,0.400,-0.400,181.080,1000.0
2025-09-10T14:43:19.118789,0.940,2.920,121.190,-39.7,0.400,-0.400,181.080,1000.0
2025-09-10T14:43:19.120801,0.940,2.920,121.190,-39.7,0.400,-0.400,181.080,1000.0
2025-09-10T14:43:19.148982,0.940,2.920,121.190,-39.7,0.400,-0.400,181.080,1000.0
2025-09-10T14:43:19.149971,0.940,2.920,121.190,-39.7,0.400,-0.400,181.080,1000.0
