Timestamp,Roll_Angle,Pitch_Angle,Yaw_Angle,Altitude,Roll_Setpoint,Pitch_Setpoint,Yaw_Setpoint,Altitude_Setpoint
2025-09-16T15:36:17.427006,-0.130,2.230,154.460,-56.5,0.400,-0.400,181.080,1000.0
2025-09-16T15:36:17.429002,-0.130,2.230,154.470,-56.5,0.400,-0.400,181.080,1000.0
2025-09-16T15:36:17.457730,-0.130,2.230,154.470,-56.5,0.400,-0.400,181.080,1000.0
2025-09-16T15:36:17.488596,-0.130,2.230,154.470,-56.5,0.400,-0.400,181.080,1000.0
2025-09-16T15:36:17.493587,-0.130,2.230,154.480,-56.5,0.400,-0.400,181.080,1000.0
2025-09-16T15:36:17.518792,-0.130,2.230,154.490,-56.5,0.400,-0.400,181.080,1000.0
2025-09-16T15:36:17.519792,-0.180,2.220,154.480,-56.5,0.400,-0.400,181.080,1000.0
2025-09-16T15:36:17.564430,-0.180,2.220,154.480,-56.5,0.400,-0.400,181.080,1000.0
2025-09-16T15:36:17.594430,-0.180,2.220,154.490,-56.6,0.400,-0.400,181.080,1000.0
2025-09-16T15:36:17.613934,-0.180,2.220,154.490,-56.6,0.400,-0.400,181.080,1000.0
2025-09-16T15:36:17.639531,-0.180,2.220,154.490,-56.6,0.400,-0.400,181.080,1000.0
2025-09-16T15:36:17.640532,-0.180,2.220,154.510,-56.6,0.400,-0.400,181.080,1000.0
2025-09-16T15:36:17.670149,-0.180,2.220,154.500,-56.6,0.400,-0.400,181.080,1000.0
2025-09-16T15:36:17.700462,-0.180,2.220,154.510,-56.6,0.400,-0.400,181.080,1000.0
2025-09-16T15:36:17.703462,-0.180,2.220,154.510,-56.6,0.400,-0.400,181.080,1000.0
2025-09-16T15:36:17.730721,-0.180,2.220,154.520,-56.6,0.400,-0.400,181.080,1000.0
2025-09-16T15:36:17.732719,-0.180,2.220,154.520,-56.6,0.400,-0.400,181.080,1000.0
2025-09-16T15:36:17.760467,-0.180,2.220,154.530,-56.6,0.400,-0.400,181.080,1000.0
2025-09-16T15:36:17.805823,-0.180,2.220,154.540,-56.6,0.400,-0.400,181.080,1000.0
2025-09-16T15:36:17.813823,-0.180,2.220,154.540,-56.6,0.400,-0.400,181.080,1000.0
2025-09-16T15:36:17.835834,-0.180,2.220,154.550,-56.6,0.400,-0.400,181.080,1000.0
2025-09-16T15:36:17.836822,-0.180,2.220,154.550,-56.6,0.400,-0.400,181.080,1000.0
2025-09-16T15:36:17.866107,-0.180,2.220,154.550,-56.6,0.400,-0.400,181.080,1000.0
2025-09-16T15:36:17.896589,-0.180,2.220,154.560,-56.6,0.400,-0.400,181.080,1000.0
2025-09-16T15:36:17.911231,-0.180,2.220,154.560,-56.6,0.400,-0.400,181.080,1000.0
2025-09-16T15:36:17.926409,-0.180,2.220,154.560,-56.6,0.400,-0.400,181.080,1000.0
2025-09-16T15:36:17.928410,-0.180,2.220,154.570,-56.6,0.400,-0.400,181.080,1000.0
2025-09-16T15:36:17.972505,-0.180,2.220,154.580,-56.6,0.400,-0.400,181.080,1000.0
2025-09-16T15:36:17.974505,-0.180,2.220,154.580,-56.6,0.400,-0.400,181.080,1000.0
2025-09-16T15:36:17.987509,-0.180,2.220,154.580,-56.6,0.400,-0.400,181.080,1000.0
2025-09-16T15:36:18.033498,-0.180,2.220,154.580,-56.6,0.400,-0.400,181.080,1000.0
2025-09-16T15:36:18.035498,-0.180,2.220,154.580,-56.6,0.400,-0.400,181.080,1000.0
2025-09-16T15:36:18.062704,-0.180,2.220,154.590,-56.6,0.400,-0.400,181.080,1000.0
2025-09-16T15:36:18.109232,-0.180,2.220,154.590,-56.6,0.400,-0.400,181.080,1000.0
2025-09-16T15:36:18.116185,-0.180,2.220,154.590,-56.6,0.400,-0.400,181.080,1000.0
2025-09-16T15:36:18.139675,-0.170,2.220,154.590,-56.6,0.400,-0.400,181.080,1000.0
2025-09-16T15:36:18.140675,-0.170,2.220,154.590,-56.6,0.400,-0.400,181.080,1000.0
2025-09-16T15:36:18.169485,-0.170,2.220,154.590,-56.6,0.400,-0.400,181.080,1000.0
2025-09-16T15:36:18.171485,-0.170,2.220,154.600,-56.6,0.400,-0.400,181.080,1000.0
2025-09-16T15:36:18.199710,-0.170,2.220,154.600,-56.6,0.400,-0.400,181.080,1000.0
2025-09-16T15:36:18.230142,-0.170,2.220,154.600,-56.6,0.400,-0.400,181.080,1000.0
2025-09-16T15:36:18.231143,-0.170,2.220,154.600,-56.6,0.400,-0.400,181.080,1000.0
2025-09-16T15:36:18.260332,-0.170,2.220,154.600,-56.6,0.400,-0.400,181.080,1000.0
2025-09-16T15:36:18.262333,-0.170,2.220,154.600,-56.6,0.400,-0.400,181.080,1000.0
2025-09-16T15:36:18.290721,-0.170,2.220,154.600,-56.6,0.400,-0.400,181.080,1000.0
2025-09-16T15:36:18.336718,-0.170,2.220,154.600,-56.6,0.400,-0.400,181.080,1000.0
2025-09-16T15:36:18.337717,-0.170,2.220,154.600,-56.6,0.400,-0.400,181.080,1000.0
2025-09-16T15:36:18.366845,-0.170,2.220,154.600,-56.6,0.400,-0.400,181.080,1000.0
2025-09-16T15:36:18.368844,-0.180,2.220,154.590,-56.6,0.400,-0.400,181.080,1000.0
2025-09-16T15:36:18.411666,-0.180,2.220,154.590,-56.6,0.400,-0.400,181.080,1000.0
2025-09-16T15:36:18.441679,-0.180,2.220,154.590,-56.6,0.400,-0.400,181.080,1000.0
2025-09-16T15:36:18.443688,-0.180,2.220,154.590,-56.6,0.400,-0.400,181.080,1000.0
2025-09-16T15:36:18.471715,-0.180,2.220,154.590,-56.6,0.400,-0.400,181.080,1000.0
2025-09-16T15:36:18.473861,-0.180,2.220,154.590,-56.6,0.400,-0.400,181.080,1000.0
2025-09-16T15:36:18.501928,-0.180,2.220,154.590,-56.5,0.400,-0.400,181.080,1000.0
2025-09-16T15:36:18.531978,-0.180,2.220,154.590,-56.5,0.400,-0.400,181.080,1000.0
2025-09-16T15:36:18.532977,-0.180,2.220,154.580,-56.5,0.400,-0.400,181.080,1000.0
2025-09-16T15:36:18.562734,-0.180,2.220,154.580,-56.5,0.400,-0.400,181.080,1000.0
2025-09-16T15:36:18.563734,-0.180,2.220,154.560,-56.5,0.400,-0.400,181.080,1000.0
2025-09-16T15:36:18.592608,-0.180,2.180,154.560,-56.5,0.400,-0.400,181.080,1000.0
2025-09-16T15:36:18.638069,-0.180,2.180,154.560,-56.5,0.400,-0.400,181.080,1000.0
2025-09-16T15:36:18.639056,-0.180,2.180,154.560,-56.6,0.400,-0.400,181.080,1000.0
2025-09-16T15:36:18.683251,-0.180,2.180,154.540,-56.6,0.400,-0.400,181.080,1000.0
2025-09-16T15:36:18.685245,-0.170,2.180,154.540,-56.6,0.400,-0.400,181.080,1000.0
2025-09-16T15:36:18.714901,-0.170,2.180,154.540,-56.6,0.400,-0.400,181.080,1000.0
2025-09-16T15:36:18.745260,-0.170,2.180,154.530,-56.6,0.400,-0.400,181.080,1000.0
2025-09-16T15:36:18.747258,-0.170,2.180,154.520,-56.6,0.400,-0.400,181.080,1000.0
2025-09-16T15:36:18.775238,-0.170,2.180,154.510,-56.6,0.400,-0.400,181.080,1000.0
2025-09-16T15:36:18.776237,-0.170,2.180,154.500,-56.6,0.400,-0.400,181.080,1000.0
2025-09-16T15:36:18.805675,-0.170,2.180,154.490,-56.6,0.400,-0.400,181.080,1000.0
2025-09-16T15:36:18.836214,-0.170,2.180,154.490,-56.6,0.400,-0.400,181.080,1000.0
2025-09-16T15:36:18.837221,-0.180,2.220,154.470,-56.6,0.400,-0.400,181.080,1000.0
2025-09-16T15:36:18.866758,-0.180,2.220,154.470,-56.6,0.400,-0.400,181.080,1000.0
2025-09-16T15:36:18.867757,-0.180,2.220,154.460,-56.6,0.400,-0.400,181.080,1000.0
2025-09-16T15:36:18.896657,-0.180,2.220,154.450,-56.6,0.400,-0.400,181.080,1000.0
2025-09-16T15:36:18.941878,-0.180,2.220,154.450,-56.6,0.400,-0.400,181.080,1000.0
2025-09-16T15:36:18.942879,-0.180,2.220,154.440,-56.6,0.400,-0.400,181.080,1000.0
2025-09-16T15:36:18.987062,-0.180,2.220,154.440,-56.7,0.400,-0.400,181.080,1000.0
2025-09-16T15:36:18.988062,-0.180,2.220,154.440,-56.7,0.400,-0.400,181.080,1000.0
2025-09-16T15:36:18.991062,-0.180,2.220,154.430,-56.7,0.400,-0.400,181.080,1000.0
2025-09-16T15:36:19.047820,-0.180,2.220,154.420,-56.7,0.400,-0.400,181.080,1000.0
2025-09-16T15:36:19.048820,-0.180,2.220,154.410,-56.7,0.400,-0.400,181.080,1000.0
2025-09-16T15:36:19.077799,-0.180,2.220,154.410,-56.7,0.400,-0.400,181.080,1000.0
2025-09-16T15:36:19.079797,-0.180,2.220,154.410,-56.7,0.400,-0.400,181.080,1000.0
2025-09-16T15:36:19.107874,-0.180,2.220,154.410,-56.7,0.400,-0.400,181.080,1000.0
2025-09-16T15:36:19.108874,-0.180,2.220,154.390,-56.7,0.400,-0.400,181.080,1000.0
2025-09-16T15:36:19.137666,-0.180,2.220,154.390,-56.7,0.400,-0.400,181.080,1000.0
2025-09-16T15:36:19.167681,-0.180,2.220,154.390,-56.7,0.400,-0.400,181.080,1000.0
2025-09-16T15:36:19.169679,-0.180,2.220,154.380,-56.7,0.400,-0.400,181.080,1000.0
2025-09-16T15:36:19.212502,-0.180,2.220,154.370,-56.7,0.400,-0.400,181.080,1000.0
2025-09-16T15:36:19.215501,-0.180,2.180,154.370,-56.7,0.400,-0.400,181.080,1000.0
2025-09-16T15:36:19.242398,-0.180,2.180,154.370,-56.7,0.400,-0.400,181.080,1000.0
2025-09-16T15:36:19.272653,-0.180,2.180,154.370,-56.7,0.400,-0.400,181.080,1000.0
2025-09-16T15:36:19.274649,-0.180,2.180,154.370,-56.7,0.400,-0.400,181.080,1000.0
2025-09-16T15:36:19.302696,-0.180,2.180,154.360,-56.7,0.400,-0.400,181.080,1000.0
2025-09-16T15:36:19.303695,-0.180,2.180,154.360,-56.7,0.400,-0.400,181.080,1000.0
2025-09-16T15:36:19.333669,-0.180,2.180,154.360,-56.7,0.400,-0.400,181.080,1000.0
2025-09-16T15:36:19.379561,-0.180,2.180,154.360,-56.7,0.400,-0.400,181.080,1000.0
2025-09-16T15:36:19.381562,-0.180,2.180,154.360,-56.7,0.400,-0.400,181.080,1000.0
2025-09-16T15:36:19.410358,-0.180,2.180,154.360,-56.7,0.400,-0.400,181.080,1000.0
2025-09-16T15:36:19.412358,-0.180,2.180,154.360,-56.7,0.400,-0.400,181.080,1000.0
2025-09-16T15:36:19.440839,-0.180,2.180,154.370,-56.7,0.400,-0.400,181.080,1000.0
2025-09-16T15:36:19.471289,-0.130,2.180,154.370,-56.7,0.400,-0.400,181.080,1000.0
2025-09-16T15:36:19.472291,-0.130,2.180,154.370,-56.7,0.400,-0.400,181.080,1000.0
2025-09-16T15:36:19.515909,-0.130,2.180,154.360,-56.7,0.400,-0.400,181.080,1000.0
2025-09-16T15:36:19.517910,-0.130,2.180,154.360,-56.7,0.400,-0.400,181.080,1000.0
2025-09-16T15:36:19.547440,-0.130,2.180,154.340,-56.7,0.400,-0.400,181.080,1000.0
2025-09-16T15:36:19.577567,-0.130,2.230,154.330,-56.7,0.400,-0.400,181.080,1000.0
2025-09-16T15:36:19.579577,-0.130,2.230,154.320,-56.7,0.400,-0.400,181.080,1000.0
2025-09-16T15:36:19.607466,-0.130,2.230,154.310,-56.7,0.400,-0.400,181.080,1000.0
2025-09-16T15:36:19.608467,-0.130,2.230,154.310,-56.7,0.400,-0.400,181.080,1000.0
2025-09-16T15:36:19.637372,-0.130,2.230,154.310,-56.7,0.400,-0.400,181.080,1000.0
2025-09-16T15:36:19.667462,-0.130,2.230,154.300,-56.7,0.400,-0.400,181.080,1000.0
2025-09-16T15:36:19.682487,-0.130,2.230,154.290,-56.7,0.400,-0.400,181.080,1000.0
2025-09-16T15:36:19.712454,-0.130,2.230,154.290,-56.7,0.400,-0.400,181.080,1000.0
2025-09-16T15:36:19.714452,-0.130,2.230,154.290,-56.7,0.400,-0.400,181.080,1000.0
2025-09-16T15:36:19.756625,-0.130,2.230,154.290,-56.7,0.400,-0.400,181.080,1000.0
2025-09-16T15:36:19.788257,-0.130,2.230,154.290,-56.7,0.400,-0.400,181.080,1000.0
2025-09-16T15:36:19.789259,-0.130,2.230,154.290,-56.7,0.400,-0.400,181.080,1000.0
2025-09-16T15:36:19.818260,-0.130,2.230,154.290,-56.6,0.400,-0.400,181.080,1000.0
2025-09-16T15:36:19.819259,-0.130,2.230,154.290,-56.6,0.400,-0.400,181.080,1000.0
2025-09-16T15:36:19.847733,-0.130,2.230,154.290,-56.6,0.400,-0.400,181.080,1000.0
2025-09-16T15:36:19.878978,-0.130,2.230,154.290,-56.6,0.400,-0.400,181.080,1000.0
2025-09-16T15:36:19.879978,-0.130,2.230,154.300,-56.6,0.400,-0.400,181.080,1000.0
2025-09-16T15:36:19.909441,-0.130,2.230,154.300,-56.6,0.400,-0.400,181.080,1000.0
2025-09-16T15:36:19.912444,-0.130,2.230,154.300,-56.6,0.400,-0.400,181.080,1000.0
2025-09-16T15:36:19.939540,-0.130,2.230,154.300,-56.6,0.400,-0.400,181.080,1000.0
2025-09-16T15:36:19.969530,-0.130,2.230,154.300,-56.6,0.400,-0.400,181.080,1000.0
2025-09-16T15:36:19.984496,-0.130,2.230,154.310,-56.6,0.400,-0.400,181.080,1000.0
2025-09-16T15:36:19.999681,-0.130,2.220,154.310,-56.6,0.400,-0.400,181.080,1000.0
2025-09-16T15:36:20.029723,-0.130,2.220,154.310,-56.6,0.400,-0.400,181.080,1000.0
2025-09-16T15:36:20.058707,-0.130,2.220,154.310,-56.6,0.400,-0.400,181.080,1000.0
2025-09-16T15:36:20.060701,-0.130,2.220,154.320,-56.6,0.400,-0.400,181.080,1000.0
2025-09-16T15:36:20.089872,-0.130,2.220,154.320,-56.6,0.400,-0.400,181.080,1000.0
2025-09-16T15:36:20.120215,-0.130,2.220,154.330,-56.6,0.400,-0.400,181.080,1000.0
2025-09-16T15:36:20.121215,-0.130,2.220,154.320,-56.6,0.400,-0.400,181.080,1000.0
2025-09-16T15:36:20.150788,-0.130,2.220,154.340,-56.6,0.400,-0.400,181.080,1000.0
2025-09-16T15:36:20.151787,-0.130,2.220,154.340,-56.6,0.400,-0.400,181.080,1000.0
2025-09-16T15:36:20.181303,-0.130,2.220,154.340,-56.6,0.400,-0.400,181.080,1000.0
2025-09-16T15:36:20.212573,-0.130,2.220,154.340,-56.6,0.400,-0.400,181.080,1000.0
2025-09-16T15:36:20.215568,-0.130,2.220,154.350,-56.6,0.400,-0.400,181.080,1000.0
2025-09-16T15:36:20.241960,-0.130,2.220,154.350,-56.6,0.400,-0.400,181.080,1000.0
2025-09-16T15:36:20.243959,-0.130,2.230,154.360,-56.6,0.400,-0.400,181.080,1000.0
2025-09-16T15:36:20.272833,-0.130,2.230,154.360,-56.7,0.400,-0.400,181.080,1000.0
2025-09-16T15:36:20.303007,-0.130,2.220,154.360,-56.7,0.400,-0.400,181.080,1000.0
2025-09-16T15:36:20.305016,-0.130,2.230,154.360,-56.7,0.400,-0.400,181.080,1000.0
2025-09-16T15:36:20.347889,-0.130,2.230,154.360,-56.7,0.400,-0.400,181.080,1000.0
2025-09-16T15:36:20.348888,-0.130,2.230,154.360,-56.7,0.400,-0.400,181.080,1000.0
2025-09-16T15:36:20.392800,-0.130,2.220,154.360,-56.7,0.400,-0.400,181.080,1000.0
2025-09-16T15:36:20.423478,-0.130,2.230,154.350,-56.7,0.400,-0.400,181.080,1000.0
2025-09-16T15:36:20.424478,-0.130,2.230,154.350,-56.7,0.400,-0.400,181.080,1000.0
2025-09-16T15:36:20.453499,-0.130,2.220,154.350,-56.7,0.400,-0.400,181.080,1000.0
2025-09-16T15:36:20.454499,-0.130,2.220,154.350,-56.7,0.400,-0.400,181.080,1000.0
2025-09-16T15:36:20.483501,-0.130,2.230,154.350,-56.7,0.400,-0.400,181.080,1000.0
2025-09-16T15:36:20.513591,-0.130,2.220,154.350,-56.7,0.400,-0.400,181.080,1000.0
2025-09-16T15:36:20.515591,-0.130,2.220,154.350,-56.7,0.400,-0.400,181.080,1000.0
2025-09-16T15:36:20.543866,-0.130,2.220,154.350,-56.7,0.400,-0.400,181.080,1000.0
2025-09-16T15:36:20.545867,-0.130,2.220,154.350,-56.7,0.400,-0.400,181.080,1000.0
2025-09-16T15:36:20.589626,-0.130,2.220,154.350,-56.7,0.400,-0.400,181.080,1000.0
2025-09-16T15:36:20.620246,-0.130,2.220,154.350,-56.7,0.400,-0.400,181.080,1000.0
2025-09-16T15:36:20.622246,-0.130,2.180,154.360,-56.7,0.400,-0.400,181.080,1000.0
2025-09-16T15:36:20.650814,-0.130,2.220,154.350,-56.7,0.400,-0.400,181.080,1000.0
2025-09-16T15:36:20.651817,-0.130,2.220,154.350,-56.7,0.400,-0.400,181.080,1000.0
2025-09-16T15:36:20.680855,-0.130,2.220,154.350,-56.7,0.400,-0.400,181.080,1000.0
2025-09-16T15:36:20.724941,-0.130,2.220,154.360,-56.7,0.400,-0.400,181.080,1000.0
2025-09-16T15:36:20.726935,-0.130,2.220,154.360,-56.7,0.400,-0.400,181.080,1000.0
2025-09-16T15:36:20.755125,-0.130,2.220,154.360,-56.7,0.400,-0.400,181.080,1000.0
2025-09-16T15:36:20.757165,-0.130,2.220,154.360,-56.7,0.400,-0.400,181.080,1000.0
2025-09-16T15:36:20.784761,-0.130,2.230,154.360,-56.7,0.400,-0.400,181.080,1000.0
2025-09-16T15:36:20.787759,-0.130,2.230,154.360,-56.7,0.400,-0.400,181.080,1000.0
2025-09-16T15:36:20.816790,-0.130,2.230,154.360,-56.7,0.400,-0.400,181.080,1000.0
2025-09-16T15:36:20.861428,-0.130,2.230,154.360,-56.7,0.400,-0.400,181.080,1000.0
2025-09-16T15:36:20.863428,-0.130,2.230,154.360,-56.7,0.400,-0.400,181.080,1000.0
2025-09-16T15:36:20.891328,-0.130,2.230,154.360,-56.7,0.400,-0.400,181.080,1000.0
2025-09-16T15:36:20.894325,-0.130,2.230,154.360,-56.7,0.400,-0.400,181.080,1000.0
2025-09-16T15:36:20.920366,-0.130,2.230,154.360,-56.7,0.400,-0.400,181.080,1000.0
2025-09-16T15:36:20.952192,-0.130,2.230,154.360,-56.7,0.400,-0.400,181.080,1000.0
2025-09-16T15:36:20.953180,-0.130,2.230,154.350,-56.7,0.400,-0.400,181.080,1000.0
2025-09-16T15:36:20.982635,-0.130,2.230,154.350,-56.7,0.400,-0.400,181.080,1000.0
2025-09-16T15:36:20.999590,-0.130,2.230,154.350,-56.7,0.400,-0.400,181.080,1000.0
2025-09-16T15:36:21.012882,-0.130,2.230,154.360,-56.7,0.400,-0.400,181.080,1000.0
2025-09-16T15:36:21.058672,-0.130,2.230,154.360,-56.7,0.400,-0.400,181.080,1000.0
2025-09-16T15:36:21.059683,-0.130,2.230,154.360,-56.7,0.400,-0.400,181.080,1000.0
2025-09-16T15:36:21.088599,-0.130,2.230,154.360,-56.7,0.400,-0.400,181.080,1000.0
2025-09-16T15:36:21.091597,-0.130,2.230,154.360,-56.6,0.400,-0.400,181.080,1000.0
2025-09-16T15:36:21.133767,-0.130,2.230,154.360,-56.6,0.400,-0.400,181.080,1000.0
2025-09-16T15:36:21.163997,-0.130,2.230,154.360,-56.6,0.400,-0.400,181.080,1000.0
2025-09-16T15:36:21.165996,-0.130,2.230,154.360,-56.6,0.400,-0.400,181.080,1000.0
2025-09-16T15:36:21.194369,-0.130,2.230,154.360,-56.6,0.400,-0.400,181.080,1000.0
2025-09-16T15:36:21.198369,-0.130,2.180,154.360,-56.6,0.400,-0.400,181.080,1000.0
2025-09-16T15:36:21.224398,-0.130,2.180,154.370,-56.6,0.400,-0.400,181.080,1000.0
2025-09-16T15:36:21.254674,-0.130,2.230,154.370,-56.6,0.400,-0.400,181.080,1000.0
2025-09-16T15:36:21.255672,-0.130,2.230,154.370,-56.6,0.400,-0.400,181.080,1000.0
2025-09-16T15:36:21.285259,-0.130,2.230,154.370,-56.6,0.400,-0.400,181.080,1000.0
2025-09-16T15:36:21.288268,-0.130,2.230,154.360,-56.6,0.400,-0.400,181.080,1000.0
2025-09-16T15:36:21.315082,-0.130,2.230,154.360,-56.6,0.400,-0.400,181.080,1000.0
2025-09-16T15:36:21.345655,-0.130,2.230,154.360,-56.6,0.400,-0.400,181.080,1000.0
2025-09-16T15:36:21.347652,-0.130,2.230,154.360,-56.6,0.400,-0.400,181.080,1000.0
2025-09-16T15:36:21.391051,-0.130,2.230,154.350,-56.6,0.400,-0.400,181.080,1000.0
2025-09-16T15:36:21.394798,-0.130,2.230,154.350,-56.6,0.400,-0.400,181.080,1000.0
2025-09-16T15:36:21.421404,-0.130,2.230,154.350,-56.6,0.400,-0.400,181.080,1000.0
2025-09-16T15:36:21.467279,-0.130,2.230,154.340,-56.6,0.400,-0.400,181.080,1000.0
2025-09-16T15:36:21.468279,-0.130,2.230,154.340,-56.6,0.400,-0.400,181.080,1000.0
2025-09-16T15:36:21.498116,-0.130,2.230,154.320,-56.6,0.400,-0.400,181.080,1000.0
2025-09-16T15:36:21.500967,-0.130,2.230,154.320,-56.6,0.400,-0.400,181.080,1000.0
2025-09-16T15:36:21.528505,-0.130,2.230,154.310,-56.6,0.400,-0.400,181.080,1000.0
2025-09-16T15:36:21.530512,-0.170,2.220,154.300,-56.6,0.400,-0.400,181.080,1000.0
2025-09-16T15:36:21.558715,-0.170,2.220,154.300,-56.6,0.400,-0.400,181.080,1000.0
2025-09-16T15:36:21.588930,-0.170,2.220,154.290,-56.6,0.400,-0.400,181.080,1000.0
2025-09-16T15:36:21.592923,-0.170,2.220,154.280,-56.6,0.400,-0.400,181.080,1000.0
2025-09-16T15:36:21.619270,-0.170,2.220,154.280,-56.6,0.400,-0.400,181.080,1000.0
2025-09-16T15:36:21.649670,-0.170,2.220,154.270,-56.6,0.400,-0.400,181.080,1000.0
2025-09-16T15:36:21.651670,-0.170,2.220,154.260,-56.6,0.400,-0.400,181.080,1000.0
2025-09-16T15:36:21.680454,-0.170,2.220,154.260,-56.6,0.400,-0.400,181.080,1000.0
2025-09-16T15:36:21.695450,-0.170,2.220,154.250,-56.6,0.400,-0.400,181.080,1000.0
2025-09-16T15:36:21.724966,-0.170,2.220,154.240,-56.6,0.400,-0.400,181.080,1000.0
2025-09-16T15:36:21.755801,-0.170,2.220,154.240,-56.6,0.400,-0.400,181.080,1000.0
2025-09-16T15:36:21.771092,-0.170,2.220,154.240,-56.6,0.400,-0.400,181.080,1000.0
2025-09-16T15:36:21.801770,-0.170,2.220,154.240,-56.6,0.400,-0.400,181.080,1000.0
2025-09-16T15:36:21.804757,-0.170,2.220,154.220,-56.6,0.400,-0.400,181.080,1000.0
2025-09-16T15:36:21.831834,-0.170,2.220,154.210,-56.6,0.400,-0.400,181.080,1000.0
2025-09-16T15:36:21.862223,-0.170,2.220,154.210,-56.6,0.400,-0.400,181.080,1000.0
2025-09-16T15:36:21.864236,-0.170,2.220,154.210,-56.7,0.400,-0.400,181.080,1000.0
2025-09-16T15:36:21.892449,-0.170,2.220,154.210,-56.7,0.400,-0.400,181.080,1000.0
2025-09-16T15:36:21.895452,-0.170,2.220,154.200,-56.7,0.400,-0.400,181.080,1000.0
2025-09-16T15:36:21.922639,-0.180,2.230,154.190,-56.7,0.400,-0.400,181.080,1000.0
2025-09-16T15:36:21.923639,-0.180,2.230,154.190,-56.7,0.400,-0.400,181.080,1000.0
2025-09-16T15:36:21.953231,-0.180,2.230,154.180,-56.7,0.400,-0.400,181.080,1000.0
2025-09-16T15:36:21.983965,-0.180,2.230,154.180,-56.7,0.400,-0.400,181.080,1000.0
2025-09-16T15:36:21.985965,-0.180,2.230,154.180,-56.7,0.400,-0.400,181.080,1000.0
2025-09-16T15:36:22.029462,-0.180,2.230,154.160,-56.7,0.400,-0.400,181.080,1000.0
2025-09-16T15:36:22.059594,-0.180,2.230,154.160,-56.7,0.400,-0.400,181.080,1000.0
2025-09-16T15:36:22.074473,-0.180,2.230,154.160,-56.7,0.400,-0.400,181.080,1000.0
2025-09-16T15:36:22.105233,-0.180,2.230,154.150,-56.7,0.400,-0.400,181.080,1000.0
2025-09-16T15:36:22.109233,-0.180,2.230,154.140,-56.7,0.400,-0.400,181.080,1000.0
2025-09-16T15:36:22.134993,-0.180,2.180,154.150,-56.7,0.400,-0.400,181.080,1000.0
2025-09-16T15:36:22.135994,-0.180,2.180,154.140,-56.7,0.400,-0.400,181.080,1000.0
2025-09-16T15:36:22.165667,-0.180,2.180,154.130,-56.6,0.400,-0.400,181.080,1000.0
2025-09-16T15:36:22.195719,-0.180,2.180,154.130,-56.6,0.400,-0.400,181.080,1000.0
2025-09-16T15:36:22.200716,-0.170,2.180,154.130,-56.6,0.400,-0.400,181.080,1000.0
2025-09-16T15:36:22.225797,-0.180,2.230,154.110,-56.6,0.400,-0.400,181.080,1000.0
2025-09-16T15:36:22.226797,-0.180,2.230,154.110,-56.6,0.400,-0.400,181.080,1000.0
2025-09-16T15:36:22.255971,-0.180,2.230,154.110,-56.6,0.400,-0.400,181.080,1000.0
2025-09-16T15:36:22.302647,-0.170,2.180,154.110,-56.6,0.400,-0.400,181.080,1000.0
2025-09-16T15:36:22.306652,-0.170,2.180,154.110,-56.6,0.400,-0.400,181.080,1000.0
2025-09-16T15:36:22.331829,-0.130,2.180,154.110,-56.6,0.400,-0.400,181.080,1000.0
2025-09-16T15:36:22.333836,-0.130,2.180,154.110,-56.6,0.400,-0.400,181.080,1000.0
2025-09-16T15:36:22.364461,-0.130,2.220,154.110,-56.7,0.400,-0.400,181.080,1000.0
2025-09-16T15:36:22.393711,-0.130,2.180,154.110,-56.7,0.400,-0.400,181.080,1000.0
2025-09-16T15:36:22.411753,-0.130,2.180,154.110,-56.7,0.400,-0.400,181.080,1000.0
2025-09-16T15:36:22.423762,-0.130,2.180,154.100,-56.7,0.400,-0.400,181.080,1000.0
2025-09-16T15:36:22.438810,-0.130,2.180,154.100,-56.7,0.400,-0.400,181.080,1000.0
2025-09-16T15:36:22.469739,-0.130,2.220,154.100,-56.7,0.400,-0.400,181.080,1000.0
2025-09-16T15:36:22.500424,-0.140,2.220,154.090,-56.7,0.400,-0.400,181.080,1000.0
2025-09-16T15:36:22.503427,-0.140,2.220,154.090,-56.7,0.400,-0.400,181.080,1000.0
2025-09-16T15:36:22.530805,-0.140,2.220,154.090,-56.7,0.400,-0.400,181.080,1000.0
2025-09-16T15:36:22.532804,-0.140,2.220,154.080,-56.7,0.400,-0.400,181.080,1000.0
2025-09-16T15:36:22.561466,-0.140,2.220,154.080,-56.7,0.400,-0.400,181.080,1000.0
2025-09-16T15:36:22.592470,-0.140,2.220,154.080,-56.6,0.400,-0.400,181.080,1000.0
2025-09-16T15:36:22.595481,-0.130,2.220,154.080,-56.6,0.400,-0.400,181.080,1000.0
2025-09-16T15:36:22.637570,-0.130,2.220,154.080,-56.6,0.400,-0.400,181.080,1000.0
2025-09-16T15:36:22.638569,-0.140,2.220,154.080,-56.7,0.400,-0.400,181.080,1000.0
2025-09-16T15:36:22.667772,-0.140,2.220,154.080,-56.7,0.400,-0.400,181.080,1000.0
2025-09-16T15:36:22.698917,-0.140,2.220,154.080,-56.7,0.400,-0.400,181.080,1000.0
2025-09-16T15:36:22.702207,-0.140,2.220,154.080,-56.7,0.400,-0.400,181.080,1000.0
2025-09-16T15:36:22.729751,-0.140,2.220,154.080,-56.7,0.400,-0.400,181.080,1000.0
2025-09-16T15:36:22.731748,-0.140,2.220,154.080,-56.7,0.400,-0.400,181.080,1000.0
2025-09-16T15:36:22.759824,-0.140,2.220,154.080,-56.7,0.400,-0.400,181.080,1000.0
2025-09-16T15:36:22.805581,-0.140,2.220,154.080,-56.7,0.400,-0.400,181.080,1000.0
2025-09-16T15:36:22.808573,-0.130,2.220,154.080,-56.7,0.400,-0.400,181.080,1000.0
2025-09-16T15:36:22.835271,-0.130,2.220,154.090,-56.7,0.400,-0.400,181.080,1000.0
2025-09-16T15:36:22.836270,-0.130,2.220,154.090,-56.7,0.400,-0.400,181.080,1000.0
2025-09-16T15:36:22.866404,-0.130,2.220,154.090,-56.7,0.400,-0.400,181.080,1000.0
2025-09-16T15:36:22.897555,-0.130,2.220,154.100,-56.7,0.400,-0.400,181.080,1000.0
2025-09-16T15:36:22.900551,-0.130,2.220,154.110,-56.7,0.400,-0.400,181.080,1000.0
2025-09-16T15:36:22.928153,-0.130,2.220,154.110,-56.7,0.400,-0.400,181.080,1000.0
2025-09-16T15:36:22.930157,-0.130,2.220,154.120,-56.7,0.400,-0.400,181.080,1000.0
2025-09-16T15:36:22.972804,-0.130,2.220,154.130,-56.7,0.400,-0.400,181.080,1000.0
2025-09-16T15:36:22.973804,-0.130,2.220,154.140,-56.7,0.400,-0.400,181.080,1000.0
2025-09-16T15:36:23.002973,-0.130,2.230,154.140,-56.7,0.400,-0.400,181.080,1000.0
2025-09-16T15:36:23.033618,-0.130,2.230,154.150,-56.7,0.400,-0.400,181.080,1000.0
2025-09-16T15:36:23.034618,-0.130,2.230,154.160,-56.7,0.400,-0.400,181.080,1000.0
2025-09-16T15:36:23.064264,-0.130,2.230,154.160,-56.7,0.400,-0.400,181.080,1000.0
2025-09-16T15:36:23.079271,-0.130,2.230,154.170,-56.7,0.400,-0.400,181.080,1000.0
2025-09-16T15:36:23.094274,-0.130,2.230,154.180,-56.7,0.400,-0.400,181.080,1000.0
2025-09-16T15:36:23.140557,-0.130,2.230,154.190,-56.7,0.400,-0.400,181.080,1000.0
2025-09-16T15:36:23.142557,-0.130,2.230,154.190,-56.7,0.400,-0.400,181.080,1000.0
2025-09-16T15:36:23.155554,-0.130,2.230,154.200,-56.7,0.400,-0.400,181.080,1000.0
2025-09-16T15:36:23.170557,-0.130,2.230,154.210,-56.7,0.400,-0.400,181.080,1000.0
2025-09-16T15:36:23.200554,-0.130,2.230,154.210,-56.7,0.400,-0.400,181.080,1000.0
2025-09-16T15:36:23.231295,-0.130,2.230,154.210,-56.7,0.400,-0.400,181.080,1000.0
2025-09-16T15:36:23.232296,-0.130,2.230,154.220,-56.7,0.400,-0.400,181.080,1000.0
2025-09-16T15:36:23.276294,-0.130,2.230,154.220,-56.7,0.400,-0.400,181.080,1000.0
2025-09-16T15:36:23.277293,-0.130,2.230,154.240,-56.7,0.400,-0.400,181.080,1000.0
2025-09-16T15:36:23.306294,-0.130,2.230,154.240,-56.7,0.400,-0.400,181.080,1000.0
2025-09-16T15:36:23.336305,-0.130,2.230,154.240,-56.7,0.400,-0.400,181.080,1000.0
2025-09-16T15:36:23.337293,-0.130,2.230,154.250,-56.7,0.400,-0.400,181.080,1000.0
2025-09-16T15:36:23.366154,-0.130,2.230,154.250,-56.7,0.400,-0.400,181.080,1000.0
2025-09-16T15:36:23.367152,-0.130,2.230,154.260,-56.7,0.400,-0.400,181.080,1000.0
2025-09-16T15:36:23.396152,-0.130,2.230,154.260,-56.7,0.400,-0.400,181.080,1000.0
2025-09-16T15:36:23.426151,-0.130,2.230,154.270,-56.7,0.400,-0.400,181.080,1000.0
2025-09-16T15:36:23.427151,-0.130,2.230,154.270,-56.7,0.400,-0.400,181.080,1000.0
2025-09-16T15:36:23.470500,-0.130,2.230,154.280,-56.7,0.400,-0.400,181.080,1000.0
2025-09-16T15:36:23.472500,-0.130,2.230,154.290,-56.7,0.400,-0.400,181.080,1000.0
2025-09-16T15:36:23.501533,-0.130,2.230,154.300,-56.7,0.400,-0.400,181.080,1000.0
2025-09-16T15:36:23.546528,-0.130,2.230,154.300,-56.7,0.400,-0.400,181.080,1000.0
2025-09-16T15:36:23.548530,-0.130,2.230,154.300,-56.8,0.400,-0.400,181.080,1000.0
2025-09-16T15:36:23.577082,-0.130,2.230,154.310,-56.8,0.400,-0.400,181.080,1000.0
2025-09-16T15:36:23.578082,-0.130,2.230,154.310,-56.8,0.400,-0.400,181.080,1000.0
2025-09-16T15:36:23.607161,-0.130,2.230,154.310,-56.8,0.400,-0.400,181.080,1000.0
2025-09-16T15:36:23.637185,-0.130,2.230,154.310,-56.8,0.400,-0.400,181.080,1000.0
2025-09-16T15:36:23.639223,-0.130,2.230,154.310,-56.8,0.400,-0.400,181.080,1000.0
2025-09-16T15:36:23.667241,-0.130,2.230,154.310,-56.8,0.400,-0.400,181.080,1000.0
2025-09-16T15:36:23.668241,-0.130,2.230,154.310,-56.8,0.400,-0.400,181.080,1000.0
2025-09-16T15:36:23.697718,-0.130,2.230,154.320,-56.8,0.400,-0.400,181.080,1000.0
2025-09-16T15:36:23.727714,-0.130,2.230,154.320,-56.8,0.400,-0.400,181.080,1000.0
2025-09-16T15:36:23.728714,-0.130,2.230,154.320,-56.8,0.400,-0.400,181.080,1000.0
2025-09-16T15:36:23.772588,-0.130,2.230,154.320,-56.8,0.400,-0.400,181.080,1000.0
2025-09-16T15:36:23.774581,-0.130,2.230,154.330,-56.8,0.400,-0.400,181.080,1000.0
2025-09-16T15:36:23.802515,-0.130,2.230,154.330,-56.8,0.400,-0.400,181.080,1000.0
2025-09-16T15:36:23.848408,-0.180,2.220,154.320,-56.8,0.400,-0.400,181.080,1000.0
2025-09-16T15:36:23.850405,-0.180,2.220,154.320,-56.8,0.400,-0.400,181.080,1000.0
2025-09-16T15:36:23.878472,-0.180,2.220,154.330,-56.8,0.400,-0.400,181.080,1000.0
2025-09-16T15:36:23.880475,-0.180,2.220,154.330,-56.8,0.400,-0.400,181.080,1000.0
2025-09-16T15:36:23.908524,-0.180,2.220,154.330,-56.8,0.400,-0.400,181.080,1000.0
2025-09-16T15:36:23.938472,-0.180,2.220,154.340,-56.8,0.400,-0.400,181.080,1000.0
2025-09-16T15:36:23.939472,-0.180,2.220,154.340,-56.8,0.400,-0.400,181.080,1000.0
2025-09-16T15:36:23.969022,-0.130,2.230,154.350,-56.8,0.400,-0.400,181.080,1000.0
2025-09-16T15:36:23.970013,-0.130,2.230,154.350,-56.8,0.400,-0.400,181.080,1000.0
2025-09-16T15:36:23.999220,-0.130,2.230,154.360,-56.8,0.400,-0.400,181.080,1000.0
2025-09-16T15:36:24.000219,-0.130,2.230,154.350,-56.7,0.400,-0.400,181.080,1000.0
2025-09-16T15:36:24.044668,-0.130,2.230,154.350,-56.7,0.400,-0.400,181.080,1000.0
2025-09-16T15:36:24.074696,-0.130,2.230,154.350,-56.7,0.400,-0.400,181.080,1000.0
2025-09-16T15:36:24.076708,-0.130,2.230,154.360,-56.7,0.400,-0.400,181.080,1000.0
2025-09-16T15:36:24.104695,-0.180,2.220,154.350,-56.7,0.400,-0.400,181.080,1000.0
2025-09-16T15:36:24.105694,-0.180,2.220,154.350,-56.7,0.400,-0.400,181.080,1000.0
2025-09-16T15:36:24.134703,-0.180,2.220,154.360,-56.7,0.400,-0.400,181.080,1000.0
2025-09-16T15:36:24.179697,-0.180,2.220,154.360,-56.7,0.400,-0.400,181.080,1000.0
2025-09-16T15:36:24.181695,-0.130,2.220,154.360,-56.7,0.400,-0.400,181.080,1000.0
2025-09-16T15:36:24.209696,-0.130,2.220,154.370,-56.7,0.400,-0.400,181.080,1000.0
2025-09-16T15:36:24.212697,-0.130,2.220,154.370,-56.7,0.400,-0.400,181.080,1000.0
2025-09-16T15:36:24.240155,-0.130,2.220,154.370,-56.7,0.400,-0.400,181.080,1000.0
2025-09-16T15:36:24.285286,-0.180,2.180,154.370,-56.7,0.400,-0.400,181.080,1000.0
2025-09-16T15:36:24.287284,-0.170,2.180,154.390,-56.7,0.400,-0.400,181.080,1000.0
2025-09-16T15:36:24.315694,-0.220,2.180,154.380,-56.7,0.400,-0.400,181.080,1000.0
2025-09-16T15:36:24.318693,-0.220,2.180,154.400,-56.7,0.400,-0.400,181.080,1000.0
2025-09-16T15:36:24.345900,-0.220,2.180,154.400,-56.7,0.400,-0.400,181.080,1000.0
2025-09-16T15:36:24.375873,-0.180,2.230,154.360,-56.7,0.400,-0.400,181.080,1000.0
2025-09-16T15:36:24.377870,-0.170,2.220,154.350,-56.7,0.400,-0.400,181.080,1000.0
2025-09-16T15:36:24.406504,-0.130,2.230,154.360,-56.8,0.400,-0.400,181.080,1000.0
2025-09-16T15:36:24.407504,-0.180,2.230,154.380,-56.8,0.400,-0.400,181.080,1000.0
2025-09-16T15:36:24.437709,-0.180,2.220,154.380,-56.8,0.400,-0.400,181.080,1000.0
2025-09-16T15:36:24.468459,-0.130,2.230,154.380,-56.8,0.400,-0.400,181.080,1000.0
2025-09-16T15:36:24.483904,-0.130,2.230,154.380,-56.8,0.400,-0.400,181.080,1000.0
2025-09-16T15:36:24.498719,-0.130,2.230,154.380,-56.8,0.400,-0.400,181.080,1000.0
2025-09-16T15:36:24.513720,-0.130,2.220,154.370,-56.8,0.400,-0.400,181.080,1000.0
2025-09-16T15:36:24.544288,-0.180,2.180,154.370,-56.8,0.400,-0.400,181.080,1000.0
2025-09-16T15:36:24.589852,-0.170,2.180,154.370,-56.8,0.400,-0.400,181.080,1000.0
2025-09-16T15:36:24.591852,-0.130,2.180,154.370,-56.8,0.400,-0.400,181.080,1000.0
2025-09-16T15:36:24.620390,-0.140,2.180,154.360,-56.8,0.400,-0.400,181.080,1000.0
2025-09-16T15:36:24.621394,-0.130,2.220,154.360,-56.8,0.400,-0.400,181.080,1000.0
2025-09-16T15:36:24.650479,-0.130,2.180,154.370,-56.7,0.400,-0.400,181.080,1000.0
2025-09-16T15:36:24.681111,-0.130,2.180,154.360,-56.7,0.400,-0.400,181.080,1000.0
2025-09-16T15:36:24.684107,-0.130,2.180,154.360,-56.7,0.400,-0.400,181.080,1000.0
2025-09-16T15:36:24.711695,-0.130,2.180,154.340,-56.7,0.400,-0.400,181.080,1000.0
2025-09-16T15:36:24.715696,-0.130,2.180,154.340,-56.7,0.400,-0.400,181.080,1000.0
2025-09-16T15:36:24.741568,-0.130,2.180,154.350,-56.7,0.400,-0.400,181.080,1000.0
2025-09-16T15:36:24.771919,-0.130,2.180,154.340,-56.7,0.400,-0.400,181.080,1000.0
2025-09-16T15:36:24.772920,-0.130,2.230,154.300,-56.7,0.400,-0.400,181.080,1000.0
2025-09-16T15:36:24.802266,-0.130,2.270,154.290,-56.7,0.400,-0.400,181.080,1000.0
2025-09-16T15:36:24.818338,-0.130,2.270,154.290,-56.7,0.400,-0.400,181.080,1000.0
2025-09-16T15:36:24.832365,-0.130,2.230,154.300,-56.7,0.400,-0.400,181.080,1000.0
2025-09-16T15:36:24.891585,-0.180,2.230,154.300,-56.7,0.400,-0.400,181.080,1000.0
2025-09-16T15:36:24.893590,-0.180,2.320,154.280,-56.7,0.400,-0.400,181.080,1000.0
2025-09-16T15:36:24.922196,-0.180,2.330,154.290,-56.7,0.400,-0.400,181.080,1000.0
2025-09-16T15:36:24.924180,-0.180,2.320,154.310,-56.7,0.400,-0.400,181.080,1000.0
2025-09-16T15:36:24.954258,-0.170,2.360,154.320,-56.7,0.400,-0.400,181.080,1000.0
2025-09-16T15:36:24.955258,-0.180,2.320,154.320,-56.8,0.400,-0.400,181.080,1000.0
2025-09-16T15:36:24.984280,-0.180,2.320,154.360,-56.8,0.400,-0.400,181.080,1000.0
2025-09-16T15:36:25.014533,-0.230,2.290,154.360,-56.8,0.400,-0.400,181.080,1000.0
2025-09-16T15:36:25.017545,-0.270,2.410,154.370,-56.8,0.400,-0.400,181.080,1000.0
2025-09-16T15:36:25.045397,-0.270,2.660,154.360,-56.8,0.400,-0.400,181.080,1000.0
2025-09-16T15:36:25.048404,-0.220,2.760,154.270,-56.8,0.400,-0.400,181.080,1000.0
2025-09-16T15:36:25.075289,-0.220,2.490,154.210,-56.8,0.400,-0.400,181.080,1000.0
2025-09-16T15:36:25.105198,-0.220,2.030,154.180,-56.8,0.400,-0.400,181.080,1000.0
2025-09-16T15:36:25.106197,-0.210,1.530,153.970,-56.8,0.400,-0.400,181.080,1000.0
2025-09-16T15:36:25.135460,-0.230,1.130,153.550,-56.8,0.400,-0.400,181.080,1000.0
2025-09-16T15:36:25.136460,-0.320,0.740,153.000,-56.8,0.400,-0.400,181.080,1000.0
2025-09-16T15:36:25.180340,-0.560,0.730,152.320,-56.8,0.400,-0.400,181.080,1000.0
2025-09-16T15:36:25.225786,-0.900,1.020,151.270,-56.8,0.400,-0.400,181.080,1000.0
2025-09-16T15:36:25.226790,-1.320,1.430,150.110,-56.8,0.400,-0.400,181.080,1000.0
2025-09-16T15:36:25.255620,-1.890,2.020,148.400,-56.8,0.400,-0.400,181.080,1000.0
2025-09-16T15:36:25.257322,-2.250,2.510,146.970,-56.8,0.400,-0.400,181.080,1000.0
2025-09-16T15:36:25.286255,-2.550,2.980,145.450,-56.8,0.400,-0.400,181.080,1000.0
2025-09-16T15:36:25.317567,-2.820,3.370,143.930,-56.8,0.400,-0.400,181.080,1000.0
2025-09-16T15:36:25.319040,-3.050,3.670,142.460,-56.8,0.400,-0.400,181.080,1000.0
2025-09-16T15:36:25.347082,-3.370,3.920,141.030,-56.8,0.400,-0.400,181.080,1000.0
2025-09-16T15:36:25.349082,-3.970,4.130,139.690,-56.8,0.400,-0.400,181.080,1000.0
2025-09-16T15:36:25.377786,-4.900,4.270,138.510,-56.8,0.400,-0.400,181.080,1000.0
2025-09-16T15:36:25.407851,-6.030,4.370,137.580,-56.8,0.400,-0.400,181.080,1000.0
2025-09-16T15:36:25.408849,-7.190,4.420,136.960,-56.8,0.400,-0.400,181.080,1000.0
2025-09-16T15:36:25.454014,-8.300,4.450,136.610,-56.8,0.400,-0.400,181.080,1000.0
2025-09-16T15:36:25.456012,-9.310,4.410,136.440,-56.8,0.400,-0.400,181.080,1000.0
2025-09-16T15:36:25.484268,-10.510,4.210,136.230,-56.8,0.400,-0.400,181.080,1000.0
2025-09-16T15:36:25.514457,-11.420,3.920,135.970,-56.8,0.400,-0.400,181.080,1000.0
2025-09-16T15:36:25.529361,-12.440,3.400,135.630,-56.8,0.400,-0.400,181.080,1000.0
2025-09-16T15:36:25.559057,-13.070,2.970,135.350,-56.8,0.400,-0.400,181.080,1000.0
2025-09-16T15:36:25.561071,-13.560,2.550,134.670,-56.8,0.400,-0.400,181.080,1000.0
2025-09-16T15:36:25.590124,-13.780,2.280,133.460,-56.8,0.400,-0.400,181.080,1000.0
2025-09-16T15:36:25.619497,-13.690,2.220,131.690,-56.8,0.400,-0.400,181.080,1000.0
2025-09-16T15:36:25.621496,-13.160,2.320,129.870,-56.8,0.400,-0.400,181.080,1000.0
2025-09-16T15:36:25.649960,-12.320,2.430,128.090,-56.9,0.400,-0.400,181.080,1000.0
2025-09-16T15:36:25.651961,-10.870,2.360,125.560,-56.9,0.400,-0.400,181.080,1000.0
2025-09-16T15:36:25.681520,-9.170,1.940,122.920,-56.9,0.400,-0.400,181.080,1000.0
2025-09-16T15:36:25.685520,-7.450,1.270,120.280,-56.9,0.400,-0.400,181.080,1000.0
2025-09-16T15:36:25.711851,-5.130,0.170,116.720,-56.9,0.400,-0.400,181.080,1000.0
2025-09-16T15:36:25.758362,-3.000,-0.840,113.520,-56.9,0.400,-0.400,181.080,1000.0
2025-09-16T15:36:25.760360,-1.180,-1.630,110.850,-56.9,0.400,-0.400,181.080,1000.0
2025-09-16T15:36:25.788722,0.620,-2.340,107.920,-56.9,0.400,-0.400,181.080,1000.0
2025-09-16T15:36:25.791723,3.020,-2.820,104.950,-56.9,0.400,-0.400,181.080,1000.0
2025-09-16T15:36:25.819082,5.170,-2.940,102.800,-56.9,0.400,-0.400,181.080,1000.0
2025-09-16T15:36:25.849145,7.290,-2.820,101.300,-56.9,0.400,-0.400,181.080,1000.0
2025-09-16T15:36:25.851145,9.180,-2.480,100.680,-56.9,0.400,-0.400,181.080,1000.0
2025-09-16T15:36:25.894043,10.680,-2.060,101.000,-56.9,0.400,-0.400,181.080,1000.0
2025-09-16T15:36:25.899061,11.850,-1.740,102.250,-57.0,0.400,-0.400,181.080,1000.0
2025-09-16T15:36:25.925576,12.930,-1.600,104.410,-57.0,0.400,-0.400,181.080,1000.0
2025-09-16T15:36:25.956258,13.920,-1.750,107.440,-57.0,0.400,-0.400,181.080,1000.0
2025-09-16T15:36:25.958258,14.500,-2.220,110.870,-57.0,0.400,-0.400,181.080,1000.0
2025-09-16T15:36:25.987582,14.890,-2.940,114.500,-57.0,0.400,-0.400,181.080,1000.0
2025-09-16T15:36:25.990581,15.360,-3.680,118.130,-57.0,0.400,-0.400,181.080,1000.0
2025-09-16T15:36:26.017592,15.900,-4.520,123.290,-57.0,0.400,-0.400,181.080,1000.0
2025-09-16T15:36:26.047682,16.470,-5.190,128.080,-57.0,0.400,-0.400,181.080,1000.0
2025-09-16T15:36:26.049679,17.040,-5.930,132.730,-57.0,0.400,-0.400,181.080,1000.0
2025-09-16T15:36:26.093458,17.670,-6.540,136.530,-57.0,0.400,-0.400,181.080,1000.0
2025-09-16T15:36:26.098405,18.390,-7.120,141.150,-57.0,0.400,-0.400,181.080,1000.0
2025-09-16T15:36:26.123852,19.070,-7.480,144.650,-57.0,0.400,-0.400,181.080,1000.0
2025-09-16T15:36:26.154283,19.670,-8.040,147.260,-57.0,0.400,-0.400,181.080,1000.0
2025-09-16T15:36:26.168613,20.130,-8.890,149.030,-57.0,0.400,-0.400,181.080,1000.0
2025-09-16T15:36:26.184556,19.790,-9.850,147.680,-57.0,0.400,-0.400,181.080,1000.0
2025-09-16T15:36:26.201564,19.970,-10.750,147.620,-57.0,0.400,-0.400,181.080,1000.0
2025-09-16T15:36:26.214623,19.870,-12.010,146.490,-57.0,0.400,-0.400,181.080,1000.0
2025-09-16T15:36:26.260037,19.500,-13.260,144.810,-57.0,0.400,-0.400,181.080,1000.0
2025-09-16T15:36:26.261036,18.870,-14.440,142.900,-57.0,0.400,-0.400,181.080,1000.0
2025-09-16T15:36:26.290290,17.990,-15.500,141.050,-57.0,0.400,-0.400,181.080,1000.0
2025-09-16T15:36:26.292870,17.000,-16.520,138.960,-57.0,0.400,-0.400,181.080,1000.0
2025-09-16T15:36:26.320071,15.940,-17.450,136.750,-57.0,0.400,-0.400,181.080,1000.0
2025-09-16T15:36:26.366444,14.770,-18.290,134.650,-57.0,0.400,-0.400,181.080,1000.0
2025-09-16T15:36:26.368442,13.560,-19.040,132.770,-57.0,0.400,-0.400,181.080,1000.0
2025-09-16T15:36:26.396716,12.280,-19.630,131.060,-57.0,0.400,-0.400,181.080,1000.0
2025-09-16T15:36:26.400710,10.990,-20.080,129.520,-57.0,0.400,-0.400,181.080,1000.0
2025-09-16T15:36:26.426767,10.260,-20.410,128.570,-57.0,0.400,-0.400,181.080,1000.0
2025-09-16T15:36:26.456995,9.060,-20.780,126.920,-57.0,0.400,-0.400,181.080,1000.0
2025-09-16T15:36:26.457978,8.220,-20.930,125.750,-57.0,0.400,-0.400,181.080,1000.0
2025-09-16T15:36:26.487885,7.570,-20.990,125.110,-57.0,0.400,-0.400,181.080,1000.0
2025-09-16T15:36:26.501883,7.080,-21.000,124.600,-57.0,0.400,-0.400,181.080,1000.0
2025-09-16T15:36:26.517933,6.770,-20.960,124.240,-57.0,0.400,-0.400,181.080,1000.0
2025-09-16T15:36:26.547931,6.370,-20.710,124.170,-57.0,0.400,-0.400,181.080,1000.0
2025-09-16T15:36:26.562931,6.060,-20.490,124.380,-57.0,0.400,-0.400,181.080,1000.0
2025-09-16T15:36:26.592931,5.890,-20.360,124.770,-57.0,0.400,-0.400,181.080,1000.0
2025-09-16T15:36:26.596933,5.750,-20.260,125.280,-57.0,0.400,-0.400,181.080,1000.0
2025-09-16T15:36:26.637240,5.640,-20.200,125.920,-57.0,0.400,-0.400,181.080,1000.0
2025-09-16T15:36:26.639207,5.560,-20.200,126.320,-57.1,0.400,-0.400,181.080,1000.0
2025-09-16T15:36:26.668800,5.570,-20.310,127.060,-57.1,0.400,-0.400,181.080,1000.0
2025-09-16T15:36:26.699248,5.660,-20.430,127.910,-57.1,0.400,-0.400,181.080,1000.0
2025-09-16T15:36:26.702247,5.830,-20.580,128.890,-57.1,0.400,-0.400,181.080,1000.0
2025-09-16T15:36:26.728252,6.140,-20.710,129.930,-57.0,0.400,-0.400,181.080,1000.0
2025-09-16T15:36:26.759247,6.580,-20.750,130.960,-57.0,0.400,-0.400,181.080,1000.0
2025-09-16T15:36:26.760247,7.130,-20.710,131.850,-57.0,0.400,-0.400,181.080,1000.0
2025-09-16T15:36:26.789246,7.760,-20.300,132.500,-57.0,0.400,-0.400,181.080,1000.0
2025-09-16T15:36:26.792246,8.310,-19.910,132.870,-57.0,0.400,-0.400,181.080,1000.0
2025-09-16T15:36:26.819246,8.200,-19.500,132.260,-57.0,0.400,-0.400,181.080,1000.0
2025-09-16T15:36:26.820246,8.160,-18.920,131.740,-57.0,0.400,-0.400,181.080,1000.0
2025-09-16T15:36:26.849218,8.140,-18.200,131.460,-57.0,0.400,-0.400,181.080,1000.0
2025-09-16T15:36:26.879601,7.950,-17.250,131.050,-57.1,0.400,-0.400,181.080,1000.0
2025-09-16T15:36:26.897313,7.780,-16.140,130.680,-57.1,0.400,-0.400,181.080,1000.0
2025-09-16T15:36:26.925373,7.440,-14.900,130.430,-57.1,0.400,-0.400,181.080,1000.0
2025-09-16T15:36:26.940545,7.030,-13.690,130.460,-57.1,0.400,-0.400,181.080,1000.0
2025-09-16T15:36:26.971519,6.580,-12.360,130.590,-57.1,0.400,-0.400,181.080,1000.0
2025-09-16T15:36:27.001964,6.350,-11.330,130.720,-57.1,0.400,-0.400,181.080,1000.0
2025-09-16T15:36:27.006969,6.090,-10.090,130.830,-57.1,0.400,-0.400,181.080,1000.0
2025-09-16T15:36:27.032013,5.860,-8.660,130.910,-57.1,0.400,-0.400,181.080,1000.0
2025-09-16T15:36:27.034017,5.550,-7.020,130.770,-57.1,0.400,-0.400,181.080,1000.0
2025-09-16T15:36:27.062136,5.370,-5.300,130.930,-57.0,0.400,-0.400,181.080,1000.0
2025-09-16T15:36:27.092512,5.150,-3.430,130.840,-57.0,0.400,-0.400,181.080,1000.0
2025-09-16T15:36:27.095512,4.950,-1.500,130.640,-57.0,0.400,-0.400,181.080,1000.0
2025-09-16T15:36:27.121545,4.680,0.490,130.490,-57.0,0.400,-0.400,181.080,1000.0
2025-09-16T15:36:27.123557,4.320,2.750,130.190,-57.0,0.400,-0.400,181.080,1000.0
2025-09-16T15:36:27.152915,3.870,5.280,129.690,-57.0,0.400,-0.400,181.080,1000.0
2025-09-16T15:36:27.183565,3.380,7.930,129.370,-57.0,0.400,-0.400,181.080,1000.0
2025-09-16T15:36:27.213751,1.740,12.030,128.980,-57.0,0.400,-0.400,181.080,1000.0
2025-09-16T15:36:27.217751,0.500,15.410,128.260,-57.0,0.400,-0.400,181.080,1000.0
2025-09-16T15:36:27.243509,-0.700,18.650,127.370,-57.0,0.400,-0.400,181.080,1000.0
2025-09-16T15:36:27.258516,-1.690,21.260,126.620,-57.0,0.400,-0.400,181.080,1000.0
2025-09-16T15:36:27.303959,-3.030,24.320,125.990,-57.0,0.400,-0.400,181.080,1000.0
2025-09-16T15:36:27.306970,-4.020,26.620,125.660,-57.0,0.400,-0.400,181.080,1000.0
2025-09-16T15:36:27.334443,-4.780,28.620,125.610,-57.0,0.400,-0.400,181.080,1000.0
2025-09-16T15:36:27.335444,-5.570,30.560,125.710,-57.0,0.400,-0.400,181.080,1000.0
2025-09-16T15:36:27.364615,-6.550,32.670,125.910,-57.0,0.400,-0.400,181.080,1000.0
2025-09-16T15:36:27.394779,-7.360,34.120,126.230,-57.0,0.400,-0.400,181.080,1000.0
2025-09-16T15:36:27.397778,-8.200,35.160,126.680,-57.0,0.400,-0.400,181.080,1000.0
2025-09-16T15:36:27.425353,-8.990,35.760,127.360,-57.0,0.400,-0.400,181.080,1000.0
2025-09-16T15:36:27.426353,-9.640,36.160,128.100,-57.0,0.400,-0.400,181.080,1000.0
2025-09-16T15:36:27.455383,-10.150,36.540,128.910,-57.0,0.400,-0.400,181.080,1000.0
2025-09-16T15:36:27.501601,-10.700,37.140,128.270,-57.0,0.400,-0.400,181.080,1000.0
2025-09-16T15:36:27.504616,-11.050,37.830,128.210,-57.0,0.400,-0.400,181.080,1000.0
2025-09-16T15:36:27.531635,-11.540,38.790,128.260,-57.0,0.400,-0.400,181.080,1000.0
2025-09-16T15:36:27.533635,-12.240,39.970,127.920,-57.0,0.400,-0.400,181.080,1000.0
2025-09-16T15:36:27.561396,-12.820,41.010,127.640,-57.0,0.400,-0.400,181.080,1000.0
2025-09-16T15:36:27.608099,-13.450,41.990,127.390,-57.0,0.400,-0.400,181.080,1000.0
2025-09-16T15:36:27.612102,-14.090,42.880,127.430,-57.0,0.400,-0.400,181.080,1000.0
2025-09-16T15:36:27.638427,-14.740,43.620,127.370,-57.0,0.400,-0.400,181.080,1000.0
2025-09-16T15:36:27.639417,-15.250,44.110,127.480,-57.0,0.400,-0.400,181.080,1000.0
2025-09-16T15:36:27.668647,-16.340,44.550,128.120,-57.0,0.400,-0.400,181.080,1000.0
2025-09-16T15:36:27.699794,-17.100,44.480,128.860,-57.0,0.400,-0.400,181.080,1000.0
2025-09-16T15:36:27.703794,-17.390,43.900,129.730,-57.0,0.400,-0.400,181.080,1000.0
2025-09-16T15:36:27.729719,-17.290,42.840,130.790,-57.0,0.400,-0.400,181.080,1000.0
2025-09-16T15:36:27.730718,-17.020,41.810,131.610,-57.0,0.400,-0.400,181.080,1000.0
2025-09-16T15:36:27.760257,-16.630,40.430,132.530,-57.0,0.400,-0.400,181.080,1000.0
2025-09-16T15:36:27.762257,-16.370,38.620,133.570,-57.0,0.400,-0.400,181.080,1000.0
2025-09-16T15:36:27.805425,-16.200,36.870,134.570,-57.0,0.400,-0.400,181.080,1000.0
2025-09-16T15:36:27.835787,-16.140,34.990,135.650,-57.0,0.400,-0.400,181.080,1000.0
2025-09-16T15:36:27.836787,-16.140,33.020,136.720,-57.0,0.400,-0.400,181.080,1000.0
2025-09-16T15:36:27.866145,-16.250,30.860,137.780,-57.0,0.400,-0.400,181.080,1000.0
2025-09-16T15:36:27.868144,-16.510,28.730,138.710,-57.0,0.400,-0.400,181.080,1000.0
2025-09-16T15:36:27.896332,-16.760,26.950,139.480,-57.0,0.400,-0.400,181.080,1000.0
2025-09-16T15:36:27.926796,-17.310,23.580,140.980,-57.0,0.400,-0.400,181.080,1000.0
2025-09-16T15:36:27.941875,-17.860,21.280,141.900,-56.9,0.400,-0.400,181.080,1000.0
2025-09-16T15:36:27.972267,-18.480,19.070,142.620,-56.9,0.400,-0.400,181.080,1000.0
2025-09-16T15:36:27.974267,-19.140,16.910,143.250,-56.9,0.400,-0.400,181.080,1000.0
2025-09-16T15:36:28.002601,-19.900,15.100,143.790,-56.9,0.400,-0.400,181.080,1000.0
2025-09-16T15:36:28.032786,-19.890,13.470,143.400,-56.9,0.400,-0.400,181.080,1000.0
2025-09-16T15:36:28.034787,-19.790,11.480,143.100,-56.9,0.400,-0.400,181.080,1000.0
2025-09-16T15:36:28.077252,-20.090,9.710,143.610,-57.0,0.400,-0.400,181.080,1000.0
2025-09-16T15:36:28.079257,-20.190,8.360,143.670,-57.0,0.400,-0.400,181.080,1000.0
2025-09-16T15:36:28.108277,-19.950,6.690,143.390,-57.0,0.400,-0.400,181.080,1000.0
2025-09-16T15:36:28.138030,-20.020,5.320,143.340,-57.0,0.400,-0.400,181.080,1000.0
2025-09-16T15:36:28.140029,-20.400,3.830,143.540,-57.0,0.400,-0.400,181.080,1000.0
2025-09-16T15:36:28.168450,-20.650,2.250,143.780,-57.0,0.400,-0.400,181.080,1000.0
2025-09-16T15:36:28.169450,-20.750,0.520,143.920,-57.0,0.400,-0.400,181.080,1000.0
2025-09-16T15:36:28.198321,-21.020,-1.210,144.000,-57.0,0.400,-0.400,181.080,1000.0
2025-09-16T15:36:28.228770,-21.280,-2.820,143.990,-57.0,0.400,-0.400,181.080,1000.0
2025-09-16T15:36:28.229771,-21.360,-3.870,143.890,-57.0,0.400,-0.400,181.080,1000.0
2025-09-16T15:36:28.258946,-21.370,-5.810,143.970,-57.0,0.400,-0.400,181.080,1000.0
2025-09-16T15:36:28.259947,-21.390,-7.590,144.230,-57.0,0.400,-0.400,181.080,1000.0
2025-09-16T15:36:28.289521,-21.190,-9.360,144.430,-57.0,0.400,-0.400,181.080,1000.0
2025-09-16T15:36:28.335421,-20.790,-11.450,144.580,-57.0,0.400,-0.400,181.080,1000.0
2025-09-16T15:36:28.336420,-20.530,-13.040,144.700,-57.0,0.400,-0.400,181.080,1000.0
2025-09-16T15:36:28.381356,-20.210,-14.380,144.870,-57.1,0.400,-0.400,181.080,1000.0
2025-09-16T15:36:28.384357,-19.710,-15.690,145.060,-57.1,0.400,-0.400,181.080,1000.0
2025-09-16T15:36:28.412000,-19.200,-16.940,145.220,-57.1,0.400,-0.400,181.080,1000.0
2025-09-16T15:36:28.441882,-18.870,-17.740,145.290,-57.1,0.400,-0.400,181.080,1000.0
2025-09-16T15:36:28.443875,-18.110,-18.760,145.430,-57.1,0.400,-0.400,181.080,1000.0
2025-09-16T15:36:28.472304,-17.270,-19.380,145.610,-57.1,0.400,-0.400,181.080,1000.0
2025-09-16T15:36:28.473343,-16.550,-19.760,145.670,-57.1,0.400,-0.400,181.080,1000.0
2025-09-16T15:36:28.502486,-15.950,-19.920,145.610,-57.1,0.400,-0.400,181.080,1000.0
2025-09-16T15:36:28.532824,-15.400,-19.890,145.480,-57.1,0.400,-0.400,181.080,1000.0
2025-09-16T15:36:28.534824,-14.930,-19.600,145.220,-57.1,0.400,-0.400,181.080,1000.0
2025-09-16T15:36:28.562376,-14.610,-19.090,144.790,-57.1,0.400,-0.400,181.080,1000.0
2025-09-16T15:36:28.563376,-14.530,-18.480,144.160,-57.1,0.400,-0.400,181.080,1000.0
2025-09-16T15:36:28.591437,-14.720,-17.880,143.300,-57.1,0.400,-0.400,181.080,1000.0
2025-09-16T15:36:28.653445,-15.020,-17.360,142.270,-57.1,0.400,-0.400,181.080,1000.0
2025-09-16T15:36:28.654444,-15.380,-16.930,141.240,-57.1,0.400,-0.400,181.080,1000.0
2025-09-16T15:36:28.683420,-15.950,-16.540,140.110,-57.1,0.400,-0.400,181.080,1000.0
2025-09-16T15:36:28.684419,-16.660,-16.160,138.840,-57.1,0.400,-0.400,181.080,1000.0
2025-09-16T15:36:28.713386,-17.420,-15.790,137.580,-57.1,0.400,-0.400,181.080,1000.0
2025-09-16T15:36:28.714388,-18.340,-15.320,136.330,-57.1,0.400,-0.400,181.080,1000.0
2025-09-16T15:36:28.743535,-19.290,-14.760,135.210,-57.1,0.400,-0.400,181.080,1000.0
2025-09-16T15:36:28.773747,-20.510,-14.040,134.000,-57.1,0.400,-0.400,181.080,1000.0
2025-09-16T15:36:28.774747,-21.680,-13.280,132.680,-57.1,0.400,-0.400,181.080,1000.0
2025-09-16T15:36:28.804259,-22.890,-12.700,131.630,-57.1,0.400,-0.400,181.080,1000.0
2025-09-16T15:36:28.806257,-24.170,-12.220,130.780,-57.1,0.400,-0.400,181.080,1000.0
2025-09-16T15:36:28.834618,-25.570,-11.660,130.110,-57.1,0.400,-0.400,181.080,1000.0
2025-09-16T15:36:28.864539,-26.530,-11.180,129.830,-57.1,0.400,-0.400,181.080,1000.0
2025-09-16T15:36:28.866542,-27.360,-10.510,129.800,-57.1,0.400,-0.400,181.080,1000.0
2025-09-16T15:36:28.909814,-28.060,-9.770,130.160,-57.1,0.400,-0.400,181.080,1000.0
2025-09-16T15:36:28.911814,-28.670,-9.100,130.860,-57.1,0.400,-0.400,181.080,1000.0
2025-09-16T15:36:28.939715,-29.200,-8.520,131.950,-57.1,0.400,-0.400,181.080,1000.0
2025-09-16T15:36:28.986459,-29.350,-7.960,133.730,-57.1,0.400,-0.400,181.080,1000.0
2025-09-16T15:36:28.987459,-29.350,-7.680,135.150,-57.1,0.400,-0.400,181.080,1000.0
2025-09-16T15:36:29.001534,-29.480,-7.600,137.100,-57.1,0.400,-0.400,181.080,1000.0
2025-09-16T15:36:29.016876,-29.460,-7.760,138.770,-57.1,0.400,-0.400,181.080,1000.0
2025-09-16T15:36:29.047280,-29.420,-8.100,140.150,-57.1,0.400,-0.400,181.080,1000.0
2025-09-16T15:36:29.077655,-29.440,-8.620,141.180,-57.1,0.400,-0.400,181.080,1000.0
2025-09-16T15:36:29.078651,-29.170,-9.400,142.090,-57.1,0.400,-0.400,181.080,1000.0
2025-09-16T15:36:29.108380,-28.510,-10.100,142.720,-57.1,0.400,-0.400,181.080,1000.0
2025-09-16T15:36:29.109381,-27.650,-10.980,143.230,-57.1,0.400,-0.400,181.080,1000.0
2025-09-16T15:36:29.139113,-26.330,-11.980,143.550,-57.0,0.400,-0.400,181.080,1000.0
2025-09-16T15:36:29.169553,-24.840,-12.750,143.670,-57.0,0.400,-0.400,181.080,1000.0
2025-09-16T15:36:29.170975,-23.210,-13.370,143.680,-57.0,0.400,-0.400,181.080,1000.0
2025-09-16T15:36:29.200075,-21.760,-13.800,143.630,-57.0,0.400,-0.400,181.080,1000.0
2025-09-16T15:36:29.202073,-19.940,-14.220,143.500,-57.1,0.400,-0.400,181.080,1000.0
2025-09-16T15:36:29.245095,-18.350,-14.420,143.350,-57.1,0.400,-0.400,181.080,1000.0
2025-09-16T15:36:29.275626,-16.800,-14.360,143.150,-57.1,0.400,-0.400,181.080,1000.0
2025-09-16T15:36:29.276617,-15.470,-14.110,142.860,-57.1,0.400,-0.400,181.080,1000.0
2025-09-16T15:36:29.305567,-14.300,-13.810,142.580,-57.0,0.400,-0.400,181.080,1000.0
2025-09-16T15:36:29.320758,-13.390,-13.570,142.430,-57.1,0.400,-0.400,181.080,1000.0
2025-09-16T15:36:29.336056,-12.510,-13.250,142.410,-57.1,0.400,-0.400,181.080,1000.0
2025-09-16T15:36:29.381288,-11.760,-12.910,142.490,-57.1,0.400,-0.400,181.080,1000.0
2025-09-16T15:36:29.383292,-11.150,-12.580,142.620,-57.1,0.400,-0.400,181.080,1000.0
2025-09-16T15:36:29.411772,-10.590,-12.350,142.900,-57.1,0.400,-0.400,181.080,1000.0
2025-09-16T15:36:29.414766,-9.830,-12.140,143.290,-57.1,0.400,-0.400,181.080,1000.0
2025-09-16T15:36:29.441806,-9.120,-11.850,143.750,-57.1,0.400,-0.400,181.080,1000.0
2025-09-16T15:36:29.472490,-8.620,-11.540,144.250,-57.1,0.400,-0.400,181.080,1000.0
2025-09-16T15:36:29.473489,-8.220,-11.220,144.750,-57.1,0.400,-0.400,181.080,1000.0
2025-09-16T15:36:29.517463,-7.890,-11.020,145.260,-57.1,0.400,-0.400,181.080,1000.0
2025-09-16T15:36:29.519476,-7.530,-10.780,145.900,-57.1,0.400,-0.400,181.080,1000.0
2025-09-16T15:36:29.547770,-7.290,-10.530,146.350,-57.1,0.400,-0.400,181.080,1000.0
2025-09-16T15:36:29.577558,-7.110,-10.330,146.710,-57.1,0.400,-0.400,181.080,1000.0
2025-09-16T15:36:29.578560,-6.610,-10.140,147.030,-57.1,0.400,-0.400,181.080,1000.0
2025-09-16T15:36:29.607516,-6.070,-10.050,147.290,-57.1,0.400,-0.400,181.080,1000.0
2025-09-16T15:36:29.608516,-5.590,-10.100,147.480,-57.1,0.400,-0.400,181.080,1000.0
2025-09-16T15:36:29.637563,-5.040,-10.270,147.600,-57.1,0.400,-0.400,181.080,1000.0
2025-09-16T15:36:29.651747,-4.450,-10.410,147.590,-57.1,0.400,-0.400,181.080,1000.0
2025-09-16T15:36:29.682769,-3.810,-10.540,147.490,-57.1,0.400,-0.400,181.080,1000.0
2025-09-16T15:36:29.712793,-3.130,-10.680,147.380,-57.1,0.400,-0.400,181.080,1000.0
2025-09-16T15:36:29.713793,-2.420,-10.790,147.300,-57.1,0.400,-0.400,181.080,1000.0
2025-09-16T15:36:29.757588,-1.470,-10.740,147.270,-57.1,0.400,-0.400,181.080,1000.0
2025-09-16T15:36:29.787589,-0.670,-10.640,147.310,-57.1,0.400,-0.400,181.080,1000.0
2025-09-16T15:36:29.789179,0.010,-10.490,147.400,-57.1,0.400,-0.400,181.080,1000.0
2025-09-16T15:36:29.818247,0.530,-10.310,147.500,-57.1,0.400,-0.400,181.080,1000.0
2025-09-16T15:36:29.821245,1.110,-10.020,147.720,-57.1,0.400,-0.400,181.080,1000.0
2025-09-16T15:36:29.848634,1.690,-9.660,147.970,-57.1,0.400,-0.400,181.080,1000.0
2025-09-16T15:36:29.851635,2.280,-9.280,148.260,-57.0,0.400,-0.400,181.080,1000.0
2025-09-16T15:36:29.878633,2.890,-8.890,148.550,-57.0,0.400,-0.400,181.080,1000.0
2025-09-16T15:36:29.908633,3.670,-8.420,148.890,-57.0,0.400,-0.400,181.080,1000.0
2025-09-16T15:36:29.909632,4.510,-7.920,149.220,-57.0,0.400,-0.400,181.080,1000.0
2025-09-16T15:36:29.938632,5.320,-7.430,149.610,-57.0,0.400,-0.400,181.080,1000.0
2025-09-16T15:36:29.939634,6.070,-6.950,150.040,-57.1,0.400,-0.400,181.080,1000.0
2025-09-16T15:36:29.968634,6.720,-6.480,150.480,-57.1,0.400,-0.400,181.080,1000.0
2025-09-16T15:36:30.013633,7.330,-5.980,150.980,-57.1,0.400,-0.400,181.080,1000.0
2025-09-16T15:36:30.028633,7.940,-5.360,151.560,-57.0,0.400,-0.400,181.080,1000.0
2025-09-16T15:36:30.059280,8.440,-4.710,152.080,-57.0,0.400,-0.400,181.080,1000.0
2025-09-16T15:36:30.060273,9.210,-3.570,152.860,-57.0,0.400,-0.400,181.080,1000.0
2025-09-16T15:36:30.089273,9.830,-2.450,153.600,-57.1,0.400,-0.400,181.080,1000.0
2025-09-16T15:36:30.119516,10.250,-1.450,154.210,-57.1,0.400,-0.400,181.080,1000.0
2025-09-16T15:36:30.121515,10.510,-0.310,154.800,-57.1,0.400,-0.400,181.080,1000.0
2025-09-16T15:36:30.149516,10.730,0.730,155.170,-57.1,0.400,-0.400,181.080,1000.0
2025-09-16T15:36:30.151517,10.950,1.730,155.390,-57.1,0.400,-0.400,181.080,1000.0
2025-09-16T15:36:30.179695,11.150,2.500,155.480,-57.1,0.400,-0.400,181.080,1000.0
2025-09-16T15:36:30.210205,11.330,3.060,155.380,-57.1,0.400,-0.400,181.080,1000.0
2025-09-16T15:36:30.211206,11.740,3.560,155.090,-57.1,0.400,-0.400,181.080,1000.0
2025-09-16T15:36:30.240485,12.250,3.870,154.700,-57.1,0.400,-0.400,181.080,1000.0
2025-09-16T15:36:30.241484,12.690,3.850,154.200,-57.1,0.400,-0.400,181.080,1000.0
2025-09-16T15:36:30.285150,13.050,3.610,153.610,-57.1,0.400,-0.400,181.080,1000.0
2025-09-16T15:36:30.316179,13.380,3.280,152.910,-57.1,0.400,-0.400,181.080,1000.0
2025-09-16T15:36:30.319179,13.590,2.870,152.100,-57.1,0.400,-0.400,181.080,1000.0
2025-09-16T15:36:30.345890,13.680,2.390,151.250,-57.1,0.400,-0.400,181.080,1000.0
2025-09-16T15:36:30.360915,13.700,1.860,150.490,-57.1,0.400,-0.400,181.080,1000.0
2025-09-16T15:36:30.390913,13.830,1.490,149.810,-57.1,0.400,-0.400,181.080,1000.0
2025-09-16T15:36:30.421427,13.910,1.190,149.180,-57.1,0.400,-0.400,181.080,1000.0
2025-09-16T15:36:30.422424,13.740,0.870,148.560,-57.1,0.400,-0.400,181.080,1000.0
2025-09-16T15:36:30.451635,13.500,0.650,148.000,-57.1,0.400,-0.400,181.080,1000.0
2025-09-16T15:36:30.452634,13.210,0.470,147.540,-57.1,0.400,-0.400,181.080,1000.0
2025-09-16T15:36:30.482168,12.870,0.230,147.190,-57.1,0.400,-0.400,181.080,1000.0
2025-09-16T15:36:30.513005,12.590,0.050,146.930,-57.1,0.400,-0.400,181.080,1000.0
2025-09-16T15:36:30.515013,12.320,-0.080,146.720,-57.1,0.400,-0.400,181.080,1000.0
2025-09-16T15:36:30.557345,12.270,0.010,146.570,-57.1,0.400,-0.400,181.080,1000.0
2025-09-16T15:36:30.559358,12.220,0.070,146.470,-57.1,0.400,-0.400,181.080,1000.0
2025-09-16T15:36:30.588536,12.050,0.000,146.290,-57.1,0.400,-0.400,181.080,1000.0
2025-09-16T15:36:30.591791,12.060,0.030,146.100,-57.1,0.400,-0.400,181.080,1000.0
2025-09-16T15:36:30.618956,12.070,0.010,145.870,-57.1,0.400,-0.400,181.080,1000.0
2025-09-16T15:36:30.648685,12.100,-0.050,145.560,-57.1,0.400,-0.400,181.080,1000.0
2025-09-16T15:36:30.664424,12.180,-0.140,145.260,-57.1,0.400,-0.400,181.080,1000.0
2025-09-16T15:36:30.679625,12.350,-0.300,144.820,-57.1,0.400,-0.400,181.080,1000.0
2025-09-16T15:36:30.696800,12.720,-0.330,144.210,-57.1,0.400,-0.400,181.080,1000.0
2025-09-16T15:36:30.725571,13.080,-0.530,143.170,-57.1,0.400,-0.400,181.080,1000.0
2025-09-16T15:36:30.756171,13.310,-0.960,141.890,-57.1,0.400,-0.400,181.080,1000.0
2025-09-16T15:36:30.757180,13.440,-1.530,140.660,-57.1,0.400,-0.400,181.080,1000.0
2025-09-16T15:36:30.786508,13.570,-2.400,139.100,-57.1,0.400,-0.400,181.080,1000.0
2025-09-16T15:36:30.789508,13.840,-3.520,137.450,-57.1,0.400,-0.400,181.080,1000.0
2025-09-16T15:36:30.817036,14.090,-4.460,136.210,-57.1,0.400,-0.400,181.080,1000.0
2025-09-16T15:36:30.863046,14.230,-5.410,134.590,-57.1,0.400,-0.400,181.080,1000.0
2025-09-16T15:36:30.865045,14.220,-5.770,133.390,-57.1,0.400,-0.400,181.080,1000.0
2025-09-16T15:36:30.893759,14.080,-5.990,132.500,-57.1,0.400,-0.400,181.080,1000.0
2025-09-16T15:36:30.896759,13.850,-5.790,132.300,-57.1,0.400,-0.400,181.080,1000.0
2025-09-16T15:36:30.923976,13.200,-5.100,132.720,-57.1,0.400,-0.400,181.080,1000.0
2025-09-16T15:36:30.954206,12.200,-3.930,133.390,-57.1,0.400,-0.400,181.080,1000.0
2025-09-16T15:36:30.955205,10.880,-2.340,134.400,-57.1,0.400,-0.400,181.080,1000.0
2025-09-16T15:36:30.984795,9.410,-0.320,135.990,-57.1,0.400,-0.400,181.080,1000.0
2025-09-16T15:36:31.003334,7.620,1.850,138.040,-57.1,0.400,-0.400,181.080,1000.0
2025-09-16T15:36:31.015400,5.530,4.000,140.200,-57.1,0.400,-0.400,181.080,1000.0
2025-09-16T15:36:31.061319,3.260,6.060,142.250,-57.1,0.400,-0.400,181.080,1000.0
2025-09-16T15:36:31.063319,1.010,7.680,144.370,-57.1,0.400,-0.400,181.080,1000.0
2025-09-16T15:36:31.092279,-0.940,8.760,146.230,-57.1,0.400,-0.400,181.080,1000.0
2025-09-16T15:36:31.095281,-3.080,9.520,148.190,-57.1,0.400,-0.400,181.080,1000.0
2025-09-16T15:36:31.122854,-5.150,9.860,150.240,-57.1,0.400,-0.400,181.080,1000.0
2025-09-16T15:36:31.153339,-6.510,9.710,151.960,-57.1,0.400,-0.400,181.080,1000.0
2025-09-16T15:36:31.155337,-7.500,9.320,153.480,-57.1,0.400,-0.400,181.080,1000.0
2025-09-16T15:36:31.198629,-8.120,8.840,154.740,-57.1,0.400,-0.400,181.080,1000.0
2025-09-16T15:36:31.202628,-8.290,8.370,155.610,-57.1,0.400,-0.400,181.080,1000.0
2025-09-16T15:36:31.229257,-8.190,7.940,156.020,-57.1,0.400,-0.400,181.080,1000.0
2025-09-16T15:36:31.259470,-7.900,7.440,156.060,-57.1,0.400,-0.400,181.080,1000.0
2025-09-16T15:36:31.261475,-7.310,6.950,155.530,-57.1,0.400,-0.400,181.080,1000.0
2025-09-16T15:36:31.289605,-6.590,6.410,154.790,-57.1,0.400,-0.400,181.080,1000.0
2025-09-16T15:36:31.292610,-5.770,5.650,153.800,-57.1,0.400,-0.400,181.080,1000.0
2025-09-16T15:36:31.319754,-4.740,4.700,152.250,-57.1,0.400,-0.400,181.080,1000.0
2025-09-16T15:36:31.350264,-3.540,3.600,150.080,-57.1,0.400,-0.400,181.080,1000.0
2025-09-16T15:36:31.365757,-2.570,2.660,148.270,-57.1,0.400,-0.400,181.080,1000.0
2025-09-16T15:36:31.395881,-0.890,0.940,145.300,-57.1,0.400,-0.400,181.080,1000.0
2025-09-16T15:36:31.398881,0.490,-0.460,142.700,-57.1,0.400,-0.400,181.080,1000.0
2025-09-16T15:36:31.424944,1.890,-1.800,139.800,-57.1,0.400,-0.400,181.080,1000.0
2025-09-16T15:36:31.457204,3.090,-3.020,136.840,-57.1,0.400,-0.400,181.080,1000.0
2025-09-16T15:36:31.458203,4.110,-4.070,134.330,-57.1,0.400,-0.400,181.080,1000.0
2025-09-16T15:36:31.503024,5.010,-4.890,132.570,-57.1,0.400,-0.400,181.080,1000.0
2025-09-16T15:36:31.505024,5.690,-5.350,131.650,-57.1,0.400,-0.400,181.080,1000.0
2025-09-16T15:36:31.533237,5.860,-5.300,131.230,-57.1,0.400,-0.400,181.080,1000.0
2025-09-16T15:36:31.535241,5.480,-4.680,131.170,-57.1,0.400,-0.400,181.080,1000.0
2025-09-16T15:36:31.564007,4.820,-3.510,131.850,-57.1,0.400,-0.400,181.080,1000.0
2025-09-16T15:36:31.594285,3.880,-1.850,133.270,-57.1,0.400,-0.400,181.080,1000.0
2025-09-16T15:36:31.597297,2.670,0.160,134.990,-57.1,0.400,-0.400,181.080,1000.0
2025-09-16T15:36:31.624730,1.210,2.340,136.760,-57.1,0.400,-0.400,181.080,1000.0
2025-09-16T15:36:31.625719,-0.410,4.460,138.610,-57.1,0.400,-0.400,181.080,1000.0
2025-09-16T15:36:31.654794,-2.090,6.320,140.550,-57.1,0.400,-0.400,181.080,1000.0
2025-09-16T15:36:31.684968,-3.460,7.660,142.230,-57.1,0.400,-0.400,181.080,1000.0
2025-09-16T15:36:31.702844,-5.170,8.910,144.150,-57.1,0.400,-0.400,181.080,1000.0
2025-09-16T15:36:31.715131,-6.480,9.540,145.600,-57.1,0.400,-0.400,181.080,1000.0
2025-09-16T15:36:31.729606,-7.420,9.780,146.870,-57.1,0.400,-0.400,181.080,1000.0
2025-09-16T15:36:31.760784,-8.050,9.710,147.960,-57.1,0.400,-0.400,181.080,1000.0
2025-09-16T15:36:31.805923,-8.370,9.380,148.810,-57.1,0.400,-0.400,181.080,1000.0
2025-09-16T15:36:31.808922,-8.360,8.850,149.410,-57.1,0.400,-0.400,181.080,1000.0
2025-09-16T15:36:31.835914,-8.070,8.180,149.780,-57.1,0.400,-0.400,181.080,1000.0
2025-09-16T15:36:31.836911,-7.300,7.360,150.000,-57.1,0.400,-0.400,181.080,1000.0
2025-09-16T15:36:31.865919,-6.660,6.620,150.060,-57.1,0.400,-0.400,181.080,1000.0
2025-09-16T15:36:31.896258,-5.950,5.910,149.950,-57.1,0.400,-0.400,181.080,1000.0
2025-09-16T15:36:31.901260,-5.340,5.350,149.780,-57.1,0.400,-0.400,181.080,1000.0
