Timestamp,Roll_Angle,Pitch_Angle,Yaw_Angle,Altitude,Roll_Setpoint,Pitch_Setpoint,Yaw_Setpoint,Altitude_Setpoint
2025-09-03T15:53:10.385768,-2.070,-1.410,2.160,-62.7,0.200,-0.300,180.360,1000.0
2025-09-03T15:53:10.387766,-2.110,-1.390,2.280,-62.7,0.200,-0.300,180.360,1000.0
2025-09-03T15:53:10.496866,-2.110,-1.360,2.430,-62.8,0.200,-0.300,180.360,1000.0
2025-09-03T15:53:10.498818,-2.100,-1.350,2.590,-62.8,0.200,-0.300,180.360,1000.0
2025-09-03T15:53:10.501817,-2.120,-1.350,2.730,-62.8,0.200,-0.300,180.360,1000.0
2025-09-03T15:53:10.502816,-2.180,-1.350,2.870,-62.8,0.200,-0.300,180.360,1000.0
2025-09-03T15:53:10.505821,-2.290,-1.350,2.960,-62.8,0.200,-0.300,180.360,1000.0
2025-09-03T15:53:10.622414,-2.550,-1.350,2.960,-62.8,0.200,-0.300,180.360,1000.0
2025-09-03T15:53:10.625417,-2.950,-1.380,2.880,-62.8,0.200,-0.300,180.360,1000.0
2025-09-03T15:53:10.627415,-3.690,-1.410,2.670,-62.8,0.200,-0.300,180.360,1000.0
2025-09-03T15:53:10.629419,-4.450,-1.430,2.410,-62.8,0.200,-0.300,180.360,1000.0
2025-09-03T15:53:10.631415,-5.730,-1.470,1.970,-62.8,0.200,-0.300,180.360,1000.0
2025-09-03T15:53:10.746610,-6.950,-1.490,1.580,-62.8,0.200,-0.300,180.360,1000.0
2025-09-03T15:53:10.750609,-8.690,-1.530,1.110,-62.8,0.200,-0.300,180.360,1000.0
2025-09-03T15:53:10.752608,-10.120,-1.580,0.890,-62.8,0.200,-0.300,180.360,1000.0
2025-09-03T15:53:10.754607,-11.730,-1.720,0.810,-62.8,0.200,-0.300,180.360,1000.0
2025-09-03T15:53:10.756609,-13.350,-1.960,0.910,-62.8,0.200,-0.300,180.360,1000.0
2025-09-03T15:53:10.869225,-14.510,-2.220,1.040,-62.8,0.200,-0.300,180.360,1000.0
2025-09-03T15:53:10.871338,-15.800,-2.540,1.200,-62.7,0.200,-0.300,180.360,1000.0
2025-09-03T15:53:10.873337,-17.120,-2.850,1.350,-62.7,0.200,-0.300,180.360,1000.0
2025-09-03T15:53:10.875338,-18.680,-3.130,1.520,-62.7,0.200,-0.300,180.360,1000.0
2025-09-03T15:53:10.876337,-20.170,-3.330,1.690,-62.7,0.200,-0.300,180.360,1000.0
2025-09-03T15:53:10.993135,-21.830,-3.510,1.910,-62.7,0.200,-0.300,180.360,1000.0
2025-09-03T15:53:10.995141,-23.390,-3.630,2.150,-62.7,0.200,-0.300,180.360,1000.0
2025-09-03T15:53:10.997142,-25.480,-3.870,2.540,-62.7,0.200,-0.300,180.360,1000.0
2025-09-03T15:53:11.000141,-28.150,-4.150,3.120,-62.8,0.200,-0.300,180.360,1000.0
2025-09-03T15:53:11.002141,-30.650,-4.470,3.730,-62.7,0.200,-0.300,180.360,1000.0
2025-09-03T15:53:11.116798,-32.600,-4.650,4.230,-62.7,0.200,-0.300,180.360,1000.0
2025-09-03T15:53:11.118798,-35.580,-4.880,4.990,-62.7,0.200,-0.300,180.360,1000.0
2025-09-03T15:53:11.120799,-38.440,-5.160,5.720,-62.7,0.200,-0.300,180.360,1000.0
2025-09-03T15:53:11.122801,-40.770,-5.510,6.360,-62.7,0.200,-0.300,180.360,1000.0
2025-09-03T15:53:11.124809,-42.710,-6.020,7.040,-62.7,0.200,-0.300,180.360,1000.0
2025-09-03T15:53:11.243235,-44.010,-6.760,7.750,-62.8,0.200,-0.300,180.360,1000.0
2025-09-03T15:53:11.246236,-44.550,-7.660,8.380,-62.8,0.200,-0.300,180.360,1000.0
2025-09-03T15:53:11.249237,-44.500,-8.460,8.790,-62.7,0.200,-0.300,180.360,1000.0
2025-09-03T15:53:11.251235,-43.650,-9.880,9.190,-62.7,0.200,-0.300,180.360,1000.0
2025-09-03T15:53:11.254238,-42.350,-11.140,9.300,-62.8,0.200,-0.300,180.360,1000.0
2025-09-03T15:53:11.368926,-40.600,-12.390,9.220,-62.8,0.200,-0.300,180.360,1000.0
2025-09-03T15:53:11.369927,-38.490,-13.530,8.930,-62.8,0.200,-0.300,180.360,1000.0
2025-09-03T15:53:11.371928,-36.210,-14.550,8.480,-62.8,0.200,-0.300,180.360,1000.0
2025-09-03T15:53:11.373926,-33.910,-15.440,7.900,-62.8,0.200,-0.300,180.360,1000.0
2025-09-03T15:53:11.375927,-31.540,-16.220,7.220,-62.8,0.200,-0.300,180.360,1000.0
2025-09-03T15:53:11.492277,-29.270,-16.780,6.550,-62.8,0.200,-0.300,180.360,1000.0
2025-09-03T15:53:11.494279,-27.670,-17.090,6.090,-62.8,0.200,-0.300,180.360,1000.0
2025-09-03T15:53:11.496279,-24.990,-17.570,5.290,-62.8,0.200,-0.300,180.360,1000.0
2025-09-03T15:53:11.498282,-22.920,-17.930,4.630,-62.8,0.200,-0.300,180.360,1000.0
2025-09-03T15:53:11.500279,-20.830,-18.280,3.940,-62.8,0.200,-0.300,180.360,1000.0
2025-09-03T15:53:11.614935,-18.950,-18.520,3.330,-62.8,0.200,-0.300,180.360,1000.0
2025-09-03T15:53:11.616987,-16.500,-18.610,2.610,-62.8,0.200,-0.300,180.360,1000.0
2025-09-03T15:53:11.618936,-14.290,-18.540,2.000,-62.8,0.200,-0.300,180.360,1000.0
2025-09-03T15:53:11.619935,-12.350,-18.450,1.460,-62.8,0.200,-0.300,180.360,1000.0
2025-09-03T15:53:11.621936,-10.410,-18.410,0.880,-62.8,0.200,-0.300,180.360,1000.0
2025-09-03T15:53:11.738433,-8.380,-18.320,0.250,-62.8,0.200,-0.300,180.360,1000.0
2025-09-03T15:53:11.740433,-6.350,-18.200,359.710,-62.8,0.200,-0.300,180.360,1000.0
2025-09-03T15:53:11.742434,-4.760,-18.060,359.400,-62.8,0.200,-0.300,180.360,1000.0
2025-09-03T15:53:11.745438,-2.480,-17.650,359.090,-62.8,0.200,-0.300,180.360,1000.0
2025-09-03T15:53:11.747433,-0.920,-17.250,359.020,-62.8,0.200,-0.300,180.360,1000.0
2025-09-03T15:53:11.861528,0.320,-16.820,359.080,-62.8,0.200,-0.300,180.360,1000.0
2025-09-03T15:53:11.863527,1.260,-16.360,359.260,-62.8,0.200,-0.300,180.360,1000.0
2025-09-03T15:53:11.865529,1.850,-15.830,359.570,-62.8,0.200,-0.300,180.360,1000.0
2025-09-03T15:53:11.867531,1.980,-15.230,359.990,-62.8,0.200,-0.300,180.360,1000.0
2025-09-03T15:53:11.869531,1.580,-14.480,0.550,-62.8,0.200,-0.300,180.360,1000.0
2025-09-03T15:53:11.986450,0.630,-13.580,1.190,-62.8,0.200,-0.300,180.360,1000.0
2025-09-03T15:53:11.988410,-0.710,-12.710,1.800,-62.8,0.200,-0.300,180.360,1000.0
2025-09-03T15:53:11.989411,-1.950,-12.130,2.200,-62.8,0.200,-0.300,180.360,1000.0
2025-09-03T15:53:11.992411,-4.210,-11.210,2.780,-62.8,0.200,-0.300,180.360,1000.0
2025-09-03T15:53:11.993411,-6.100,-10.500,3.230,-62.8,0.200,-0.300,180.360,1000.0
2025-09-03T15:53:12.111373,-8.060,-9.800,3.720,-62.8,0.200,-0.300,180.360,1000.0
2025-09-03T15:53:12.113378,-10.100,-9.110,4.230,-62.8,0.200,-0.300,180.360,1000.0
2025-09-03T15:53:12.115380,-12.190,-8.440,4.700,-62.8,0.200,-0.300,180.360,1000.0
2025-09-03T15:53:12.117380,-14.290,-7.840,5.160,-62.8,0.200,-0.300,180.360,1000.0
2025-09-03T15:53:12.120378,-16.220,-7.380,5.560,-62.8,0.200,-0.300,180.360,1000.0
2025-09-03T15:53:12.236744,-18.480,-6.900,6.000,-62.8,0.200,-0.300,180.360,1000.0
2025-09-03T15:53:12.238744,-21.000,-6.440,6.420,-62.8,0.200,-0.300,180.360,1000.0
2025-09-03T15:53:12.240744,-23.110,-6.010,6.730,-62.8,0.200,-0.300,180.360,1000.0
2025-09-03T15:53:12.242747,-25.040,-5.570,6.970,-62.8,0.200,-0.300,180.360,1000.0
2025-09-03T15:53:12.245745,-26.840,-5.160,7.190,-62.8,0.200,-0.300,180.360,1000.0
2025-09-03T15:53:12.356987,-28.310,-4.830,7.370,-62.8,0.200,-0.300,180.360,1000.0
2025-09-03T15:53:12.358990,-30.060,-4.500,7.570,-62.8,0.200,-0.300,180.360,1000.0
2025-09-03T15:53:12.360988,-31.420,-4.310,7.730,-62.8,0.200,-0.300,180.360,1000.0
2025-09-03T15:53:12.362991,-32.570,-4.100,7.840,-62.8,0.200,-0.300,180.360,1000.0
2025-09-03T15:53:12.364989,-33.390,-3.980,7.890,-62.8,0.200,-0.300,180.360,1000.0
2025-09-03T15:53:12.480512,-33.920,-3.920,7.860,-62.8,0.200,-0.300,180.360,1000.0
2025-09-03T15:53:12.482514,-34.010,-3.960,7.730,-62.8,0.200,-0.300,180.360,1000.0
2025-09-03T15:53:12.485515,-33.600,-4.150,7.510,-62.8,0.200,-0.300,180.360,1000.0
2025-09-03T15:53:12.487514,-32.740,-4.550,7.230,-62.8,0.200,-0.300,180.360,1000.0
2025-09-03T15:53:12.488513,-31.440,-5.170,6.920,-62.8,0.200,-0.300,180.360,1000.0
2025-09-03T15:53:12.602548,-29.680,-6.000,6.550,-62.8,0.200,-0.300,180.360,1000.0
2025-09-03T15:53:12.604513,-27.470,-6.950,6.130,-62.8,0.200,-0.300,180.360,1000.0
2025-09-03T15:53:12.606514,-24.930,-7.990,5.630,-62.8,0.200,-0.300,180.360,1000.0
2025-09-03T15:53:12.608514,-22.190,-9.120,5.030,-62.8,0.200,-0.300,180.360,1000.0
2025-09-03T15:53:12.610514,-19.170,-10.290,4.220,-62.8,0.200,-0.300,180.360,1000.0
2025-09-03T15:53:12.727274,-16.130,-11.420,3.270,-62.8,0.200,-0.300,180.360,1000.0
2025-09-03T15:53:12.729274,-12.950,-12.610,2.140,-62.8,0.200,-0.300,180.360,1000.0
2025-09-03T15:53:12.731272,-9.980,-13.740,0.990,-62.8,0.200,-0.300,180.360,1000.0
2025-09-03T15:53:12.734275,-7.230,-14.870,359.870,-62.8,0.200,-0.300,180.360,1000.0
2025-09-03T15:53:12.736271,-4.640,-15.940,358.730,-62.8,0.200,-0.300,180.360,1000.0
2025-09-03T15:53:12.853550,-2.530,-16.790,357.700,-62.8,0.200,-0.300,180.360,1000.0
2025-09-03T15:53:12.855555,-0.280,-17.700,356.490,-62.8,0.200,-0.300,180.360,1000.0
2025-09-03T15:53:12.858552,2.280,-18.700,355.050,-62.8,0.200,-0.300,180.360,1000.0
2025-09-03T15:53:12.863553,3.940,-19.230,354.120,-62.8,0.200,-0.300,180.360,1000.0
2025-09-03T15:53:12.866553,5.680,-19.480,353.190,-62.8,0.200,-0.300,180.360,1000.0
2025-09-03T15:53:12.975513,7.530,-19.400,352.220,-62.8,0.200,-0.300,180.360,1000.0
2025-09-03T15:53:12.977515,9.260,-19.210,351.220,-62.8,0.200,-0.300,180.360,1000.0
2025-09-03T15:53:12.979517,9.990,-19.090,350.750,-62.8,0.200,-0.300,180.360,1000.0
2025-09-03T15:53:12.981515,11.130,-18.860,350.060,-62.8,0.200,-0.300,180.360,1000.0
2025-09-03T15:53:12.984515,11.850,-18.580,349.850,-62.8,0.200,-0.300,180.360,1000.0
2025-09-03T15:53:13.097690,12.320,-18.050,350.180,-62.8,0.200,-0.300,180.360,1000.0
2025-09-03T15:53:13.099692,12.260,-17.380,350.890,-62.8,0.200,-0.300,180.360,1000.0
2025-09-03T15:53:13.101694,11.620,-16.460,351.810,-62.8,0.200,-0.300,180.360,1000.0
2025-09-03T15:53:13.103693,10.020,-15.070,353.130,-62.8,0.200,-0.300,180.360,1000.0
2025-09-03T15:53:13.105693,7.420,-13.500,354.660,-62.8,0.200,-0.300,180.360,1000.0
2025-09-03T15:53:13.220048,4.090,-11.900,356.160,-62.8,0.200,-0.300,180.360,1000.0
2025-09-03T15:53:13.222049,0.150,-10.220,357.610,-62.8,0.200,-0.300,180.360,1000.0
2025-09-03T15:53:13.224047,-4.410,-8.320,359.240,-62.8,0.200,-0.300,180.360,1000.0
2025-09-03T15:53:13.226048,-7.880,-6.800,0.560,-62.8,0.200,-0.300,180.360,1000.0
2025-09-03T15:53:13.228050,-11.650,-5.080,2.060,-62.8,0.200,-0.300,180.360,1000.0
2025-09-03T15:53:13.342975,-15.160,-3.450,3.340,-62.8,0.200,-0.300,180.360,1000.0
2025-09-03T15:53:13.345977,-18.790,-1.860,4.410,-62.8,0.200,-0.300,180.360,1000.0
2025-09-03T15:53:13.348978,-21.140,-0.850,4.940,-62.8,0.200,-0.300,180.360,1000.0
2025-09-03T15:53:13.350977,-23.260,0.090,5.310,-62.8,0.200,-0.300,180.360,1000.0
2025-09-03T15:53:13.352975,-24.610,0.630,5.490,-62.8,0.200,-0.300,180.360,1000.0
2025-09-03T15:53:13.468313,-25.120,0.710,5.530,-62.8,0.200,-0.300,180.360,1000.0
2025-09-03T15:53:13.469313,-24.520,0.270,5.390,-62.8,0.200,-0.300,180.360,1000.0
2025-09-03T15:53:13.471313,-22.970,-0.550,5.040,-62.8,0.200,-0.300,180.360,1000.0
2025-09-03T15:53:13.473313,-20.620,-1.830,4.410,-62.8,0.200,-0.300,180.360,1000.0
2025-09-03T15:53:13.475313,-17.880,-3.290,3.560,-62.8,0.200,-0.300,180.360,1000.0
2025-09-03T15:53:13.593313,-14.940,-4.850,2.580,-62.8,0.200,-0.300,180.360,1000.0
2025-09-03T15:53:13.595317,-12.110,-6.350,1.580,-62.7,0.200,-0.300,180.360,1000.0
2025-09-03T15:53:13.596314,-9.420,-7.680,0.610,-62.7,0.200,-0.300,180.360,1000.0
2025-09-03T15:53:13.598314,-7.240,-8.680,359.810,-62.7,0.200,-0.300,180.360,1000.0
2025-09-03T15:53:13.600314,-5.520,-9.350,359.140,-62.7,0.200,-0.300,180.360,1000.0
2025-09-03T15:53:13.719420,-4.360,-9.690,358.670,-62.8,0.200,-0.300,180.360,1000.0
2025-09-03T15:53:13.720779,-3.770,-9.760,358.440,-62.8,0.200,-0.300,180.360,1000.0
2025-09-03T15:53:13.722780,-3.390,-9.640,358.340,-62.8,0.200,-0.300,180.360,1000.0
2025-09-03T15:53:13.724782,-3.260,-9.410,358.380,-62.8,0.200,-0.300,180.360,1000.0
2025-09-03T15:53:13.726769,-3.190,-8.960,358.600,-62.8,0.200,-0.300,180.360,1000.0
2025-09-03T15:53:13.844977,-3.070,-8.590,358.870,-62.8,0.200,-0.300,180.360,1000.0
2025-09-03T15:53:13.848977,-2.860,-8.210,359.110,-62.8,0.200,-0.300,180.360,1000.0
2025-09-03T15:53:13.851980,-2.600,-7.810,359.300,-62.8,0.200,-0.300,180.360,1000.0
2025-09-03T15:53:13.853981,-2.290,-7.420,359.420,-62.8,0.200,-0.300,180.360,1000.0
2025-09-03T15:53:13.855979,-1.970,-7.060,359.510,-62.8,0.200,-0.300,180.360,1000.0
2025-09-03T15:53:13.967241,-1.710,-6.740,359.560,-62.8,0.200,-0.300,180.360,1000.0
2025-09-03T15:53:13.969241,-1.490,-6.420,359.580,-62.8,0.200,-0.300,180.360,1000.0
2025-09-03T15:53:13.971246,-1.360,-6.080,359.610,-62.8,0.200,-0.300,180.360,1000.0
2025-09-03T15:53:13.973243,-1.350,-5.750,359.650,-62.8,0.200,-0.300,180.360,1000.0
2025-09-03T15:53:13.975243,-1.430,-5.440,359.680,-62.8,0.200,-0.300,180.360,1000.0
2025-09-03T15:53:14.079388,-1.580,-5.090,359.740,-62.8,0.200,-0.300,180.360,1000.0
2025-09-03T15:53:14.081386,-1.810,-4.710,359.880,-62.8,0.200,-0.300,180.360,1000.0
2025-09-03T15:53:14.084388,-2.110,-4.330,0.070,-62.8,0.200,-0.300,180.360,1000.0
2025-09-03T15:53:14.086390,-2.410,-4.010,0.250,-62.8,0.200,-0.300,180.360,1000.0
2025-09-03T15:53:14.088390,-2.700,-3.750,0.380,-62.8,0.200,-0.300,180.360,1000.0
2025-09-03T15:53:14.201941,-2.910,-3.580,0.460,-62.8,0.200,-0.300,180.360,1000.0
2025-09-03T15:53:14.203933,-3.060,-3.470,0.520,-62.8,0.200,-0.300,180.360,1000.0
2025-09-03T15:53:14.205933,-3.130,-3.360,0.580,-62.8,0.200,-0.300,180.360,1000.0
2025-09-03T15:53:14.208938,-3.110,-3.220,0.670,-62.8,0.200,-0.300,180.360,1000.0
2025-09-03T15:53:14.209933,-3.020,-3.020,0.770,-62.7,0.200,-0.300,180.360,1000.0
2025-09-03T15:53:14.326567,-2.890,-2.800,0.820,-62.8,0.200,-0.300,180.360,1000.0
2025-09-03T15:53:14.328571,-2.780,-2.570,0.770,-62.8,0.200,-0.300,180.360,1000.0
2025-09-03T15:53:14.330569,-2.710,-2.390,0.670,-62.8,0.200,-0.300,180.360,1000.0
2025-09-03T15:53:14.332568,-2.660,-2.270,0.530,-62.7,0.200,-0.300,180.360,1000.0
2025-09-03T15:53:14.334568,-2.590,-2.210,0.400,-62.7,0.200,-0.300,180.360,1000.0
2025-09-03T15:53:14.450649,-2.490,-2.170,0.280,-62.7,0.200,-0.300,180.360,1000.0
2025-09-03T15:53:14.453649,-2.350,-2.120,0.160,-62.7,0.200,-0.300,180.360,1000.0
2025-09-03T15:53:14.454648,-2.240,-2.020,0.020,-62.7,0.200,-0.300,180.360,1000.0
2025-09-03T15:53:14.456648,-2.180,-1.920,359.870,-62.7,0.200,-0.300,180.360,1000.0
2025-09-03T15:53:14.458650,-2.170,-1.800,359.690,-62.7,0.200,-0.300,180.360,1000.0
2025-09-03T15:53:14.576647,-2.220,-1.660,359.520,-62.7,0.200,-0.300,180.360,1000.0
2025-09-03T15:53:14.579647,-2.320,-1.490,359.360,-62.7,0.200,-0.300,180.360,1000.0
2025-09-03T15:53:14.581651,-2.440,-1.310,359.230,-62.7,0.200,-0.300,180.360,1000.0
2025-09-03T15:53:14.583653,-2.620,-1.110,359.100,-62.7,0.200,-0.300,180.360,1000.0
2025-09-03T15:53:14.585650,-2.790,-0.890,359.000,-62.7,0.200,-0.300,180.360,1000.0
2025-09-03T15:53:14.699945,-2.910,-0.720,358.910,-62.7,0.200,-0.300,180.360,1000.0
2025-09-03T15:53:14.701946,-2.980,-0.520,358.810,-62.7,0.200,-0.300,180.360,1000.0
2025-09-03T15:53:14.703945,-2.990,-0.400,358.740,-62.8,0.200,-0.300,180.360,1000.0
2025-09-03T15:53:14.705945,-3.000,-0.420,358.710,-62.8,0.200,-0.300,180.360,1000.0
2025-09-03T15:53:14.706944,-2.770,-0.640,358.750,-62.7,0.200,-0.300,180.360,1000.0
2025-09-03T15:53:14.825155,-2.680,-0.880,358.810,-62.7,0.200,-0.300,180.360,1000.0
2025-09-03T15:53:14.826154,-2.710,-1.130,358.840,-62.7,0.200,-0.300,180.360,1000.0
2025-09-03T15:53:14.828157,-2.760,-1.310,358.830,-62.7,0.200,-0.300,180.360,1000.0
2025-09-03T15:53:14.830155,-2.700,-1.350,358.750,-62.7,0.200,-0.300,180.360,1000.0
2025-09-03T15:53:14.832155,-2.610,-1.370,358.680,-62.7,0.200,-0.300,180.360,1000.0
2025-09-03T15:53:14.948643,-2.490,-1.400,358.620,-62.7,0.200,-0.300,180.360,1000.0
2025-09-03T15:53:14.950651,-2.380,-1.430,358.540,-62.7,0.200,-0.300,180.360,1000.0
2025-09-03T15:53:14.953650,-2.260,-1.500,358.450,-62.7,0.200,-0.300,180.360,1000.0
2025-09-03T15:53:14.956648,-2.180,-1.540,358.390,-62.7,0.200,-0.300,180.360,1000.0
2025-09-03T15:53:14.957650,-2.140,-1.570,358.350,-62.7,0.200,-0.300,180.360,1000.0
2025-09-03T15:53:15.068648,-2.090,-1.580,358.350,-62.7,0.200,-0.300,180.360,1000.0
2025-09-03T15:53:15.070650,-2.070,-1.580,358.370,-62.7,0.200,-0.300,180.360,1000.0
2025-09-03T15:53:15.072649,-2.080,-1.590,358.390,-62.7,0.200,-0.300,180.360,1000.0
2025-09-03T15:53:15.074650,-2.060,-1.590,358.400,-62.7,0.200,-0.300,180.360,1000.0
2025-09-03T15:53:15.075650,-2.000,-1.570,358.410,-62.7,0.200,-0.300,180.360,1000.0
2025-09-03T15:53:15.192712,-1.900,-1.530,358.430,-62.6,0.200,-0.300,180.360,1000.0
2025-09-03T15:53:15.194718,-1.750,-1.500,358.480,-62.6,0.200,-0.300,180.360,1000.0
2025-09-03T15:53:15.195718,-1.570,-1.460,358.570,-62.6,0.200,-0.300,180.360,1000.0
2025-09-03T15:53:15.197721,-1.360,-1.410,358.740,-62.6,0.200,-0.300,180.360,1000.0
2025-09-03T15:53:15.199718,-1.120,-1.360,358.920,-62.6,0.200,-0.300,180.360,1000.0
2025-09-03T15:53:15.318766,-0.900,-1.320,359.050,-62.6,0.200,-0.300,180.360,1000.0
2025-09-03T15:53:15.320769,-0.890,-1.340,359.050,-62.6,0.200,-0.300,180.360,1000.0
2025-09-03T15:53:15.323767,-0.880,-1.350,359.050,-62.6,0.200,-0.300,180.360,1000.0
2025-09-03T15:53:15.325767,-0.890,-1.350,359.050,-62.6,0.200,-0.300,180.360,1000.0
2025-09-03T15:53:15.326767,-0.900,-1.340,359.050,-62.6,0.200,-0.300,180.360,1000.0
2025-09-03T15:53:15.443528,-0.890,-1.330,359.050,-62.6,0.200,-0.300,180.360,1000.0
2025-09-03T15:53:15.449538,-0.890,-1.320,359.060,-62.6,0.200,-0.300,180.360,1000.0
2025-09-03T15:53:15.451530,-0.880,-1.330,359.060,-62.6,0.200,-0.300,180.360,1000.0
2025-09-03T15:53:15.454529,-0.880,-1.340,359.070,-62.6,0.200,-0.300,180.360,1000.0
2025-09-03T15:53:15.456529,-0.880,-1.340,359.070,-62.7,0.200,-0.300,180.360,1000.0
2025-09-03T15:53:15.568874,-0.880,-1.330,359.070,-62.7,0.200,-0.300,180.360,1000.0
2025-09-03T15:53:15.570876,-0.880,-1.330,359.080,-62.7,0.200,-0.300,180.360,1000.0
2025-09-03T15:53:15.572876,-0.860,-1.330,359.070,-62.7,0.200,-0.300,180.360,1000.0
2025-09-03T15:53:15.574877,-0.840,-1.340,359.070,-62.6,0.200,-0.300,180.360,1000.0
2025-09-03T15:53:15.576879,-0.820,-1.340,359.070,-62.6,0.200,-0.300,180.360,1000.0
2025-09-03T15:53:15.693336,-0.810,-1.330,359.070,-62.6,0.200,-0.300,180.360,1000.0
2025-09-03T15:53:15.695338,-0.790,-1.320,359.070,-62.6,0.200,-0.300,180.360,1000.0
2025-09-03T15:53:15.697337,-0.780,-1.320,359.070,-62.7,0.200,-0.300,180.360,1000.0
2025-09-03T15:53:15.699337,-0.770,-1.330,359.070,-62.7,0.200,-0.300,180.360,1000.0
2025-09-03T15:53:15.701337,-0.760,-1.320,359.070,-62.6,0.200,-0.300,180.360,1000.0
2025-09-03T15:53:15.817467,-0.750,-1.320,359.070,-62.6,0.200,-0.300,180.360,1000.0
2025-09-03T15:53:15.819468,-0.740,-1.320,359.070,-62.6,0.200,-0.300,180.360,1000.0
2025-09-03T15:53:15.821477,-0.740,-1.320,359.070,-62.7,0.200,-0.300,180.360,1000.0
2025-09-03T15:53:15.823466,-0.730,-1.330,359.070,-62.7,0.200,-0.300,180.360,1000.0
2025-09-03T15:53:15.825464,-0.720,-1.320,359.070,-62.7,0.200,-0.300,180.360,1000.0
2025-09-03T15:53:15.941217,-0.720,-1.320,359.070,-62.7,0.200,-0.300,180.360,1000.0
2025-09-03T15:53:15.944217,-0.710,-1.320,359.070,-62.7,0.200,-0.300,180.360,1000.0
2025-09-03T15:53:15.947216,-0.710,-1.320,359.070,-62.7,0.200,-0.300,180.360,1000.0
2025-09-03T15:53:15.949216,-0.700,-1.320,359.070,-62.7,0.200,-0.300,180.360,1000.0
2025-09-03T15:53:15.952215,-0.700,-1.330,359.070,-62.7,0.200,-0.300,180.360,1000.0
2025-09-03T15:53:16.064016,-0.690,-1.320,359.070,-62.7,0.200,-0.300,180.360,1000.0
2025-09-03T15:53:16.066022,-0.690,-1.320,359.070,-62.7,0.200,-0.300,180.360,1000.0
2025-09-03T15:53:16.068022,-0.680,-1.320,359.070,-62.7,0.200,-0.300,180.360,1000.0
2025-09-03T15:53:16.070021,-0.670,-1.320,359.070,-62.7,0.200,-0.300,180.360,1000.0
2025-09-03T15:53:16.072022,-0.670,-1.320,359.080,-62.7,0.200,-0.300,180.360,1000.0
2025-09-03T15:53:16.189956,-0.660,-1.320,359.080,-62.7,0.200,-0.300,180.360,1000.0
2025-09-03T15:53:16.191961,-0.650,-1.320,359.080,-62.7,0.200,-0.300,180.360,1000.0
2025-09-03T15:53:16.193965,-0.650,-1.320,359.080,-62.7,0.200,-0.300,180.360,1000.0
2025-09-03T15:53:16.195961,-0.650,-1.320,359.080,-62.7,0.200,-0.300,180.360,1000.0
2025-09-03T15:53:16.196962,-0.650,-1.320,359.080,-62.7,0.200,-0.300,180.360,1000.0
2025-09-03T15:53:16.311710,-0.650,-1.310,359.080,-62.7,0.200,-0.300,180.360,1000.0
2025-09-03T15:53:16.313641,-0.650,-1.310,359.070,-62.7,0.200,-0.300,180.360,1000.0
2025-09-03T15:53:16.316647,-0.650,-1.310,359.070,-62.7,0.200,-0.300,180.360,1000.0
2025-09-03T15:53:16.318646,-0.650,-1.310,359.070,-62.7,0.200,-0.300,180.360,1000.0
2025-09-03T15:53:16.320643,-0.650,-1.310,359.070,-62.7,0.200,-0.300,180.360,1000.0
2025-09-03T15:53:16.435527,-0.650,-1.310,359.070,-62.7,0.200,-0.300,180.360,1000.0
2025-09-03T15:53:16.437525,-0.650,-1.310,359.070,-62.7,0.200,-0.300,180.360,1000.0
2025-09-03T15:53:16.438524,-0.650,-1.310,359.070,-62.7,0.200,-0.300,180.360,1000.0
2025-09-03T15:53:16.440527,-0.650,-1.320,359.060,-62.7,0.200,-0.300,180.360,1000.0
2025-09-03T15:53:16.442526,-0.650,-1.320,359.060,-62.7,0.200,-0.300,180.360,1000.0
2025-09-03T15:53:16.557525,-0.650,-1.320,359.060,-62.7,0.200,-0.300,180.360,1000.0
2025-09-03T15:53:16.559525,-0.650,-1.330,359.060,-62.7,0.200,-0.300,180.360,1000.0
2025-09-03T15:53:16.561526,-0.650,-1.330,359.060,-62.7,0.200,-0.300,180.360,1000.0
2025-09-03T15:53:16.563527,-0.640,-1.330,359.060,-62.7,0.200,-0.300,180.360,1000.0
2025-09-03T15:53:16.565528,-0.650,-1.330,359.050,-62.7,0.200,-0.300,180.360,1000.0
2025-09-03T15:53:16.679524,-0.650,-1.340,359.050,-62.7,0.200,-0.300,180.360,1000.0
2025-09-03T15:53:16.681527,-0.650,-1.350,359.050,-62.7,0.200,-0.300,180.360,1000.0
2025-09-03T15:53:16.685529,-0.640,-1.350,359.050,-62.7,0.200,-0.300,180.360,1000.0
2025-09-03T15:53:16.688525,-0.650,-1.350,359.050,-62.7,0.200,-0.300,180.360,1000.0
2025-09-03T15:53:16.691525,-0.650,-1.360,359.050,-62.7,0.200,-0.300,180.360,1000.0
2025-09-03T15:53:16.802526,-0.650,-1.360,359.050,-62.7,0.200,-0.300,180.360,1000.0
2025-09-03T15:53:16.804525,-0.640,-1.360,359.060,-62.7,0.200,-0.300,180.360,1000.0
2025-09-03T15:53:16.807529,-0.640,-1.370,359.060,-62.7,0.200,-0.300,180.360,1000.0
2025-09-03T15:53:16.810529,-0.640,-1.370,359.050,-62.7,0.200,-0.300,180.360,1000.0
2025-09-03T15:53:16.812525,-0.640,-1.370,359.050,-62.7,0.200,-0.300,180.360,1000.0
2025-09-03T15:53:16.923524,-0.640,-1.380,359.050,-62.7,0.200,-0.300,180.360,1000.0
2025-09-03T15:53:16.925526,-0.640,-1.380,359.050,-62.7,0.200,-0.300,180.360,1000.0
2025-09-03T15:53:16.927526,-0.640,-1.380,359.050,-62.7,0.200,-0.300,180.360,1000.0
2025-09-03T15:53:16.929529,-0.630,-1.390,359.040,-62.7,0.200,-0.300,180.360,1000.0
2025-09-03T15:53:16.931527,-0.630,-1.390,359.040,-62.7,0.200,-0.300,180.360,1000.0
2025-09-03T15:53:17.049525,-0.640,-1.390,359.040,-62.7,0.200,-0.300,180.360,1000.0
2025-09-03T15:53:17.053526,-0.640,-1.390,359.040,-62.7,0.200,-0.300,180.360,1000.0
2025-09-03T15:53:17.056529,-0.650,-1.390,359.040,-62.7,0.200,-0.300,180.360,1000.0
2025-09-03T15:53:17.058527,-0.650,-1.390,359.040,-62.7,0.200,-0.300,180.360,1000.0
2025-09-03T15:53:17.060527,-0.640,-1.390,359.040,-62.7,0.200,-0.300,180.360,1000.0
2025-09-03T15:53:17.172478,-0.640,-1.390,359.040,-62.7,0.200,-0.300,180.360,1000.0
2025-09-03T15:53:17.174466,-0.640,-1.380,359.040,-62.7,0.200,-0.300,180.360,1000.0
2025-09-03T15:53:17.175467,-0.640,-1.380,359.040,-62.7,0.200,-0.300,180.360,1000.0
2025-09-03T15:53:17.177465,-0.640,-1.380,359.040,-62.7,0.200,-0.300,180.360,1000.0
2025-09-03T15:53:17.179467,-0.640,-1.380,359.040,-62.7,0.200,-0.300,180.360,1000.0
2025-09-03T15:53:17.294815,-0.640,-1.370,359.040,-62.7,0.200,-0.300,180.360,1000.0
2025-09-03T15:53:17.296813,-0.640,-1.370,359.040,-62.7,0.200,-0.300,180.360,1000.0
2025-09-03T15:53:17.298814,-0.630,-1.370,359.040,-62.7,0.200,-0.300,180.360,1000.0
2025-09-03T15:53:17.300815,-0.630,-1.370,359.040,-62.7,0.200,-0.300,180.360,1000.0
2025-09-03T15:53:17.302814,-0.630,-1.370,359.040,-62.7,0.200,-0.300,180.360,1000.0
2025-09-03T15:53:17.417429,-0.640,-1.370,359.040,-62.7,0.200,-0.300,180.360,1000.0
2025-09-03T15:53:17.420431,-0.630,-1.370,359.040,-62.7,0.200,-0.300,180.360,1000.0
2025-09-03T15:53:17.421430,-0.630,-1.370,359.040,-62.7,0.200,-0.300,180.360,1000.0
2025-09-03T15:53:17.423432,-0.630,-1.370,359.050,-62.7,0.200,-0.300,180.360,1000.0
2025-09-03T15:53:17.425434,-0.630,-1.370,359.050,-62.7,0.200,-0.300,180.360,1000.0
2025-09-03T15:53:17.543367,-0.630,-1.370,359.050,-62.7,0.200,-0.300,180.360,1000.0
2025-09-03T15:53:17.546371,-0.640,-1.370,359.050,-62.7,0.200,-0.300,180.360,1000.0
2025-09-03T15:53:17.549371,-0.640,-1.370,359.050,-62.7,0.200,-0.300,180.360,1000.0
2025-09-03T15:53:17.551371,-0.630,-1.370,359.050,-62.7,0.200,-0.300,180.360,1000.0
2025-09-03T15:53:17.553371,-0.630,-1.370,359.050,-62.7,0.200,-0.300,180.360,1000.0
2025-09-03T15:53:17.666368,-0.630,-1.370,359.050,-62.7,0.200,-0.300,180.360,1000.0
2025-09-03T15:53:17.668371,-0.640,-1.370,359.050,-62.7,0.200,-0.300,180.360,1000.0
2025-09-03T15:53:17.671372,-0.640,-1.360,359.040,-62.7,0.200,-0.300,180.360,1000.0
2025-09-03T15:53:17.673370,-0.640,-1.360,359.050,-62.7,0.200,-0.300,180.360,1000.0
2025-09-03T15:53:17.674370,-0.640,-1.360,359.050,-62.7,0.200,-0.300,180.360,1000.0
2025-09-03T15:53:17.786809,-0.640,-1.360,359.050,-62.7,0.200,-0.300,180.360,1000.0
2025-09-03T15:53:17.788809,-0.640,-1.370,359.050,-62.7,0.200,-0.300,180.360,1000.0
2025-09-03T15:53:17.789808,-0.640,-1.360,359.050,-62.7,0.200,-0.300,180.360,1000.0
2025-09-03T15:53:17.791810,-0.640,-1.370,359.050,-62.7,0.200,-0.300,180.360,1000.0
2025-09-03T15:53:17.793820,-0.640,-1.370,359.050,-62.7,0.200,-0.300,180.360,1000.0
2025-09-03T15:53:17.911372,-0.640,-1.370,359.050,-62.7,0.200,-0.300,180.360,1000.0
2025-09-03T15:53:17.912373,-0.640,-1.370,359.050,-62.7,0.200,-0.300,180.360,1000.0
2025-09-03T15:53:17.915374,-0.640,-1.370,359.050,-62.7,0.200,-0.300,180.360,1000.0
2025-09-03T15:53:17.917379,-0.640,-1.360,359.060,-62.7,0.200,-0.300,180.360,1000.0
2025-09-03T15:53:17.919375,-0.640,-1.360,359.050,-62.7,0.200,-0.300,180.360,1000.0
2025-09-03T15:53:18.034497,-0.640,-1.360,359.060,-62.7,0.200,-0.300,180.360,1000.0
2025-09-03T15:53:18.036499,-0.640,-1.360,359.050,-62.7,0.200,-0.300,180.360,1000.0
2025-09-03T15:53:18.038498,-0.640,-1.360,359.060,-62.7,0.200,-0.300,180.360,1000.0
2025-09-03T15:53:18.039497,-0.640,-1.360,359.060,-62.7,0.200,-0.300,180.360,1000.0
2025-09-03T15:53:18.041498,-0.640,-1.360,359.060,-62.7,0.200,-0.300,180.360,1000.0
2025-09-03T15:53:18.160491,-0.640,-1.350,359.060,-62.7,0.200,-0.300,180.360,1000.0
2025-09-03T15:53:18.163488,-0.630,-1.350,359.060,-62.7,0.200,-0.300,180.360,1000.0
2025-09-03T15:53:18.165489,-0.630,-1.350,359.060,-62.7,0.200,-0.300,180.360,1000.0
2025-09-03T15:53:18.168496,-0.630,-1.350,359.060,-62.7,0.200,-0.300,180.360,1000.0
2025-09-03T15:53:18.171489,-0.630,-1.350,359.060,-62.7,0.200,-0.300,180.360,1000.0
2025-09-03T15:53:18.284490,-0.630,-1.350,359.060,-62.7,0.200,-0.300,180.360,1000.0
2025-09-03T15:53:18.287488,-0.630,-1.350,359.060,-62.7,0.200,-0.300,180.360,1000.0
2025-09-03T15:53:18.288488,-0.640,-1.350,359.060,-62.7,0.200,-0.300,180.360,1000.0
2025-09-03T15:53:18.290488,-0.640,-1.350,359.060,-62.7,0.200,-0.300,180.360,1000.0
2025-09-03T15:53:18.292490,-0.640,-1.360,359.050,-62.7,0.200,-0.300,180.360,1000.0
2025-09-03T15:53:18.410487,-0.640,-1.360,359.060,-62.7,0.200,-0.300,180.360,1000.0
2025-09-03T15:53:18.412489,-0.650,-1.370,359.060,-62.7,0.200,-0.300,180.360,1000.0
2025-09-03T15:53:18.414488,-0.650,-1.370,359.060,-62.7,0.200,-0.300,180.360,1000.0
2025-09-03T15:53:18.416491,-0.650,-1.360,359.060,-62.7,0.200,-0.300,180.360,1000.0
2025-09-03T15:53:18.418488,-0.650,-1.360,359.060,-62.7,0.200,-0.300,180.360,1000.0
2025-09-03T15:53:18.532531,-0.650,-1.360,359.050,-62.7,0.200,-0.300,180.360,1000.0
2025-09-03T15:53:18.534528,-0.650,-1.360,359.050,-62.7,0.200,-0.300,180.360,1000.0
2025-09-03T15:53:18.537531,-0.650,-1.370,359.060,-62.7,0.200,-0.300,180.360,1000.0
2025-09-03T15:53:18.539538,-0.650,-1.370,359.070,-62.7,0.200,-0.300,180.360,1000.0
2025-09-03T15:53:18.541529,-0.650,-1.370,359.070,-62.7,0.200,-0.300,180.360,1000.0
2025-09-03T15:53:18.656763,-0.660,-1.370,359.070,-62.7,0.200,-0.300,180.360,1000.0
2025-09-03T15:53:18.658763,-0.670,-1.370,359.070,-62.7,0.200,-0.300,180.360,1000.0
2025-09-03T15:53:18.660762,-0.670,-1.380,359.070,-62.7,0.200,-0.300,180.360,1000.0
2025-09-03T15:53:18.662764,-0.670,-1.370,359.070,-62.7,0.200,-0.300,180.360,1000.0
2025-09-03T15:53:18.664764,-0.670,-1.370,359.070,-62.7,0.200,-0.300,180.360,1000.0
2025-09-03T15:53:18.783254,-0.670,-1.370,359.070,-62.7,0.200,-0.300,180.360,1000.0
2025-09-03T15:53:18.785258,-0.670,-1.370,359.070,-62.7,0.200,-0.300,180.360,1000.0
2025-09-03T15:53:18.787262,-0.670,-1.370,359.070,-62.7,0.200,-0.300,180.360,1000.0
2025-09-03T15:53:18.789261,-0.680,-1.380,359.070,-62.7,0.200,-0.300,180.360,1000.0
2025-09-03T15:53:18.790259,-0.680,-1.390,359.080,-62.7,0.200,-0.300,180.360,1000.0
2025-09-03T15:53:18.908157,-0.680,-1.390,359.070,-62.7,0.200,-0.300,180.360,1000.0
2025-09-03T15:53:18.910155,-0.680,-1.390,359.070,-62.7,0.200,-0.300,180.360,1000.0
2025-09-03T15:53:18.913154,-0.680,-1.400,359.070,-62.7,0.200,-0.300,180.360,1000.0
2025-09-03T15:53:18.915158,-0.680,-1.400,359.070,-62.7,0.200,-0.300,180.360,1000.0
2025-09-03T15:53:18.917158,-0.680,-1.400,359.070,-62.7,0.200,-0.300,180.360,1000.0
2025-09-03T15:53:19.033786,-0.680,-1.400,359.070,-62.7,0.200,-0.300,180.360,1000.0
2025-09-03T15:53:19.035787,-0.680,-1.410,359.080,-62.7,0.200,-0.300,180.360,1000.0
2025-09-03T15:53:19.037787,-0.680,-1.420,359.080,-62.7,0.200,-0.300,180.360,1000.0
2025-09-03T15:53:19.039787,-0.680,-1.420,359.080,-62.7,0.200,-0.300,180.360,1000.0
2025-09-03T15:53:19.040787,-0.670,-1.420,359.080,-62.7,0.200,-0.300,180.360,1000.0
2025-09-03T15:53:19.160377,-0.680,-1.420,359.080,-62.7,0.200,-0.300,180.360,1000.0
2025-09-03T15:53:19.162375,-0.680,-1.420,359.080,-62.7,0.200,-0.300,180.360,1000.0
2025-09-03T15:53:19.164376,-0.680,-1.420,359.080,-62.7,0.200,-0.300,180.360,1000.0
2025-09-03T15:53:19.166376,-0.680,-1.420,359.080,-62.7,0.200,-0.300,180.360,1000.0
2025-09-03T15:53:19.168376,-0.680,-1.430,359.080,-62.7,0.200,-0.300,180.360,1000.0
2025-09-03T15:53:19.283810,-0.680,-1.440,359.080,-62.7,0.200,-0.300,180.360,1000.0
2025-09-03T15:53:19.285809,-0.680,-1.430,359.080,-62.7,0.200,-0.300,180.360,1000.0
2025-09-03T15:53:19.287810,-0.680,-1.440,359.080,-62.7,0.200,-0.300,180.360,1000.0
2025-09-03T15:53:19.289811,-0.680,-1.440,359.080,-62.7,0.200,-0.300,180.360,1000.0
2025-09-03T15:53:19.291809,-0.680,-1.440,359.080,-62.7,0.200,-0.300,180.360,1000.0
2025-09-03T15:53:19.407540,-0.680,-1.430,359.090,-62.7,0.200,-0.300,180.360,1000.0
2025-09-03T15:53:19.409548,-0.670,-1.430,359.090,-62.7,0.200,-0.300,180.360,1000.0
2025-09-03T15:53:19.411547,-0.670,-1.430,359.080,-62.7,0.200,-0.300,180.360,1000.0
2025-09-03T15:53:19.413546,-0.670,-1.420,359.080,-62.7,0.200,-0.300,180.360,1000.0
2025-09-03T15:53:19.415547,-0.660,-1.420,359.080,-62.7,0.200,-0.300,180.360,1000.0
2025-09-03T15:53:19.532285,-0.660,-1.420,359.080,-62.7,0.200,-0.300,180.360,1000.0
2025-09-03T15:53:19.534285,-0.650,-1.420,359.080,-62.7,0.200,-0.300,180.360,1000.0
2025-09-03T15:53:19.537289,-0.650,-1.420,359.080,-62.7,0.200,-0.300,180.360,1000.0
2025-09-03T15:53:19.539290,-0.650,-1.420,359.080,-62.7,0.200,-0.300,180.360,1000.0
2025-09-03T15:53:19.540289,-0.650,-1.420,359.080,-62.7,0.200,-0.300,180.360,1000.0
2025-09-03T15:53:19.656288,-0.650,-1.420,359.070,-62.7,0.200,-0.300,180.360,1000.0
2025-09-03T15:53:19.659667,-0.640,-1.420,359.070,-62.7,0.200,-0.300,180.360,1000.0
2025-09-03T15:53:19.661666,-0.640,-1.420,359.070,-62.7,0.200,-0.300,180.360,1000.0
2025-09-03T15:53:19.663665,-0.640,-1.420,359.070,-62.7,0.200,-0.300,180.360,1000.0
2025-09-03T15:53:19.665665,-0.640,-1.420,359.070,-62.7,0.200,-0.300,180.360,1000.0
2025-09-03T15:53:19.777931,-0.640,-1.420,359.070,-62.7,0.200,-0.300,180.360,1000.0
2025-09-03T15:53:19.779932,-0.630,-1.420,359.070,-62.7,0.200,-0.300,180.360,1000.0
2025-09-03T15:53:19.781934,-0.630,-1.420,359.070,-62.7,0.200,-0.300,180.360,1000.0
2025-09-03T15:53:19.783933,-0.630,-1.420,359.070,-62.7,0.200,-0.300,180.360,1000.0
2025-09-03T15:53:19.784932,-0.630,-1.410,359.070,-62.7,0.200,-0.300,180.360,1000.0
2025-09-03T15:53:19.901913,-0.630,-1.410,359.070,-62.7,0.200,-0.300,180.360,1000.0
2025-09-03T15:53:19.903915,-0.630,-1.410,359.070,-62.7,0.200,-0.300,180.360,1000.0
2025-09-03T15:53:19.905916,-0.630,-1.410,359.070,-62.7,0.200,-0.300,180.360,1000.0
2025-09-03T15:53:19.907914,-0.630,-1.410,359.070,-62.7,0.200,-0.300,180.360,1000.0
2025-09-03T15:53:19.909914,-0.630,-1.410,359.070,-62.7,0.200,-0.300,180.360,1000.0
2025-09-03T15:53:20.026449,-0.630,-1.400,359.070,-62.7,0.200,-0.300,180.360,1000.0
2025-09-03T15:53:20.028449,-0.630,-1.400,359.070,-62.7,0.200,-0.300,180.360,1000.0
2025-09-03T15:53:20.030449,-0.630,-1.410,359.070,-62.7,0.200,-0.300,180.360,1000.0
2025-09-03T15:53:20.032447,-0.630,-1.410,359.070,-62.7,0.200,-0.300,180.360,1000.0
2025-09-03T15:53:20.034450,-0.630,-1.410,359.070,-62.7,0.200,-0.300,180.360,1000.0
2025-09-03T15:53:20.152431,-0.630,-1.420,359.070,-62.7,0.200,-0.300,180.360,1000.0
2025-09-03T15:53:20.156429,-0.620,-1.410,359.070,-62.7,0.200,-0.300,180.360,1000.0
2025-09-03T15:53:20.159434,-0.620,-1.420,359.070,-62.7,0.200,-0.300,180.360,1000.0
2025-09-03T15:53:20.161429,-0.620,-1.410,359.070,-62.7,0.200,-0.300,180.360,1000.0
2025-09-03T15:53:20.163428,-0.620,-1.410,359.070,-62.7,0.200,-0.300,180.360,1000.0
2025-09-03T15:53:20.274750,-0.620,-1.410,359.070,-62.7,0.200,-0.300,180.360,1000.0
2025-09-03T15:53:20.276753,-0.630,-1.410,359.070,-62.7,0.200,-0.300,180.360,1000.0
2025-09-03T15:53:20.278751,-0.620,-1.410,359.070,-62.7,0.200,-0.300,180.360,1000.0
2025-09-03T15:53:20.280754,-0.620,-1.410,359.070,-62.7,0.200,-0.300,180.360,1000.0
2025-09-03T15:53:20.282750,-0.620,-1.410,359.070,-62.7,0.200,-0.300,180.360,1000.0
2025-09-03T15:53:20.398244,-0.610,-1.410,359.070,-62.7,0.200,-0.300,180.360,1000.0
2025-09-03T15:53:20.400247,-0.610,-1.410,359.070,-62.7,0.200,-0.300,180.360,1000.0
2025-09-03T15:53:20.403247,-0.610,-1.400,359.070,-62.7,0.200,-0.300,180.360,1000.0
2025-09-03T15:53:20.405247,-0.610,-1.410,359.070,-62.7,0.200,-0.300,180.360,1000.0
2025-09-03T15:53:20.407246,-0.610,-1.400,359.070,-62.7,0.200,-0.300,180.360,1000.0
2025-09-03T15:53:20.521510,-0.600,-1.400,359.070,-62.7,0.200,-0.300,180.360,1000.0
2025-09-03T15:53:20.523497,-0.600,-1.400,359.070,-62.7,0.200,-0.300,180.360,1000.0
2025-09-03T15:53:20.525498,-0.600,-1.400,359.070,-62.7,0.200,-0.300,180.360,1000.0
2025-09-03T15:53:20.527502,-0.600,-1.400,359.070,-62.7,0.200,-0.300,180.360,1000.0
2025-09-03T15:53:20.529503,-0.600,-1.390,359.070,-62.7,0.200,-0.300,180.360,1000.0
2025-09-03T15:53:20.646229,-0.600,-1.390,359.070,-62.7,0.200,-0.300,180.360,1000.0
2025-09-03T15:53:20.649230,-0.600,-1.390,359.070,-62.7,0.200,-0.300,180.360,1000.0
2025-09-03T15:53:20.652231,-0.590,-1.380,359.060,-62.7,0.200,-0.300,180.360,1000.0
2025-09-03T15:53:20.654230,-0.590,-1.380,359.060,-62.7,0.200,-0.300,180.360,1000.0
2025-09-03T15:53:20.656230,-0.590,-1.380,359.060,-62.7,0.200,-0.300,180.360,1000.0
2025-09-03T15:53:20.769023,-0.590,-1.380,359.060,-62.7,0.200,-0.300,180.360,1000.0
2025-09-03T15:53:20.772024,-0.590,-1.380,359.060,-62.6,0.200,-0.300,180.360,1000.0
2025-09-03T15:53:20.774023,-0.590,-1.380,359.060,-62.6,0.200,-0.300,180.360,1000.0
2025-09-03T15:53:20.776023,-0.590,-1.380,359.060,-62.6,0.200,-0.300,180.360,1000.0
2025-09-03T15:53:20.777023,-0.590,-1.380,359.060,-62.6,0.200,-0.300,180.360,1000.0
2025-09-03T15:53:20.893595,-0.590,-1.380,359.060,-62.6,0.200,-0.300,180.360,1000.0
2025-09-03T15:53:20.895625,-0.590,-1.380,359.060,-62.6,0.200,-0.300,180.360,1000.0
2025-09-03T15:53:20.897598,-0.590,-1.370,359.060,-62.6,0.200,-0.300,180.360,1000.0
2025-09-03T15:53:20.899598,-0.590,-1.370,359.060,-62.6,0.200,-0.300,180.360,1000.0
2025-09-03T15:53:20.901598,-0.590,-1.370,359.060,-62.6,0.200,-0.300,180.360,1000.0
2025-09-03T15:53:21.017596,-0.600,-1.370,359.060,-62.6,0.200,-0.300,180.360,1000.0
2025-09-03T15:53:21.019598,-0.600,-1.370,359.060,-62.7,0.200,-0.300,180.360,1000.0
2025-09-03T15:53:21.021598,-0.600,-1.370,359.060,-62.7,0.200,-0.300,180.360,1000.0
2025-09-03T15:53:21.023601,-0.610,-1.370,359.070,-62.7,0.200,-0.300,180.360,1000.0
2025-09-03T15:53:21.025596,-0.610,-1.370,359.070,-62.7,0.200,-0.300,180.360,1000.0
2025-09-03T15:53:21.140769,-0.610,-1.370,359.070,-62.7,0.200,-0.300,180.360,1000.0
2025-09-03T15:53:21.142771,-0.610,-1.370,359.070,-62.6,0.200,-0.300,180.360,1000.0
2025-09-03T15:53:21.145773,-0.610,-1.360,359.070,-62.6,0.200,-0.300,180.360,1000.0
2025-09-03T15:53:21.148771,-0.610,-1.360,359.070,-62.6,0.200,-0.300,180.360,1000.0
2025-09-03T15:53:21.150771,-0.610,-1.360,359.070,-62.6,0.200,-0.300,180.360,1000.0
2025-09-03T15:53:21.266770,-0.610,-1.360,359.070,-62.7,0.200,-0.300,180.360,1000.0
2025-09-03T15:53:21.268771,-0.610,-1.360,359.070,-62.7,0.200,-0.300,180.360,1000.0
2025-09-03T15:53:21.271778,-0.620,-1.360,359.070,-62.7,0.200,-0.300,180.360,1000.0
2025-09-03T15:53:21.273771,-0.620,-1.360,359.070,-62.7,0.200,-0.300,180.360,1000.0
2025-09-03T15:53:21.274773,-0.620,-1.360,359.070,-62.7,0.200,-0.300,180.360,1000.0
2025-09-03T15:53:21.391081,-0.620,-1.360,359.070,-62.7,0.200,-0.300,180.360,1000.0
2025-09-03T15:53:21.393083,-0.620,-1.360,359.070,-62.7,0.200,-0.300,180.360,1000.0
2025-09-03T15:53:21.395085,-0.620,-1.360,359.070,-62.7,0.200,-0.300,180.360,1000.0
2025-09-03T15:53:21.397088,-0.620,-1.360,359.070,-62.7,0.200,-0.300,180.360,1000.0
2025-09-03T15:53:21.399086,-0.620,-1.360,359.070,-62.7,0.200,-0.300,180.360,1000.0
2025-09-03T15:53:21.517079,-0.620,-1.360,359.070,-62.7,0.200,-0.300,180.360,1000.0
2025-09-03T15:53:21.519075,-0.630,-1.360,359.070,-62.7,0.200,-0.300,180.360,1000.0
2025-09-03T15:53:21.521076,-0.630,-1.360,359.070,-62.7,0.200,-0.300,180.360,1000.0
2025-09-03T15:53:21.523074,-0.630,-1.360,359.070,-62.7,0.200,-0.300,180.360,1000.0
2025-09-03T15:53:21.525076,-0.630,-1.360,359.070,-62.7,0.200,-0.300,180.360,1000.0
2025-09-03T15:53:21.640270,-0.630,-1.360,359.070,-62.7,0.200,-0.300,180.360,1000.0
2025-09-03T15:53:21.641271,-0.630,-1.360,359.070,-62.7,0.200,-0.300,180.360,1000.0
2025-09-03T15:53:21.643273,-0.630,-1.360,359.070,-62.7,0.200,-0.300,180.360,1000.0
2025-09-03T15:53:21.647274,-0.630,-1.360,359.070,-62.7,0.200,-0.300,180.360,1000.0
2025-09-03T15:53:21.649272,-0.630,-1.360,359.070,-62.7,0.200,-0.300,180.360,1000.0
2025-09-03T15:53:21.763447,-0.630,-1.360,359.070,-62.7,0.200,-0.300,180.360,1000.0
2025-09-03T15:53:21.765447,-0.630,-1.360,359.070,-62.7,0.200,-0.300,180.360,1000.0
2025-09-03T15:53:21.767443,-0.630,-1.360,359.070,-62.7,0.200,-0.300,180.360,1000.0
2025-09-03T15:53:21.769445,-0.630,-1.360,359.070,-62.7,0.200,-0.300,180.360,1000.0
2025-09-03T15:53:21.771444,-0.630,-1.360,359.070,-62.7,0.200,-0.300,180.360,1000.0
2025-09-03T15:53:21.889520,-0.630,-1.360,359.070,-62.7,0.200,-0.300,180.360,1000.0
2025-09-03T15:53:21.891526,-0.630,-1.360,359.070,-62.7,0.200,-0.300,180.360,1000.0
2025-09-03T15:53:21.893532,-0.630,-1.360,359.070,-62.7,0.200,-0.300,180.360,1000.0
2025-09-03T15:53:21.895525,-0.630,-1.360,359.070,-62.7,0.200,-0.300,180.360,1000.0
2025-09-03T15:53:21.897527,-0.630,-1.360,359.070,-62.7,0.200,-0.300,180.360,1000.0
2025-09-03T15:53:22.013311,-0.630,-1.360,359.070,-62.7,0.200,-0.300,180.360,1000.0
2025-09-03T15:53:22.015311,-0.630,-1.360,359.070,-62.7,0.200,-0.300,180.360,1000.0
2025-09-03T15:53:22.017311,-0.630,-1.360,359.070,-62.7,0.200,-0.300,180.360,1000.0
2025-09-03T15:53:22.018317,-0.630,-1.360,359.070,-62.7,0.200,-0.300,180.360,1000.0
2025-09-03T15:53:22.020310,-0.630,-1.360,359.070,-62.7,0.200,-0.300,180.360,1000.0
2025-09-03T15:53:22.139422,-0.630,-1.360,359.070,-62.7,0.200,-0.300,180.360,1000.0
2025-09-03T15:53:22.141423,-0.630,-1.360,359.070,-62.7,0.200,-0.300,180.360,1000.0
2025-09-03T15:53:22.143423,-0.630,-1.360,359.070,-62.7,0.200,-0.300,180.360,1000.0
2025-09-03T15:53:22.146421,-0.630,-1.360,359.070,-62.7,0.200,-0.300,180.360,1000.0
2025-09-03T15:53:22.149420,-0.630,-1.360,359.070,-62.7,0.200,-0.300,180.360,1000.0
2025-09-03T15:53:22.264340,-0.630,-1.370,359.070,-62.7,0.200,-0.300,180.360,1000.0
2025-09-03T15:53:22.266344,-0.630,-1.370,359.070,-62.7,0.200,-0.300,180.360,1000.0
2025-09-03T15:53:22.268344,-0.630,-1.370,359.070,-62.7,0.200,-0.300,180.360,1000.0
2025-09-03T15:53:22.270341,-0.630,-1.370,359.070,-62.7,0.200,-0.300,180.360,1000.0
2025-09-03T15:53:22.272341,-0.630,-1.370,359.070,-62.7,0.200,-0.300,180.360,1000.0
2025-09-03T15:53:22.386599,-0.630,-1.380,359.070,-62.7,0.200,-0.300,180.360,1000.0
2025-09-03T15:53:22.388600,-0.630,-1.380,359.070,-62.7,0.200,-0.300,180.360,1000.0
2025-09-03T15:53:22.390599,-0.630,-1.380,359.070,-62.7,0.200,-0.300,180.360,1000.0
2025-09-03T15:53:22.392602,-0.630,-1.390,359.070,-62.7,0.200,-0.300,180.360,1000.0
2025-09-03T15:53:22.394601,-0.630,-1.390,359.070,-62.7,0.200,-0.300,180.360,1000.0
2025-09-03T15:53:22.499217,-0.630,-1.380,359.070,-62.7,0.200,-0.300,180.360,1000.0
2025-09-03T15:53:22.501217,-0.630,-1.390,359.070,-62.7,0.200,-0.300,180.360,1000.0
2025-09-03T15:53:22.503219,-0.630,-1.390,359.070,-62.7,0.200,-0.300,180.360,1000.0
2025-09-03T15:53:22.506219,-0.630,-1.390,359.070,-62.7,0.200,-0.300,180.360,1000.0
2025-09-03T15:53:22.508218,-0.630,-1.380,359.070,-62.7,0.200,-0.300,180.360,1000.0
2025-09-03T15:53:22.624217,-0.630,-1.380,359.070,-62.7,0.200,-0.300,180.360,1000.0
2025-09-03T15:53:22.626218,-0.630,-1.380,359.070,-62.7,0.200,-0.300,180.360,1000.0
2025-09-03T15:53:22.627216,-0.630,-1.380,359.070,-62.7,0.200,-0.300,180.360,1000.0
2025-09-03T15:53:22.629217,-0.630,-1.370,359.070,-62.7,0.200,-0.300,180.360,1000.0
2025-09-03T15:53:22.631218,-0.630,-1.370,359.100,-62.7,0.200,-0.300,180.360,1000.0
2025-09-03T15:53:22.748085,-0.630,-1.380,359.110,-62.7,0.200,-0.300,180.360,1000.0
2025-09-03T15:53:22.751082,-0.630,-1.370,359.130,-62.7,0.200,-0.300,180.360,1000.0
2025-09-03T15:53:22.756085,-0.630,-1.380,359.140,-62.7,0.200,-0.300,180.360,1000.0
2025-09-03T15:53:22.757087,-0.640,-1.360,359.150,-62.7,0.200,-0.300,180.360,1000.0
2025-09-03T15:53:22.759084,-0.630,-1.370,359.160,-62.7,0.200,-0.300,180.360,1000.0
2025-09-03T15:53:22.871376,-0.640,-1.370,359.160,-62.7,0.200,-0.300,180.360,1000.0
2025-09-03T15:53:22.873377,-0.640,-1.360,359.160,-62.7,0.200,-0.300,180.360,1000.0
2025-09-03T15:53:22.875376,-0.630,-1.380,359.180,-62.7,0.200,-0.300,180.360,1000.0
2025-09-03T15:53:22.878378,-0.650,-1.360,359.200,-62.7,0.200,-0.300,180.360,1000.0
2025-09-03T15:53:22.880376,-0.640,-1.350,359.210,-62.7,0.200,-0.300,180.360,1000.0
2025-09-03T15:53:22.991931,-0.640,-1.350,359.210,-62.7,0.200,-0.300,180.360,1000.0
2025-09-03T15:53:22.993932,-0.650,-1.350,359.220,-62.7,0.200,-0.300,180.360,1000.0
2025-09-03T15:53:22.995931,-0.650,-1.350,359.220,-62.7,0.200,-0.300,180.360,1000.0
2025-09-03T15:53:22.997933,-0.650,-1.350,359.230,-62.7,0.200,-0.300,180.360,1000.0
2025-09-03T15:53:22.999931,-0.640,-1.340,359.230,-62.7,0.200,-0.300,180.360,1000.0
2025-09-03T15:53:23.113428,-0.620,-1.340,359.230,-62.7,0.200,-0.300,180.360,1000.0
2025-09-03T15:53:23.115434,-0.610,-1.330,359.230,-62.7,0.200,-0.300,180.360,1000.0
2025-09-03T15:53:23.117434,-0.590,-1.330,359.230,-62.7,0.200,-0.300,180.360,1000.0
2025-09-03T15:53:23.119436,-0.590,-1.320,359.230,-62.7,0.200,-0.300,180.360,1000.0
2025-09-03T15:53:23.121441,-0.600,-1.330,359.220,-62.7,0.200,-0.300,180.360,1000.0
2025-09-03T15:53:23.239226,-0.600,-1.350,359.220,-62.7,0.200,-0.300,180.360,1000.0
2025-09-03T15:53:23.241229,-0.600,-1.350,359.210,-62.7,0.200,-0.300,180.360,1000.0
2025-09-03T15:53:23.245228,-0.600,-1.350,359.220,-62.7,0.200,-0.300,180.360,1000.0
2025-09-03T15:53:23.257230,-0.600,-1.350,359.220,-62.7,0.200,-0.300,180.360,1000.0
2025-09-03T15:53:23.260229,-0.600,-1.350,359.230,-62.7,0.200,-0.300,180.360,1000.0
2025-09-03T15:53:23.376227,-0.620,-1.350,359.230,-62.7,0.200,-0.300,180.360,1000.0
2025-09-03T15:53:23.378227,-0.620,-1.360,359.230,-62.7,0.200,-0.300,180.360,1000.0
2025-09-03T15:53:23.380228,-0.630,-1.340,359.250,-62.7,0.200,-0.300,180.360,1000.0
2025-09-03T15:53:23.382228,-0.630,-1.340,359.250,-62.7,0.200,-0.300,180.360,1000.0
2025-09-03T15:53:23.384226,-0.640,-1.340,359.250,-62.7,0.200,-0.300,180.360,1000.0
2025-09-03T15:53:23.503230,-0.640,-1.340,359.250,-62.7,0.200,-0.300,180.360,1000.0
2025-09-03T15:53:23.505233,-0.630,-1.340,359.250,-62.7,0.200,-0.300,180.360,1000.0
2025-09-03T15:53:23.507229,-0.630,-1.340,359.250,-62.7,0.200,-0.300,180.360,1000.0
2025-09-03T15:53:23.509230,-0.640,-1.330,359.250,-62.7,0.200,-0.300,180.360,1000.0
2025-09-03T15:53:23.511231,-0.630,-1.330,359.250,-62.7,0.200,-0.300,180.360,1000.0
2025-09-03T15:53:23.626228,-0.630,-1.330,359.250,-62.7,0.200,-0.300,180.360,1000.0
2025-09-03T15:53:23.628228,-0.640,-1.310,359.260,-62.7,0.200,-0.300,180.360,1000.0
2025-09-03T15:53:23.631228,-0.640,-1.310,359.260,-62.7,0.200,-0.300,180.360,1000.0
2025-09-03T15:53:23.633230,-0.660,-1.310,359.280,-62.7,0.200,-0.300,180.360,1000.0
2025-09-03T15:53:23.636228,-0.680,-1.310,359.300,-62.7,0.200,-0.300,180.360,1000.0
2025-09-03T15:53:23.747227,-0.710,-1.300,359.350,-62.7,0.200,-0.300,180.360,1000.0
2025-09-03T15:53:23.750229,-0.750,-1.290,359.420,-62.7,0.200,-0.300,180.360,1000.0
2025-09-03T15:53:23.753231,-0.800,-1.290,359.490,-62.7,0.200,-0.300,180.360,1000.0
2025-09-03T15:53:23.755230,-0.860,-1.280,359.590,-62.7,0.200,-0.300,180.360,1000.0
2025-09-03T15:53:23.757226,-0.930,-1.270,359.680,-62.7,0.200,-0.300,180.360,1000.0
2025-09-03T15:53:23.870292,-0.960,-1.260,359.730,-62.7,0.200,-0.300,180.360,1000.0
2025-09-03T15:53:23.872290,-0.940,-1.260,359.730,-62.7,0.200,-0.300,180.360,1000.0
2025-09-03T15:53:23.875291,-0.920,-1.250,359.740,-62.7,0.200,-0.300,180.360,1000.0
2025-09-03T15:53:23.877292,-0.880,-1.260,359.740,-62.7,0.200,-0.300,180.360,1000.0
2025-09-03T15:53:23.878293,-0.850,-1.260,359.740,-62.7,0.200,-0.300,180.360,1000.0
2025-09-03T15:53:23.991913,-0.850,-1.270,359.750,-62.7,0.200,-0.300,180.360,1000.0
2025-09-03T15:53:23.993914,-0.890,-1.260,359.750,-62.7,0.200,-0.300,180.360,1000.0
2025-09-03T15:53:23.995914,-0.960,-1.270,359.760,-62.7,0.200,-0.300,180.360,1000.0
2025-09-03T15:53:23.997915,-1.060,-1.250,359.830,-62.7,0.200,-0.300,180.360,1000.0
2025-09-03T15:53:23.999915,-1.180,-1.220,359.950,-62.7,0.200,-0.300,180.360,1000.0
2025-09-03T15:53:24.113914,-1.300,-1.180,0.070,-62.7,0.200,-0.300,180.360,1000.0
2025-09-03T15:53:24.115916,-1.360,-1.190,0.180,-62.7,0.200,-0.300,180.360,1000.0
2025-09-03T15:53:24.119914,-1.320,-1.200,0.220,-62.7,0.200,-0.300,180.360,1000.0
2025-09-03T15:53:24.122918,-1.290,-1.210,0.210,-62.7,0.200,-0.300,180.360,1000.0
2025-09-03T15:53:24.124916,-1.190,-1.240,0.210,-62.7,0.200,-0.300,180.360,1000.0
2025-09-03T15:53:24.240914,-1.020,-1.270,0.220,-62.7,0.200,-0.300,180.360,1000.0
2025-09-03T15:53:24.242916,-0.770,-1.280,0.190,-62.7,0.200,-0.300,180.360,1000.0
2025-09-03T15:53:24.244920,-0.540,-1.300,0.060,-62.7,0.200,-0.300,180.360,1000.0
2025-09-03T15:53:24.248914,-0.470,-1.320,359.840,-62.7,0.200,-0.300,180.360,1000.0
2025-09-03T15:53:24.250913,-0.410,-1.330,359.630,-62.7,0.200,-0.300,180.360,1000.0
2025-09-03T15:53:24.364913,-0.410,-1.310,359.500,-62.7,0.200,-0.300,180.360,1000.0
2025-09-03T15:53:24.366913,-0.450,-1.260,359.540,-62.7,0.200,-0.300,180.360,1000.0
2025-09-03T15:53:24.368914,-0.490,-1.190,359.630,-62.7,0.200,-0.300,180.360,1000.0
2025-09-03T15:53:24.370914,-0.520,-1.140,359.680,-62.7,0.200,-0.300,180.360,1000.0
2025-09-03T15:53:24.372913,-0.530,-1.130,359.700,-62.7,0.200,-0.300,180.360,1000.0
2025-09-03T15:53:24.487872,-0.530,-1.150,359.740,-62.7,0.200,-0.300,180.360,1000.0
2025-09-03T15:53:24.489875,-0.550,-1.170,359.860,-62.7,0.200,-0.300,180.360,1000.0
2025-09-03T15:53:24.491874,-0.580,-1.160,0.040,-62.7,0.200,-0.300,180.360,1000.0
2025-09-03T15:53:24.493875,-0.610,-1.140,0.210,-62.7,0.200,-0.300,180.360,1000.0
2025-09-03T15:53:24.495873,-0.670,-1.140,0.300,-62.7,0.200,-0.300,180.360,1000.0
2025-09-03T15:53:24.609915,-0.760,-1.160,0.390,-62.7,0.200,-0.300,180.360,1000.0
2025-09-03T15:53:24.611875,-0.940,-1.170,0.510,-62.7,0.200,-0.300,180.360,1000.0
2025-09-03T15:53:24.613877,-1.150,-1.130,0.660,-62.7,0.200,-0.300,180.360,1000.0
2025-09-03T15:53:24.615876,-1.210,-1.130,0.750,-62.7,0.200,-0.300,180.360,1000.0
2025-09-03T15:53:24.617874,-1.210,-1.120,0.790,-62.7,0.200,-0.300,180.360,1000.0
2025-09-03T15:53:24.733085,-1.230,-1.170,0.970,-62.7,0.200,-0.300,180.360,1000.0
2025-09-03T15:53:24.735083,-1.280,-1.220,1.300,-62.7,0.200,-0.300,180.360,1000.0
2025-09-03T15:53:24.737083,-1.340,-1.270,1.480,-62.7,0.200,-0.300,180.360,1000.0
2025-09-03T15:53:24.739085,-1.390,-1.290,1.550,-62.7,0.200,-0.300,180.360,1000.0
2025-09-03T15:53:24.740084,-1.410,-1.280,1.610,-62.7,0.200,-0.300,180.360,1000.0
2025-09-03T15:53:24.858061,-1.390,-1.300,1.650,-62.7,0.200,-0.300,180.360,1000.0
2025-09-03T15:53:24.860060,-1.380,-1.290,1.720,-62.7,0.200,-0.300,180.360,1000.0
2025-09-03T15:53:24.862062,-1.390,-1.270,1.900,-62.7,0.200,-0.300,180.360,1000.0
2025-09-03T15:53:24.864062,-1.400,-1.270,2.010,-62.7,0.200,-0.300,180.360,1000.0
2025-09-03T15:53:24.866062,-1.410,-1.270,2.100,-62.7,0.200,-0.300,180.360,1000.0
2025-09-03T15:53:24.980875,-1.400,-1.290,2.160,-62.7,0.200,-0.300,180.360,1000.0
2025-09-03T15:53:24.982874,-1.390,-1.300,2.240,-62.7,0.200,-0.300,180.360,1000.0
2025-09-03T15:53:24.984874,-1.410,-1.270,2.330,-62.7,0.200,-0.300,180.360,1000.0
2025-09-03T15:53:24.986874,-1.430,-1.220,2.400,-62.7,0.200,-0.300,180.360,1000.0
2025-09-03T15:53:24.988875,-1.480,-1.200,2.450,-62.7,0.200,-0.300,180.360,1000.0
2025-09-03T15:53:25.106785,-1.530,-1.180,2.470,-62.7,0.200,-0.300,180.360,1000.0
2025-09-03T15:53:25.108789,-1.540,-1.160,2.450,-62.7,0.200,-0.300,180.360,1000.0
2025-09-03T15:53:25.110786,-1.520,-1.170,2.450,-62.7,0.200,-0.300,180.360,1000.0
2025-09-03T15:53:25.112787,-1.500,-1.180,2.530,-62.7,0.200,-0.300,180.360,1000.0
2025-09-03T15:53:25.113786,-1.500,-1.170,2.650,-62.7,0.200,-0.300,180.360,1000.0
2025-09-03T15:53:25.229929,-1.490,-1.170,2.720,-62.7,0.200,-0.300,180.360,1000.0
2025-09-03T15:53:25.230920,-1.510,-1.220,2.800,-62.7,0.200,-0.300,180.360,1000.0
2025-09-03T15:53:25.232922,-1.530,-1.220,2.790,-62.7,0.200,-0.300,180.360,1000.0
2025-09-03T15:53:25.234920,-1.540,-1.210,2.780,-62.7,0.200,-0.300,180.360,1000.0
