Timestamp,Roll_Angle,Pitch_Angle,Yaw_Angle,Altitude,Roll_Setpoint,Pitch_Setpoint,Yaw_Setpoint,Altitude_Setpoint
2025-09-10T15:27:05.594107,-0.140,0.910,109.540,-40.0,0.400,-0.400,181.080,1000.0
2025-09-10T15:27:05.598104,-0.140,0.910,109.540,-40.0,0.400,-0.400,181.080,1000.0
2025-09-10T15:27:05.631108,-0.140,0.910,109.540,-40.0,0.400,-0.400,181.080,1000.0
2025-09-10T15:27:05.634105,-0.140,0.910,109.540,-40.0,0.400,-0.400,181.080,1000.0
2025-09-10T15:27:05.655111,-0.140,0.910,109.540,-40.0,0.400,-0.400,181.080,1000.0
2025-09-10T15:27:05.685104,-0.130,0.900,109.540,-40.0,0.400,-0.400,181.080,1000.0
2025-09-10T15:27:05.691106,-0.130,0.900,109.540,-40.0,0.400,-0.400,181.080,1000.0
2025-09-10T15:27:05.730107,-0.130,0.900,109.540,-40.0,0.400,-0.400,181.080,1000.0
2025-09-10T15:27:05.734105,-0.130,0.900,109.540,-40.0,0.400,-0.400,181.080,1000.0
2025-09-10T15:27:05.760106,-0.130,0.900,109.540,-40.0,0.400,-0.400,181.080,1000.0
2025-09-10T15:27:05.775105,-0.130,0.900,109.540,-40.0,0.400,-0.400,181.080,1000.0
2025-09-10T15:27:05.790104,-0.130,0.900,109.540,-40.0,0.400,-0.400,181.080,1000.0
2025-09-10T15:27:05.835507,-0.130,0.900,109.540,-40.0,0.400,-0.400,181.080,1000.0
2025-09-10T15:27:05.837506,-0.130,0.900,109.540,-40.0,0.400,-0.400,181.080,1000.0
2025-09-10T15:27:05.865352,-0.130,0.900,109.540,-40.0,0.400,-0.400,181.080,1000.0
2025-09-10T15:27:05.866353,-0.130,0.900,109.540,-40.0,0.400,-0.400,181.080,1000.0
2025-09-10T15:27:05.895383,-0.130,0.900,109.540,-40.0,0.400,-0.400,181.080,1000.0
2025-09-10T15:27:05.925820,-0.130,0.900,109.540,-40.0,0.400,-0.400,181.080,1000.0
2025-09-10T15:27:05.927822,-0.130,0.900,109.540,-40.0,0.400,-0.400,181.080,1000.0
2025-09-10T15:27:05.971192,-0.130,0.900,109.540,-40.0,0.400,-0.400,181.080,1000.0
2025-09-10T15:27:05.974210,-0.130,0.900,109.540,-40.0,0.400,-0.400,181.080,1000.0
2025-09-10T15:27:06.001431,-0.130,0.900,109.540,-40.0,0.400,-0.400,181.080,1000.0
2025-09-10T15:27:06.031831,-0.130,0.900,109.540,-40.0,0.400,-0.400,181.080,1000.0
2025-09-10T15:27:06.032830,-0.130,0.900,109.540,-40.0,0.400,-0.400,181.080,1000.0
2025-09-10T15:27:06.061744,-0.130,0.900,109.540,-40.0,0.400,-0.400,181.080,1000.0
2025-09-10T15:27:06.062744,-0.130,0.900,109.540,-40.0,0.400,-0.400,181.080,1000.0
2025-09-10T15:27:06.091811,-0.130,0.900,109.540,-40.0,0.400,-0.400,181.080,1000.0
2025-09-10T15:27:06.122116,-0.130,0.900,109.540,-40.0,0.400,-0.400,181.080,1000.0
2025-09-10T15:27:06.126113,-0.130,0.900,109.540,-40.0,0.400,-0.400,181.080,1000.0
2025-09-10T15:27:06.167178,-0.130,0.900,109.540,-40.0,0.400,-0.400,181.080,1000.0
2025-09-10T15:27:06.169180,-0.130,0.900,109.540,-40.0,0.400,-0.400,181.080,1000.0
2025-09-10T15:27:06.197122,-0.130,0.900,109.540,-40.0,0.400,-0.400,181.080,1000.0
2025-09-10T15:27:06.242603,-0.130,0.900,109.540,-40.0,0.400,-0.400,181.080,1000.0
2025-09-10T15:27:06.245494,-0.130,0.900,109.540,-40.0,0.400,-0.400,181.080,1000.0
2025-09-10T15:27:06.273003,-0.130,0.910,109.540,-40.0,0.400,-0.400,181.080,1000.0
2025-09-10T15:27:06.274010,-0.130,0.910,109.540,-40.0,0.400,-0.400,181.080,1000.0
2025-09-10T15:27:06.302849,-0.130,0.910,109.540,-40.0,0.400,-0.400,181.080,1000.0
2025-09-10T15:27:06.332837,-0.130,0.910,109.540,-40.0,0.400,-0.400,181.080,1000.0
2025-09-10T15:27:06.334836,-0.130,0.910,109.540,-40.0,0.400,-0.400,181.080,1000.0
2025-09-10T15:27:06.362849,-0.130,0.910,109.540,-40.0,0.400,-0.400,181.080,1000.0
2025-09-10T15:27:06.363850,-0.140,0.920,109.540,-40.0,0.400,-0.400,181.080,1000.0
2025-09-10T15:27:06.392849,-0.140,0.920,109.540,-40.0,0.400,-0.400,181.080,1000.0
2025-09-10T15:27:06.422782,-0.140,0.920,109.540,-40.0,0.400,-0.400,181.080,1000.0
2025-09-10T15:27:06.425790,-0.140,0.920,109.540,-40.0,0.400,-0.400,181.080,1000.0
2025-09-10T15:27:06.467778,-0.150,0.930,109.540,-40.0,0.400,-0.400,181.080,1000.0
2025-09-10T15:27:06.468778,-0.150,0.930,109.540,-40.0,0.400,-0.400,181.080,1000.0
2025-09-10T15:27:06.498396,-0.150,0.930,109.540,-40.0,0.400,-0.400,181.080,1000.0
2025-09-10T15:27:06.544596,-0.160,0.930,109.540,-40.0,0.400,-0.400,181.080,1000.0
2025-09-10T15:27:06.545596,-0.160,0.930,109.540,-40.0,0.400,-0.400,181.080,1000.0
2025-09-10T15:27:06.575109,-0.160,0.930,109.540,-40.0,0.400,-0.400,181.080,1000.0
2025-09-10T15:27:06.576109,-0.160,0.930,109.540,-40.0,0.400,-0.400,181.080,1000.0
2025-09-10T15:27:06.605272,-0.160,0.930,109.540,-40.0,0.400,-0.400,181.080,1000.0
2025-09-10T15:27:06.635966,-0.160,0.930,109.540,-40.0,0.400,-0.400,181.080,1000.0
2025-09-10T15:27:06.636965,-0.160,0.930,109.540,-40.0,0.400,-0.400,181.080,1000.0
2025-09-10T15:27:06.665846,-0.160,0.930,109.540,-39.9,0.400,-0.400,181.080,1000.0
2025-09-10T15:27:06.666847,-0.160,0.930,109.540,-39.9,0.400,-0.400,181.080,1000.0
2025-09-10T15:27:06.695494,-0.160,0.930,109.540,-39.9,0.400,-0.400,181.080,1000.0
2025-09-10T15:27:06.696493,-0.160,0.930,109.540,-39.9,0.400,-0.400,181.080,1000.0
2025-09-10T15:27:06.726296,-0.160,0.930,109.540,-39.9,0.400,-0.400,181.080,1000.0
2025-09-10T15:27:06.770592,-0.150,0.930,109.540,-39.9,0.400,-0.400,181.080,1000.0
2025-09-10T15:27:06.772596,-0.150,0.930,109.540,-40.0,0.400,-0.400,181.080,1000.0
2025-09-10T15:27:06.800592,-0.150,0.930,109.540,-39.9,0.400,-0.400,181.080,1000.0
2025-09-10T15:27:06.814589,-0.140,0.920,109.540,-39.9,0.400,-0.400,181.080,1000.0
2025-09-10T15:27:06.830596,-0.140,0.920,109.540,-39.9,0.400,-0.400,181.080,1000.0
2025-09-10T15:27:06.875617,-0.140,0.920,109.540,-39.9,0.400,-0.400,181.080,1000.0
2025-09-10T15:27:06.877593,-0.140,0.920,109.540,-39.9,0.400,-0.400,181.080,1000.0
2025-09-10T15:27:06.905945,-0.140,0.920,109.540,-39.9,0.400,-0.400,181.080,1000.0
2025-09-10T15:27:06.907940,-0.140,0.920,109.540,-39.9,0.400,-0.400,181.080,1000.0
2025-09-10T15:27:06.935941,-0.140,0.920,109.540,-39.9,0.400,-0.400,181.080,1000.0
2025-09-10T15:27:06.965939,-0.140,0.910,109.540,-39.9,0.400,-0.400,181.080,1000.0
2025-09-10T15:27:06.966938,-0.150,0.920,109.540,-39.9,0.400,-0.400,181.080,1000.0
2025-09-10T15:27:07.011352,-0.150,0.920,109.540,-39.9,0.400,-0.400,181.080,1000.0
2025-09-10T15:27:07.013354,-0.150,0.920,109.540,-39.9,0.400,-0.400,181.080,1000.0
2025-09-10T15:27:07.041657,-0.150,0.910,109.540,-39.9,0.400,-0.400,181.080,1000.0
2025-09-10T15:27:07.071433,-0.150,0.910,109.540,-39.9,0.400,-0.400,181.080,1000.0
2025-09-10T15:27:07.073441,-0.150,0.910,109.540,-39.9,0.400,-0.400,181.080,1000.0
2025-09-10T15:27:07.101964,-0.160,0.920,109.540,-39.9,0.400,-0.400,181.080,1000.0
2025-09-10T15:27:07.102965,-0.160,0.920,109.540,-39.9,0.400,-0.400,181.080,1000.0
2025-09-10T15:27:07.132529,-0.160,0.910,109.540,-39.9,0.400,-0.400,181.080,1000.0
2025-09-10T15:27:07.179052,-0.160,0.910,109.540,-39.9,0.400,-0.400,181.080,1000.0
2025-09-10T15:27:07.180052,-0.160,0.910,109.540,-39.9,0.400,-0.400,181.080,1000.0
2025-09-10T15:27:07.209091,-0.160,0.910,109.540,-39.9,0.400,-0.400,181.080,1000.0
2025-09-10T15:27:07.210089,-0.160,0.910,109.540,-39.9,0.400,-0.400,181.080,1000.0
2025-09-10T15:27:07.238776,-0.160,0.910,109.540,-39.9,0.400,-0.400,181.080,1000.0
2025-09-10T15:27:07.269223,-0.160,0.910,109.540,-39.9,0.400,-0.400,181.080,1000.0
2025-09-10T15:27:07.271212,-0.160,0.910,109.540,-39.9,0.400,-0.400,181.080,1000.0
2025-09-10T15:27:07.314937,-0.160,0.910,109.540,-40.0,0.400,-0.400,181.080,1000.0
2025-09-10T15:27:07.316937,-0.160,0.910,109.540,-40.0,0.400,-0.400,181.080,1000.0
2025-09-10T15:27:07.344743,-0.160,0.910,109.540,-40.0,0.400,-0.400,181.080,1000.0
2025-09-10T15:27:07.375091,-0.150,0.910,109.540,-40.0,0.400,-0.400,181.080,1000.0
2025-09-10T15:27:07.377089,-0.150,0.910,109.540,-40.0,0.400,-0.400,181.080,1000.0
2025-09-10T15:27:07.405090,-0.150,0.910,109.540,-40.0,0.400,-0.400,181.080,1000.0
2025-09-10T15:27:07.407090,-0.150,0.910,109.540,-40.0,0.400,-0.400,181.080,1000.0
2025-09-10T15:27:07.435588,-0.150,0.910,109.540,-40.0,0.400,-0.400,181.080,1000.0
2025-09-10T15:27:07.465890,-0.150,0.910,109.540,-40.0,0.400,-0.400,181.080,1000.0
2025-09-10T15:27:07.467844,-0.150,0.910,109.540,-40.0,0.400,-0.400,181.080,1000.0
2025-09-10T15:27:07.495842,-0.150,0.910,109.540,-40.0,0.400,-0.400,181.080,1000.0
2025-09-10T15:27:07.510867,-0.140,0.900,109.540,-40.0,0.400,-0.400,181.080,1000.0
2025-09-10T15:27:07.525874,-0.150,0.920,109.540,-40.0,0.400,-0.400,181.080,1000.0
2025-09-10T15:27:07.586538,-0.160,0.930,109.540,-40.0,0.400,-0.400,181.080,1000.0
2025-09-10T15:27:07.587536,-0.150,0.930,109.530,-40.0,0.400,-0.400,181.080,1000.0
2025-09-10T15:27:07.617215,-0.150,0.930,109.530,-40.0,0.400,-0.400,181.080,1000.0
2025-09-10T15:27:07.620223,-0.150,0.930,109.530,-40.0,0.400,-0.400,181.080,1000.0
2025-09-10T15:27:07.647144,-0.140,0.940,109.530,-40.0,0.400,-0.400,181.080,1000.0
2025-09-10T15:27:07.649142,-0.140,0.940,109.530,-40.0,0.400,-0.400,181.080,1000.0
2025-09-10T15:27:07.676903,-0.140,0.940,109.530,-40.0,0.400,-0.400,181.080,1000.0
2025-09-10T15:27:07.707388,-0.140,0.940,109.530,-40.0,0.400,-0.400,181.080,1000.0
2025-09-10T15:27:07.709377,-0.140,0.940,109.530,-40.0,0.400,-0.400,181.080,1000.0
2025-09-10T15:27:07.737479,-0.150,0.940,109.540,-40.0,0.400,-0.400,181.080,1000.0
2025-09-10T15:27:07.767626,-0.150,0.940,109.540,-40.0,0.400,-0.400,181.080,1000.0
2025-09-10T15:27:07.768626,-0.150,0.940,109.540,-40.0,0.400,-0.400,181.080,1000.0
2025-09-10T15:27:07.797571,-0.160,0.940,109.540,-40.0,0.400,-0.400,181.080,1000.0
2025-09-10T15:27:07.798571,-0.150,0.950,109.540,-40.0,0.400,-0.400,181.080,1000.0
2025-09-10T15:27:07.843021,-0.150,0.950,109.540,-40.0,0.400,-0.400,181.080,1000.0
2025-09-10T15:27:07.844023,-0.150,0.950,109.540,-40.0,0.400,-0.400,181.080,1000.0
2025-09-10T15:27:07.872991,-0.160,0.950,109.540,-40.0,0.400,-0.400,181.080,1000.0
2025-09-10T15:27:07.917915,-0.160,0.940,109.540,-40.0,0.400,-0.400,181.080,1000.0
2025-09-10T15:27:07.919914,-0.170,0.950,109.540,-40.0,0.400,-0.400,181.080,1000.0
2025-09-10T15:27:07.949188,-0.160,0.950,109.540,-39.9,0.400,-0.400,181.080,1000.0
2025-09-10T15:27:07.950188,-0.170,0.950,109.540,-39.9,0.400,-0.400,181.080,1000.0
2025-09-10T15:27:07.979245,-0.170,0.950,109.530,-39.9,0.400,-0.400,181.080,1000.0
2025-09-10T15:27:08.010034,-0.160,0.940,109.540,-39.9,0.400,-0.400,181.080,1000.0
2025-09-10T15:27:08.011034,-0.160,0.940,109.540,-39.9,0.400,-0.400,181.080,1000.0
2025-09-10T15:27:08.039828,-0.160,0.940,109.540,-39.9,0.400,-0.400,181.080,1000.0
2025-09-10T15:27:08.042826,-0.170,0.950,109.540,-39.9,0.400,-0.400,181.080,1000.0
2025-09-10T15:27:08.069582,-0.170,0.950,109.540,-39.9,0.400,-0.400,181.080,1000.0
2025-09-10T15:27:08.115163,-0.170,0.950,109.540,-39.9,0.400,-0.400,181.080,1000.0
2025-09-10T15:27:08.116175,-0.170,0.950,109.540,-39.9,0.400,-0.400,181.080,1000.0
2025-09-10T15:27:08.145173,-0.170,0.950,109.550,-39.9,0.400,-0.400,181.080,1000.0
2025-09-10T15:27:08.146172,-0.170,0.950,109.550,-40.0,0.400,-0.400,181.080,1000.0
2025-09-10T15:27:08.175085,-0.180,0.950,109.550,-40.0,0.400,-0.400,181.080,1000.0
2025-09-10T15:27:08.204319,-0.170,0.940,109.540,-40.0,0.400,-0.400,181.080,1000.0
2025-09-10T15:27:08.219325,-0.170,0.940,109.540,-40.0,0.400,-0.400,181.080,1000.0
2025-09-10T15:27:08.249815,-0.170,0.940,109.540,-40.0,0.400,-0.400,181.080,1000.0
2025-09-10T15:27:08.250817,-0.170,0.940,109.540,-40.0,0.400,-0.400,181.080,1000.0
2025-09-10T15:27:08.279853,-0.170,0.940,109.540,-40.0,0.400,-0.400,181.080,1000.0
2025-09-10T15:27:08.310256,-0.170,0.940,109.540,-40.0,0.400,-0.400,181.080,1000.0
2025-09-10T15:27:08.311255,-0.170,0.930,109.540,-40.0,0.400,-0.400,181.080,1000.0
2025-09-10T15:27:08.355645,-0.170,0.930,109.540,-40.0,0.400,-0.400,181.080,1000.0
2025-09-10T15:27:08.357647,-0.170,0.930,109.540,-40.0,0.400,-0.400,181.080,1000.0
2025-09-10T15:27:08.386169,-0.180,0.930,109.540,-40.0,0.400,-0.400,181.080,1000.0
2025-09-10T15:27:08.416169,-0.180,0.930,109.540,-40.0,0.400,-0.400,181.080,1000.0
2025-09-10T15:27:08.417169,-0.180,0.930,109.540,-40.0,0.400,-0.400,181.080,1000.0
2025-09-10T15:27:08.446643,-0.180,0.930,109.540,-40.0,0.400,-0.400,181.080,1000.0
2025-09-10T15:27:08.447642,-0.170,0.920,109.530,-40.0,0.400,-0.400,181.080,1000.0
2025-09-10T15:27:08.476643,-0.170,0.920,109.540,-40.0,0.400,-0.400,181.080,1000.0
2025-09-10T15:27:08.506796,-0.170,0.920,109.540,-40.0,0.400,-0.400,181.080,1000.0
2025-09-10T15:27:08.522308,-0.170,0.920,109.540,-40.0,0.400,-0.400,181.080,1000.0
2025-09-10T15:27:08.537829,-0.170,0.920,109.540,-40.0,0.400,-0.400,181.080,1000.0
2025-09-10T15:27:08.552830,-0.170,0.920,109.540,-40.0,0.400,-0.400,181.080,1000.0
2025-09-10T15:27:08.582828,-0.180,0.930,109.540,-40.0,0.400,-0.400,181.080,1000.0
2025-09-10T15:27:08.585827,-0.170,0.930,109.540,-40.0,0.400,-0.400,181.080,1000.0
2025-09-10T15:27:08.612918,-0.170,0.930,109.540,-40.0,0.400,-0.400,181.080,1000.0
2025-09-10T15:27:08.657653,-0.170,0.930,109.540,-40.0,0.400,-0.400,181.080,1000.0
2025-09-10T15:27:08.659649,-0.160,0.920,109.540,-40.0,0.400,-0.400,181.080,1000.0
2025-09-10T15:27:08.687649,-0.160,0.930,109.540,-40.0,0.400,-0.400,181.080,1000.0
2025-09-10T15:27:08.691648,-0.160,0.930,109.540,-40.0,0.400,-0.400,181.080,1000.0
2025-09-10T15:27:08.717640,-0.150,0.920,109.540,-40.0,0.400,-0.400,181.080,1000.0
2025-09-10T15:27:08.747642,-0.150,0.920,109.540,-40.0,0.400,-0.400,181.080,1000.0
2025-09-10T15:27:08.748640,-0.150,0.930,109.540,-40.0,0.400,-0.400,181.080,1000.0
2025-09-10T15:27:08.777639,-0.150,0.930,109.530,-40.0,0.400,-0.400,181.080,1000.0
2025-09-10T15:27:08.780640,-0.150,0.920,109.530,-39.9,0.400,-0.400,181.080,1000.0
2025-09-10T15:27:08.807641,-0.150,0.920,109.530,-40.0,0.400,-0.400,181.080,1000.0
2025-09-10T15:27:08.837853,-0.150,0.920,109.530,-40.0,0.400,-0.400,181.080,1000.0
2025-09-10T15:27:08.838855,-0.150,0.920,109.530,-39.9,0.400,-0.400,181.080,1000.0
2025-09-10T15:27:08.883388,-0.140,0.910,109.530,-39.9,0.400,-0.400,181.080,1000.0
2025-09-10T15:27:08.886387,-0.140,0.910,109.530,-39.9,0.400,-0.400,181.080,1000.0
2025-09-10T15:27:08.928321,-0.150,0.910,109.530,-39.9,0.400,-0.400,181.080,1000.0
2025-09-10T15:27:08.958323,-0.150,0.910,109.530,-39.9,0.400,-0.400,181.080,1000.0
2025-09-10T15:27:08.960320,-0.150,0.910,109.530,-39.9,0.400,-0.400,181.080,1000.0
2025-09-10T15:27:08.988322,-0.140,0.910,109.530,-39.9,0.400,-0.400,181.080,1000.0
2025-09-10T15:27:08.992217,-0.140,0.910,109.530,-39.9,0.400,-0.400,181.080,1000.0
2025-09-10T15:27:09.018214,-0.140,0.910,109.530,-39.9,0.400,-0.400,181.080,1000.0
2025-09-10T15:27:09.048660,-0.140,0.910,109.530,-39.9,0.400,-0.400,181.080,1000.0
2025-09-10T15:27:09.049660,-0.140,0.910,109.530,-39.9,0.400,-0.400,181.080,1000.0
2025-09-10T15:27:09.077677,-0.140,0.910,109.530,-39.9,0.400,-0.400,181.080,1000.0
2025-09-10T15:27:09.081669,-0.140,0.910,109.530,-39.9,0.400,-0.400,181.080,1000.0
2025-09-10T15:27:09.123492,-0.140,0.910,109.530,-39.9,0.400,-0.400,181.080,1000.0
2025-09-10T15:27:09.153655,-0.140,0.910,109.530,-39.9,0.400,-0.400,181.080,1000.0
2025-09-10T15:27:09.154655,-0.140,0.910,109.530,-39.9,0.400,-0.400,181.080,1000.0
2025-09-10T15:27:09.184184,-0.140,0.920,109.530,-39.9,0.400,-0.400,181.080,1000.0
2025-09-10T15:27:09.199186,-0.140,0.920,109.530,-39.9,0.400,-0.400,181.080,1000.0
2025-09-10T15:27:09.214202,-0.140,0.920,109.530,-39.9,0.400,-0.400,181.080,1000.0
2025-09-10T15:27:09.259112,-0.130,0.920,109.530,-39.9,0.400,-0.400,181.080,1000.0
2025-09-10T15:27:09.261201,-0.130,0.920,109.530,-39.9,0.400,-0.400,181.080,1000.0
2025-09-10T15:27:09.289088,-0.120,0.930,109.530,-39.9,0.400,-0.400,181.080,1000.0
2025-09-10T15:27:09.295089,-0.120,0.930,109.530,-39.9,0.400,-0.400,181.080,1000.0
2025-09-10T15:27:09.319299,-0.120,0.930,109.530,-39.9,0.400,-0.400,181.080,1000.0
2025-09-10T15:27:09.349487,-0.120,0.930,109.530,-40.0,0.400,-0.400,181.080,1000.0
2025-09-10T15:27:09.351485,-0.120,0.930,109.530,-40.0,0.400,-0.400,181.080,1000.0
2025-09-10T15:27:09.394861,-0.110,0.920,109.540,-40.0,0.400,-0.400,181.080,1000.0
2025-09-10T15:27:09.398861,-0.100,0.920,109.540,-40.0,0.400,-0.400,181.080,1000.0
2025-09-10T15:27:09.425088,-0.100,0.930,109.540,-40.0,0.400,-0.400,181.080,1000.0
2025-09-10T15:27:09.455342,-0.100,0.930,109.540,-40.0,0.400,-0.400,181.080,1000.0
2025-09-10T15:27:09.457350,-0.090,0.920,109.540,-40.0,0.400,-0.400,181.080,1000.0
2025-09-10T15:27:09.485634,-0.080,0.920,109.540,-40.0,0.400,-0.400,181.080,1000.0
2025-09-10T15:27:09.488639,-0.070,0.910,109.550,-40.0,0.400,-0.400,181.080,1000.0
2025-09-10T15:27:09.516029,-0.070,0.910,109.560,-40.0,0.400,-0.400,181.080,1000.0
2025-09-10T15:27:09.546537,-0.060,0.910,109.570,-40.0,0.400,-0.400,181.080,1000.0
2025-09-10T15:27:09.547536,-0.050,0.890,109.590,-40.0,0.400,-0.400,181.080,1000.0
2025-09-10T15:27:09.591267,-0.040,0.880,109.630,-40.0,0.400,-0.400,181.080,1000.0
2025-09-10T15:27:09.595265,-0.040,0.840,109.740,-40.0,0.400,-0.400,181.080,1000.0
2025-09-10T15:27:09.621687,-0.030,0.790,109.880,-40.0,0.400,-0.400,181.080,1000.0
2025-09-10T15:27:09.667259,-0.040,0.770,110.030,-40.0,0.400,-0.400,181.080,1000.0
2025-09-10T15:27:09.668257,-0.040,0.730,110.250,-40.0,0.400,-0.400,181.080,1000.0
2025-09-10T15:27:09.696966,-0.040,0.620,110.550,-40.0,0.400,-0.400,181.080,1000.0
2025-09-10T15:27:09.700968,-0.040,0.450,110.910,-40.0,0.400,-0.400,181.080,1000.0
2025-09-10T15:27:09.727697,-0.030,0.150,111.340,-40.0,0.400,-0.400,181.080,1000.0
2025-09-10T15:27:09.730253,0.020,-0.220,111.800,-40.0,0.400,-0.400,181.080,1000.0
2025-09-10T15:27:09.756621,0.170,-0.600,112.130,-40.0,0.400,-0.400,181.080,1000.0
2025-09-10T15:27:09.787582,0.470,-1.200,112.450,-40.0,0.400,-0.400,181.080,1000.0
2025-09-10T15:27:09.791589,0.920,-1.800,112.640,-40.0,0.400,-0.400,181.080,1000.0
2025-09-10T15:27:09.816924,1.550,-2.380,112.770,-40.0,0.400,-0.400,181.080,1000.0
2025-09-10T15:27:09.817924,2.370,-2.880,112.910,-40.0,0.400,-0.400,181.080,1000.0
2025-09-10T15:27:09.847310,3.400,-3.270,113.130,-40.0,0.400,-0.400,181.080,1000.0
2025-09-10T15:27:09.877434,4.550,-3.420,113.480,-40.0,0.400,-0.400,181.080,1000.0
2025-09-10T15:27:09.910407,5.590,-3.340,113.830,-40.0,0.400,-0.400,181.080,1000.0
2025-09-10T15:27:09.937277,6.980,-2.950,114.310,-40.0,0.400,-0.400,181.080,1000.0
2025-09-10T15:27:09.938276,8.050,-2.380,114.660,-40.0,0.400,-0.400,181.080,1000.0
2025-09-10T15:27:09.952277,8.950,-1.620,114.950,-40.0,0.400,-0.400,181.080,1000.0
2025-09-10T15:27:09.997116,9.530,-0.730,115.180,-40.0,0.400,-0.400,181.080,1000.0
2025-09-10T15:27:10.001117,9.740,0.010,115.340,-40.0,0.400,-0.400,181.080,1000.0
2025-09-10T15:27:10.028337,9.600,1.240,115.590,-40.0,0.400,-0.400,181.080,1000.0
2025-09-10T15:27:10.030116,9.020,2.070,115.730,-40.0,0.400,-0.400,181.080,1000.0
2025-09-10T15:27:10.057117,8.020,2.710,115.720,-40.0,0.400,-0.400,181.080,1000.0
2025-09-10T15:27:10.087170,6.730,3.110,115.530,-40.0,0.400,-0.400,181.080,1000.0
2025-09-10T15:27:10.093174,5.240,3.280,115.210,-40.0,0.400,-0.400,181.080,1000.0
2025-09-10T15:27:10.117403,3.650,3.330,114.860,-40.0,0.400,-0.400,181.080,1000.0
2025-09-10T15:27:10.120394,2.030,3.340,114.590,-40.0,0.400,-0.400,181.080,1000.0
2025-09-10T15:27:10.162904,0.510,3.410,114.360,-40.0,0.400,-0.400,181.080,1000.0
2025-09-10T15:27:10.193110,-0.840,3.540,114.200,-40.0,0.400,-0.400,181.080,1000.0
2025-09-10T15:27:10.197106,-1.990,3.710,114.080,-40.0,0.400,-0.400,181.080,1000.0
2025-09-10T15:27:10.223085,-2.960,3.880,113.950,-40.0,0.400,-0.400,181.080,1000.0
2025-09-10T15:27:10.226091,-3.690,4.040,113.780,-40.0,0.400,-0.400,181.080,1000.0
2025-09-10T15:27:10.253371,-4.490,4.320,113.460,-40.0,0.400,-0.400,181.080,1000.0
2025-09-10T15:27:10.298058,-5.140,4.580,113.180,-40.0,0.400,-0.400,181.080,1000.0
2025-09-10T15:27:10.302075,-5.720,4.890,113.010,-40.0,0.400,-0.400,181.080,1000.0
2025-09-10T15:27:10.328927,-6.020,5.220,112.970,-40.0,0.400,-0.400,181.080,1000.0
2025-09-10T15:27:10.330926,-5.890,5.490,113.010,-40.0,0.400,-0.400,181.080,1000.0
2025-09-10T15:27:10.360929,-5.350,5.640,113.030,-40.0,0.400,-0.400,181.080,1000.0
2025-09-10T15:27:10.389928,-4.410,5.700,113.110,-40.0,0.400,-0.400,181.080,1000.0
2025-09-10T15:27:10.395926,-3.060,5.660,113.340,-40.0,0.400,-0.400,181.080,1000.0
2025-09-10T15:27:10.434928,-1.370,5.600,113.730,-40.0,0.400,-0.400,181.080,1000.0
2025-09-10T15:27:10.436928,0.470,5.610,114.210,-40.0,0.400,-0.400,181.080,1000.0
2025-09-10T15:27:10.464926,2.430,5.640,114.770,-40.0,0.400,-0.400,181.080,1000.0
2025-09-10T15:27:10.465926,4.240,5.660,115.390,-40.0,0.400,-0.400,181.080,1000.0
2025-09-10T15:27:10.494925,6.400,5.670,116.250,-40.0,0.400,-0.400,181.080,1000.0
2025-09-10T15:27:10.524929,8.870,5.770,117.250,-40.0,0.400,-0.400,181.080,1000.0
2025-09-10T15:27:10.527964,11.050,5.960,118.010,-40.0,0.400,-0.400,181.080,1000.0
2025-09-10T15:27:10.554908,13.140,6.280,118.710,-40.1,0.400,-0.400,181.080,1000.0
2025-09-10T15:27:10.600407,15.070,6.710,118.870,-40.1,0.400,-0.400,181.080,1000.0
2025-09-10T15:27:10.605409,16.800,7.290,118.530,-40.0,0.400,-0.400,181.080,1000.0
2025-09-10T15:27:10.630435,18.240,8.120,119.180,-40.0,0.400,-0.400,181.080,1000.0
2025-09-10T15:27:10.632434,19.200,8.880,119.560,-40.1,0.400,-0.400,181.080,1000.0
2025-09-10T15:27:10.660543,19.910,9.780,119.850,-40.1,0.400,-0.400,181.080,1000.0
2025-09-10T15:27:10.661541,20.150,10.840,120.020,-40.1,0.400,-0.400,181.080,1000.0
2025-09-10T15:27:10.705607,19.900,11.640,120.030,-40.0,0.400,-0.400,181.080,1000.0
2025-09-10T15:27:10.735608,19.300,12.200,119.930,-40.0,0.400,-0.400,181.080,1000.0
2025-09-10T15:27:10.737607,18.340,12.570,119.670,-40.0,0.400,-0.400,181.080,1000.0
2025-09-10T15:27:10.765608,17.200,12.890,119.220,-40.0,0.400,-0.400,181.080,1000.0
2025-09-10T15:27:10.767608,15.940,13.190,118.600,-40.1,0.400,-0.400,181.080,1000.0
2025-09-10T15:27:10.796205,14.530,13.460,117.860,-40.0,0.400,-0.400,181.080,1000.0
2025-09-10T15:27:10.826859,12.970,13.700,117.010,-40.0,0.400,-0.400,181.080,1000.0
2025-09-10T15:27:10.828850,11.320,13.830,116.080,-40.0,0.400,-0.400,181.080,1000.0
2025-09-10T15:27:10.856572,9.870,13.870,115.240,-40.0,0.400,-0.400,181.080,1000.0
2025-09-10T15:27:10.859567,8.200,13.840,114.270,-40.0,0.400,-0.400,181.080,1000.0
2025-09-10T15:27:10.886373,6.400,13.720,113.220,-40.0,0.400,-0.400,181.080,1000.0
2025-09-10T15:27:10.917032,4.940,13.560,112.330,-40.0,0.400,-0.400,181.080,1000.0
2025-09-10T15:27:10.947668,3.610,13.420,111.450,-40.1,0.400,-0.400,181.080,1000.0
2025-09-10T15:27:10.949666,2.490,13.260,110.620,-40.1,0.400,-0.400,181.080,1000.0
2025-09-10T15:27:10.978202,1.440,13.050,109.830,-40.1,0.400,-0.400,181.080,1000.0
2025-09-10T15:27:11.008244,0.740,12.860,109.320,-40.1,0.400,-0.400,181.080,1000.0
2025-09-10T15:27:11.038242,-0.130,12.560,108.700,-40.1,0.400,-0.400,181.080,1000.0
2025-09-10T15:27:11.039240,-0.580,12.350,108.310,-40.1,0.400,-0.400,181.080,1000.0
2025-09-10T15:27:11.068001,-0.850,12.160,107.940,-40.1,0.400,-0.400,181.080,1000.0
2025-09-10T15:27:11.070000,-1.020,11.910,107.610,-40.1,0.400,-0.400,181.080,1000.0
2025-09-10T15:27:11.098077,-1.160,11.620,107.340,-40.1,0.400,-0.400,181.080,1000.0
2025-09-10T15:27:11.128627,-1.300,11.300,107.160,-40.1,0.400,-0.400,181.080,1000.0
2025-09-10T15:27:11.130626,-1.510,10.960,107.010,-40.1,0.400,-0.400,181.080,1000.0
2025-09-10T15:27:11.158653,-1.850,10.620,106.820,-40.1,0.400,-0.400,181.080,1000.0
2025-09-10T15:27:11.160648,-2.280,10.300,106.580,-40.1,0.400,-0.400,181.080,1000.0
2025-09-10T15:27:11.188685,-2.790,10.020,106.360,-40.1,0.400,-0.400,181.080,1000.0
2025-09-10T15:27:11.234353,-3.390,9.750,106.210,-40.1,0.400,-0.400,181.080,1000.0
2025-09-10T15:27:11.235298,-4.010,9.500,106.110,-40.1,0.400,-0.400,181.080,1000.0
2025-09-10T15:27:11.264324,-4.550,9.270,105.990,-40.1,0.400,-0.400,181.080,1000.0
2025-09-10T15:27:11.278715,-5.090,8.960,105.790,-40.1,0.400,-0.400,181.080,1000.0
2025-09-10T15:27:11.294144,-5.520,8.600,105.640,-40.0,0.400,-0.400,181.080,1000.0
2025-09-10T15:27:11.338997,-5.860,8.230,105.570,-40.0,0.400,-0.400,181.080,1000.0
2025-09-10T15:27:11.340998,-6.050,7.820,105.580,-40.0,0.400,-0.400,181.080,1000.0
2025-09-10T15:27:11.369125,-6.120,7.490,105.590,-40.0,0.400,-0.400,181.080,1000.0
2025-09-10T15:27:11.371127,-6.100,7.110,105.570,-40.0,0.400,-0.400,181.080,1000.0
2025-09-10T15:27:11.398856,-6.000,6.700,105.520,-40.0,0.400,-0.400,181.080,1000.0
2025-09-10T15:27:11.429555,-5.860,6.370,105.500,-40.0,0.400,-0.400,181.080,1000.0
2025-09-10T15:27:11.431558,-5.700,6.020,105.540,-40.0,0.400,-0.400,181.080,1000.0
2025-09-10T15:27:11.476208,-5.460,5.570,105.670,-40.0,0.400,-0.400,181.080,1000.0
2025-09-10T15:27:11.479205,-5.210,5.280,105.800,-40.0,0.400,-0.400,181.080,1000.0
2025-09-10T15:27:11.505457,-4.920,5.030,105.930,-40.0,0.400,-0.400,181.080,1000.0
2025-09-10T15:27:11.535402,-4.630,4.820,106.060,-40.0,0.400,-0.400,181.080,1000.0
2025-09-10T15:27:11.537393,-4.340,4.640,106.160,-40.0,0.400,-0.400,181.080,1000.0
2025-09-10T15:27:11.565862,-4.070,4.480,106.220,-40.0,0.400,-0.400,181.080,1000.0
2025-09-10T15:27:11.567862,-3.840,4.330,106.280,-40.0,0.400,-0.400,181.080,1000.0
2025-09-10T15:27:11.595946,-3.670,4.190,106.310,-40.0,0.400,-0.400,181.080,1000.0
2025-09-10T15:27:11.610623,-3.510,4.050,106.340,-40.0,0.400,-0.400,181.080,1000.0
2025-09-10T15:27:11.626122,-3.380,3.930,106.340,-40.0,0.400,-0.400,181.080,1000.0
2025-09-10T15:27:11.670966,-3.200,3.740,106.330,-40.0,0.400,-0.400,181.080,1000.0
2025-09-10T15:27:11.671966,-3.020,3.570,106.290,-40.0,0.400,-0.400,181.080,1000.0
2025-09-10T15:27:11.701574,-2.830,3.440,106.260,-40.0,0.400,-0.400,181.080,1000.0
2025-09-10T15:27:11.702579,-2.640,3.310,106.240,-40.0,0.400,-0.400,181.080,1000.0
2025-09-10T15:27:11.747089,-3.110,3.870,106.180,-40.0,0.400,-0.400,181.080,1000.0
2025-09-10T15:27:11.777289,-3.120,4.010,106.120,-40.0,0.400,-0.400,181.080,1000.0
2025-09-10T15:27:11.779289,-2.920,4.000,106.030,-40.0,0.400,-0.400,181.080,1000.0
2025-09-10T15:27:11.807589,-2.760,4.020,105.950,-40.0,0.400,-0.400,181.080,1000.0
2025-09-10T15:27:11.809594,-2.600,4.040,105.900,-40.0,0.400,-0.400,181.080,1000.0
2025-09-10T15:27:11.837447,-2.410,4.070,105.860,-40.0,0.400,-0.400,181.080,1000.0
2025-09-10T15:27:11.868013,-2.200,4.090,105.810,-39.9,0.400,-0.400,181.080,1000.0
2025-09-10T15:27:11.870014,-1.990,4.100,105.770,-39.9,0.400,-0.400,181.080,1000.0
2025-09-10T15:27:11.898027,-1.790,4.110,105.730,-39.9,0.400,-0.400,181.080,1000.0
2025-09-10T15:27:11.899028,-1.620,4.060,105.730,-39.9,0.400,-0.400,181.080,1000.0
2025-09-10T15:27:11.929406,-1.500,4.030,105.720,-39.9,0.400,-0.400,181.080,1000.0
2025-09-10T15:27:11.959049,-1.400,4.030,105.730,-39.9,0.400,-0.400,181.080,1000.0
2025-09-10T15:27:11.974256,-1.330,4.060,105.750,-39.9,0.400,-0.400,181.080,1000.0
2025-09-10T15:27:12.004322,-1.300,4.150,105.770,-40.0,0.400,-0.400,181.080,1000.0
2025-09-10T15:27:12.005322,-1.270,4.260,105.770,-40.0,0.400,-0.400,181.080,1000.0
2025-09-10T15:27:12.048956,-1.230,4.360,105.770,-40.0,0.400,-0.400,181.080,1000.0
2025-09-10T15:27:12.079303,-1.180,4.450,105.770,-39.9,0.400,-0.400,181.080,1000.0
2025-09-10T15:27:12.081304,-1.120,4.520,105.770,-39.9,0.400,-0.400,181.080,1000.0
2025-09-10T15:27:12.109510,-1.050,4.560,105.760,-39.9,0.400,-0.400,181.080,1000.0
2025-09-10T15:27:12.112024,-1.000,4.570,105.770,-39.9,0.400,-0.400,181.080,1000.0
2025-09-10T15:27:12.140773,-0.940,4.590,105.800,-39.9,0.400,-0.400,181.080,1000.0
2025-09-10T15:27:12.170965,-0.830,4.610,105.820,-39.9,0.400,-0.400,181.080,1000.0
2025-09-10T15:27:12.171964,-0.730,4.650,105.830,-39.9,0.400,-0.400,181.080,1000.0
2025-09-10T15:27:12.201391,-0.610,4.690,105.820,-39.9,0.400,-0.400,181.080,1000.0
2025-09-10T15:27:12.202398,-0.490,4.760,105.860,-39.9,0.400,-0.400,181.080,1000.0
2025-09-10T15:27:12.231392,-0.370,4.780,105.890,-39.9,0.400,-0.400,181.080,1000.0
2025-09-10T15:27:12.261525,-0.230,4.780,105.930,-39.9,0.400,-0.400,181.080,1000.0
2025-09-10T15:27:12.276526,-0.110,4.790,105.950,-39.9,0.400,-0.400,181.080,1000.0
2025-09-10T15:27:12.306389,0.040,4.820,105.970,-39.9,0.400,-0.400,181.080,1000.0
2025-09-10T15:27:12.307390,0.200,4.850,106.010,-39.9,0.400,-0.400,181.080,1000.0
2025-09-10T15:27:12.351568,0.350,4.900,106.070,-39.9,0.400,-0.400,181.080,1000.0
2025-09-10T15:27:12.382121,0.480,4.960,106.130,-39.9,0.400,-0.400,181.080,1000.0
2025-09-10T15:27:12.383119,0.590,4.990,106.160,-39.9,0.400,-0.400,181.080,1000.0
2025-09-10T15:27:12.412121,0.670,5.000,106.180,-39.9,0.400,-0.400,181.080,1000.0
2025-09-10T15:27:12.413127,0.730,5.020,106.200,-39.9,0.400,-0.400,181.080,1000.0
2025-09-10T15:27:12.442379,0.760,5.070,106.210,-40.0,0.400,-0.400,181.080,1000.0
2025-09-10T15:27:12.472375,0.780,5.150,106.240,-40.0,0.400,-0.400,181.080,1000.0
2025-09-10T15:27:12.473374,0.760,5.260,106.270,-40.0,0.400,-0.400,181.080,1000.0
2025-09-10T15:27:12.502183,0.730,5.340,106.290,-40.0,0.400,-0.400,181.080,1000.0
2025-09-10T15:27:12.503182,0.690,5.380,106.320,-40.0,0.400,-0.400,181.080,1000.0
2025-09-10T15:27:12.532474,0.630,5.410,106.320,-40.0,0.400,-0.400,181.080,1000.0
2025-09-10T15:27:12.533473,0.590,5.490,106.320,-40.0,0.400,-0.400,181.080,1000.0
2025-09-10T15:27:12.577474,0.540,5.590,106.290,-40.0,0.400,-0.400,181.080,1000.0
2025-09-10T15:27:12.607644,0.470,5.670,106.220,-40.0,0.400,-0.400,181.080,1000.0
2025-09-10T15:27:12.609646,0.350,5.700,106.150,-40.0,0.400,-0.400,181.080,1000.0
2025-09-10T15:27:12.637475,0.160,5.650,106.080,-40.0,0.400,-0.400,181.080,1000.0
2025-09-10T15:27:12.652474,-0.080,5.510,105.990,-40.0,0.400,-0.400,181.080,1000.0
2025-09-10T15:27:12.682474,-0.410,5.270,105.850,-40.0,0.400,-0.400,181.080,1000.0
2025-09-10T15:27:12.712473,-0.830,4.920,105.670,-40.0,0.400,-0.400,181.080,1000.0
2025-09-10T15:27:12.713472,-1.350,4.510,105.470,-40.0,0.400,-0.400,181.080,1000.0
2025-09-10T15:27:12.743062,-1.930,4.140,105.240,-40.0,0.400,-0.400,181.080,1000.0
2025-09-10T15:27:12.745061,-2.460,3.960,105.020,-40.0,0.400,-0.400,181.080,1000.0
2025-09-10T15:27:12.773059,-2.910,3.930,104.810,-40.0,0.400,-0.400,181.080,1000.0
2025-09-10T15:27:12.818635,-3.270,4.010,104.650,-40.0,0.400,-0.400,181.080,1000.0
2025-09-10T15:27:12.820635,-3.520,4.140,104.580,-40.0,0.400,-0.400,181.080,1000.0
2025-09-10T15:27:12.848634,-3.570,4.250,104.600,-40.0,0.400,-0.400,181.080,1000.0
2025-09-10T15:27:12.849633,-3.440,4.300,104.630,-40.0,0.400,-0.400,181.080,1000.0
2025-09-10T15:27:12.878910,-3.150,4.240,104.680,-40.0,0.400,-0.400,181.080,1000.0
2025-09-10T15:27:12.909325,-2.720,4.130,104.710,-40.0,0.400,-0.400,181.080,1000.0
2025-09-10T15:27:12.912321,-2.150,4.010,104.800,-40.0,0.400,-0.400,181.080,1000.0
2025-09-10T15:27:12.940371,-1.500,3.880,104.970,-40.0,0.400,-0.400,181.080,1000.0
2025-09-10T15:27:12.942377,-0.770,3.760,105.240,-40.0,0.400,-0.400,181.080,1000.0
2025-09-10T15:27:12.970373,0.090,3.610,105.600,-40.0,0.400,-0.400,181.080,1000.0
2025-09-10T15:27:13.015375,1.070,3.480,105.980,-40.0,0.400,-0.400,181.080,1000.0
2025-09-10T15:27:13.016372,2.140,3.390,106.370,-40.0,0.400,-0.400,181.080,1000.0
2025-09-10T15:27:13.045372,3.000,3.330,106.700,-40.0,0.400,-0.400,181.080,1000.0
2025-09-10T15:27:13.046372,4.570,3.290,107.360,-40.0,0.400,-0.400,181.080,1000.0
2025-09-10T15:27:13.090374,5.530,3.340,107.780,-40.0,0.400,-0.400,181.080,1000.0
2025-09-10T15:27:13.120935,6.540,3.460,108.230,-40.0,0.400,-0.400,181.080,1000.0
2025-09-10T15:27:13.122941,7.440,3.640,108.710,-39.9,0.400,-0.400,181.080,1000.0
2025-09-10T15:27:13.151003,8.140,3.950,109.150,-39.9,0.400,-0.400,181.080,1000.0
2025-09-10T15:27:13.151997,8.660,4.480,109.510,-39.9,0.400,-0.400,181.080,1000.0
2025-09-10T15:27:13.180645,8.890,5.040,109.710,-39.9,0.400,-0.400,181.080,1000.0
2025-09-10T15:27:13.211614,8.900,5.770,109.910,-39.9,0.400,-0.400,181.080,1000.0
2025-09-10T15:27:13.212630,8.610,6.630,110.050,-39.9,0.400,-0.400,181.080,1000.0
2025-09-10T15:27:13.241996,8.220,7.290,110.050,-40.0,0.400,-0.400,181.080,1000.0
2025-09-10T15:27:13.244996,7.680,7.900,109.940,-39.9,0.400,-0.400,181.080,1000.0
2025-09-10T15:27:13.272003,6.970,8.360,109.720,-39.9,0.400,-0.400,181.080,1000.0
2025-09-10T15:27:13.301923,6.160,8.710,109.470,-39.9,0.400,-0.400,181.080,1000.0
2025-09-10T15:27:13.302924,5.170,9.020,109.160,-39.9,0.400,-0.400,181.080,1000.0
2025-09-10T15:27:13.362477,4.360,9.330,108.910,-39.9,0.400,-0.400,181.080,1000.0
2025-09-10T15:27:13.363475,3.490,9.770,108.670,-39.9,0.400,-0.400,181.080,1000.0
2025-09-10T15:27:13.392844,2.320,10.430,108.390,-39.9,0.400,-0.400,181.080,1000.0
2025-09-10T15:27:13.422841,1.180,11.110,108.160,-40.0,0.400,-0.400,181.080,1000.0
2025-09-10T15:27:13.424841,0.300,11.710,107.940,-40.0,0.400,-0.400,181.080,1000.0
2025-09-10T15:27:13.452839,-0.350,12.340,107.710,-40.0,0.400,-0.400,181.080,1000.0
2025-09-10T15:27:13.453838,-0.760,13.010,107.500,-40.0,0.400,-0.400,181.080,1000.0
2025-09-10T15:27:13.482839,-0.980,13.650,107.360,-40.0,0.400,-0.400,181.080,1000.0
2025-09-10T15:27:13.485838,-1.010,14.110,107.290,-40.0,0.400,-0.400,181.080,1000.0
2025-09-10T15:27:13.513350,-0.820,14.530,107.310,-40.0,0.400,-0.400,181.080,1000.0
2025-09-10T15:27:13.543046,-0.420,14.870,107.430,-40.0,0.400,-0.400,181.080,1000.0
2025-09-10T15:27:13.545052,0.080,15.200,107.630,-40.0,0.400,-0.400,181.080,1000.0
2025-09-10T15:27:13.573297,0.650,15.450,107.840,-40.0,0.400,-0.400,181.080,1000.0
2025-09-10T15:27:13.578297,1.260,15.640,108.040,-40.0,0.400,-0.400,181.080,1000.0
2025-09-10T15:27:13.618533,1.880,15.710,108.240,-40.0,0.400,-0.400,181.080,1000.0
2025-09-10T15:27:13.648578,2.400,15.640,108.460,-40.0,0.400,-0.400,181.080,1000.0
2025-09-10T15:27:13.649576,2.790,15.410,108.660,-40.0,0.400,-0.400,181.080,1000.0
2025-09-10T15:27:13.694075,3.100,15.030,108.770,-40.0,0.400,-0.400,181.080,1000.0
2025-09-10T15:27:13.698075,3.330,14.540,108.770,-40.0,0.400,-0.400,181.080,1000.0
2025-09-10T15:27:13.709076,3.440,13.950,108.650,-40.0,0.400,-0.400,181.080,1000.0
2025-09-10T15:27:13.754664,3.400,13.360,108.510,-40.0,0.400,-0.400,181.080,1000.0
2025-09-10T15:27:13.756664,3.250,12.770,108.370,-40.0,0.400,-0.400,181.080,1000.0
2025-09-10T15:27:13.785088,3.010,12.180,108.190,-40.0,0.400,-0.400,181.080,1000.0
2025-09-10T15:27:13.788094,2.680,11.490,107.940,-40.0,0.400,-0.400,181.080,1000.0
2025-09-10T15:27:13.815422,2.300,10.720,107.650,-40.0,0.400,-0.400,181.080,1000.0
2025-09-10T15:27:13.845081,1.900,9.960,107.430,-40.0,0.400,-0.400,181.080,1000.0
2025-09-10T15:27:13.847081,1.480,9.270,107.290,-40.0,0.400,-0.400,181.080,1000.0
2025-09-10T15:27:13.890505,1.100,8.680,107.180,-40.0,0.400,-0.400,181.080,1000.0
2025-09-10T15:27:13.895505,0.770,8.080,107.030,-40.0,0.400,-0.400,181.080,1000.0
2025-09-10T15:27:13.921065,0.480,7.480,106.880,-40.0,0.400,-0.400,181.080,1000.0
2025-09-10T15:27:13.951070,0.270,6.930,106.780,-40.0,0.400,-0.400,181.080,1000.0
2025-09-10T15:27:13.952076,0.130,6.440,106.740,-40.0,0.400,-0.400,181.080,1000.0
2025-09-10T15:27:13.980927,0.040,6.030,106.690,-40.0,0.400,-0.400,181.080,1000.0
2025-09-10T15:27:13.997642,-0.010,5.520,106.600,-40.0,0.400,-0.400,181.080,1000.0
2025-09-10T15:27:14.011644,0.000,5.080,106.530,-40.0,0.400,-0.400,181.080,1000.0
2025-09-10T15:27:14.056867,0.090,4.670,106.530,-40.0,0.400,-0.400,181.080,1000.0
2025-09-10T15:27:14.058867,0.200,4.300,106.580,-40.0,0.400,-0.400,181.080,1000.0
2025-09-10T15:27:14.086878,0.330,4.030,106.610,-40.0,0.400,-0.400,181.080,1000.0
2025-09-10T15:27:14.090871,0.470,3.810,106.630,-40.0,0.400,-0.400,181.080,1000.0
2025-09-10T15:27:14.116874,0.580,3.650,106.690,-40.0,0.400,-0.400,181.080,1000.0
2025-09-10T15:27:14.162020,0.680,3.570,106.800,-40.0,0.400,-0.400,181.080,1000.0
2025-09-10T15:27:14.164016,0.800,3.580,106.920,-40.0,0.400,-0.400,181.080,1000.0
2025-09-10T15:27:14.192542,0.970,3.670,107.030,-40.0,0.400,-0.400,181.080,1000.0
2025-09-10T15:27:14.199541,1.140,3.800,107.130,-40.0,0.400,-0.400,181.080,1000.0
2025-09-10T15:27:14.223127,1.330,3.920,107.280,-40.0,0.400,-0.400,181.080,1000.0
2025-09-10T15:27:14.253130,1.520,3.990,107.450,-40.0,0.400,-0.400,181.080,1000.0
2025-09-10T15:27:14.255129,1.730,4.080,107.640,-40.0,0.400,-0.400,181.080,1000.0
2025-09-10T15:27:14.283134,1.980,4.200,107.820,-40.0,0.400,-0.400,181.080,1000.0
2025-09-10T15:27:14.298140,2.240,4.320,107.950,-40.0,0.400,-0.400,181.080,1000.0
2025-09-10T15:27:14.313127,2.500,4.480,108.090,-40.0,0.400,-0.400,181.080,1000.0
2025-09-10T15:27:14.343129,2.740,4.690,108.260,-40.0,0.400,-0.400,181.080,1000.0
2025-09-10T15:27:14.358156,2.950,4.880,108.420,-40.0,0.400,-0.400,181.080,1000.0
2025-09-10T15:27:14.388155,3.110,5.070,108.560,-40.0,0.400,-0.400,181.080,1000.0
2025-09-10T15:27:14.392158,3.220,5.220,108.670,-40.0,0.400,-0.400,181.080,1000.0
2025-09-10T15:27:14.433157,3.280,5.310,108.730,-40.0,0.400,-0.400,181.080,1000.0
2025-09-10T15:27:14.434155,3.280,5.360,108.770,-40.0,0.400,-0.400,181.080,1000.0
2025-09-10T15:27:14.463160,3.250,5.360,108.820,-40.0,0.400,-0.400,181.080,1000.0
2025-09-10T15:27:14.493159,3.200,5.370,108.870,-40.0,0.400,-0.400,181.080,1000.0
2025-09-10T15:27:14.498155,3.170,5.370,108.900,-39.9,0.400,-0.400,181.080,1000.0
2025-09-10T15:27:14.522839,3.170,5.370,108.910,-39.9,0.400,-0.400,181.080,1000.0
2025-09-10T15:27:14.524852,3.190,5.350,108.930,-39.9,0.400,-0.400,181.080,1000.0
2025-09-10T15:27:14.552838,3.230,5.310,108.950,-39.9,0.400,-0.400,181.080,1000.0
2025-09-10T15:27:14.583413,3.300,5.280,108.980,-39.9,0.400,-0.400,181.080,1000.0
2025-09-10T15:27:14.586411,3.380,5.260,109.000,-40.0,0.400,-0.400,181.080,1000.0
2025-09-10T15:27:14.613585,3.460,5.250,109.030,-40.0,0.400,-0.400,181.080,1000.0
2025-09-10T15:27:14.615584,3.570,5.250,109.090,-40.0,0.400,-0.400,181.080,1000.0
2025-09-10T15:27:14.658803,3.720,5.230,109.140,-40.0,0.400,-0.400,181.080,1000.0
2025-09-10T15:27:14.688804,3.910,5.220,109.190,-40.0,0.400,-0.400,181.080,1000.0
2025-09-10T15:27:14.705806,4.180,5.170,109.250,-40.0,0.400,-0.400,181.080,1000.0
2025-09-10T15:27:14.707806,4.560,5.010,109.390,-40.0,0.400,-0.400,181.080,1000.0
2025-09-10T15:27:14.733805,5.150,4.740,109.710,-40.0,0.400,-0.400,181.080,1000.0
2025-09-10T15:27:14.764318,5.980,4.350,110.170,-40.0,0.400,-0.400,181.080,1000.0
2025-09-10T15:27:14.794318,7.040,3.920,110.660,-40.0,0.400,-0.400,181.080,1000.0
2025-09-10T15:27:14.798316,8.330,3.420,111.180,-40.0,0.400,-0.400,181.080,1000.0
2025-09-10T15:27:14.824940,9.750,2.960,111.740,-40.0,0.400,-0.400,181.080,1000.0
2025-09-10T15:27:14.828949,10.990,2.630,112.200,-40.0,0.400,-0.400,181.080,1000.0
2025-09-10T15:27:14.855003,12.490,2.310,112.760,-40.0,0.400,-0.400,181.080,1000.0
2025-09-10T15:27:14.885011,13.680,2.170,113.320,-40.0,0.400,-0.400,181.080,1000.0
2025-09-10T15:27:14.889001,14.660,2.260,113.880,-40.0,0.400,-0.400,181.080,1000.0
2025-09-10T15:27:14.930006,15.430,2.540,114.320,-40.0,0.400,-0.400,181.080,1000.0
2025-09-10T15:27:14.931137,16.060,2.870,114.710,-40.0,0.400,-0.400,181.080,1000.0
2025-09-10T15:27:14.961178,16.590,3.240,115.130,-40.0,0.400,-0.400,181.080,1000.0
2025-09-10T15:27:14.990207,17.080,3.600,115.520,-40.0,0.400,-0.400,181.080,1000.0
2025-09-10T15:27:15.005205,17.560,3.940,115.820,-40.0,0.400,-0.400,181.080,1000.0
2025-09-10T15:27:15.020206,17.970,4.390,116.100,-40.0,0.400,-0.400,181.080,1000.0
2025-09-10T15:27:15.035205,18.050,4.860,116.300,-40.0,0.400,-0.400,181.080,1000.0
2025-09-10T15:27:15.050206,17.750,5.500,116.480,-40.0,0.400,-0.400,181.080,1000.0
2025-09-10T15:27:15.095937,16.970,6.210,116.570,-40.0,0.400,-0.400,181.080,1000.0
2025-09-10T15:27:15.100930,15.750,6.900,116.500,-40.0,0.400,-0.400,181.080,1000.0
2025-09-10T15:27:15.125549,13.780,7.650,116.230,-40.0,0.400,-0.400,181.080,1000.0
2025-09-10T15:27:15.129551,11.970,8.110,115.930,-40.0,0.400,-0.400,181.080,1000.0
2025-09-10T15:27:15.156066,9.770,8.570,115.480,-40.0,0.400,-0.400,181.080,1000.0
2025-09-10T15:27:15.201064,7.300,9.100,114.800,-40.0,0.400,-0.400,181.080,1000.0
2025-09-10T15:27:15.205065,5.190,9.580,113.980,-40.0,0.400,-0.400,181.080,1000.0
2025-09-10T15:27:15.231180,3.230,10.060,113.050,-40.0,0.400,-0.400,181.080,1000.0
2025-09-10T15:27:15.233067,1.350,10.500,112.230,-40.0,0.400,-0.400,181.080,1000.0
2025-09-10T15:27:15.261068,-0.430,10.860,111.690,-40.0,0.400,-0.400,181.080,1000.0
2025-09-10T15:27:15.291065,-1.980,11.160,111.380,-40.0,0.400,-0.400,181.080,1000.0
2025-09-10T15:27:15.295064,-3.740,11.480,111.110,-40.0,0.400,-0.400,181.080,1000.0
2025-09-10T15:27:15.321063,-5.300,11.660,110.960,-40.0,0.400,-0.400,181.080,1000.0
2025-09-10T15:27:15.324064,-6.950,11.690,111.090,-40.0,0.400,-0.400,181.080,1000.0
2025-09-10T15:27:15.351048,-8.260,11.660,111.400,-40.0,0.400,-0.400,181.080,1000.0
2025-09-10T15:27:15.366050,-9.810,11.610,111.850,-40.0,0.400,-0.400,181.080,1000.0
2025-09-10T15:27:15.381244,-10.890,11.440,112.220,-40.0,0.400,-0.400,181.080,1000.0
2025-09-10T15:27:15.440796,-11.690,11.190,112.550,-40.0,0.400,-0.400,181.080,1000.0
2025-09-10T15:27:15.442794,-12.070,10.810,112.950,-40.0,0.400,-0.400,181.080,1000.0
2025-09-10T15:27:15.470846,-11.860,10.360,113.410,-40.0,0.400,-0.400,181.080,1000.0
2025-09-10T15:27:15.500539,-11.160,9.960,113.860,-40.0,0.400,-0.400,181.080,1000.0
2025-09-10T15:27:15.503539,-9.850,9.470,114.440,-40.0,0.400,-0.400,181.080,1000.0
2025-09-10T15:27:15.532010,-8.260,9.010,115.070,-40.0,0.400,-0.400,181.080,1000.0
2025-09-10T15:27:15.534010,-6.250,8.550,115.820,-40.0,0.400,-0.400,181.080,1000.0
2025-09-10T15:27:15.561378,-3.850,8.210,116.560,-40.0,0.400,-0.400,181.080,1000.0
2025-09-10T15:27:15.563376,-1.400,7.970,117.150,-39.9,0.400,-0.400,181.080,1000.0
2025-09-10T15:27:15.590939,0.580,7.780,117.610,-39.9,0.400,-0.400,181.080,1000.0
2025-09-10T15:27:15.620621,3.960,7.420,118.500,-39.9,0.400,-0.400,181.080,1000.0
2025-09-10T15:27:15.622620,6.700,7.140,119.370,-39.9,0.400,-0.400,181.080,1000.0
2025-09-10T15:27:15.666085,9.230,7.010,120.170,-40.0,0.400,-0.400,181.080,1000.0
2025-09-10T15:27:15.667086,11.150,6.930,120.720,-40.0,0.400,-0.400,181.080,1000.0
2025-09-10T15:27:15.696139,14.050,6.890,121.540,-40.0,0.400,-0.400,181.080,1000.0
2025-09-10T15:27:15.726158,16.110,6.870,122.190,-40.0,0.400,-0.400,181.080,1000.0
2025-09-10T15:27:15.741167,18.000,6.890,122.800,-40.0,0.400,-0.400,181.080,1000.0
2025-09-10T15:27:15.771195,19.620,6.980,123.310,-40.0,0.400,-0.400,181.080,1000.0
2025-09-10T15:27:15.773233,20.650,7.180,123.630,-40.0,0.400,-0.400,181.080,1000.0
2025-09-10T15:27:15.801561,21.970,7.810,124.020,-40.0,0.400,-0.400,181.080,1000.0
2025-09-10T15:27:15.831538,22.710,8.460,124.200,-40.0,0.400,-0.400,181.080,1000.0
2025-09-10T15:27:15.833538,23.130,9.230,124.310,-40.0,0.400,-0.400,181.080,1000.0
2025-09-10T15:27:15.861720,23.190,10.000,124.340,-40.0,0.400,-0.400,181.080,1000.0
2025-09-10T15:27:15.863718,22.920,10.800,124.280,-40.0,0.400,-0.400,181.080,1000.0
2025-09-10T15:27:15.891967,22.400,11.710,124.130,-40.0,0.400,-0.400,181.080,1000.0
2025-09-10T15:27:15.937181,21.600,12.680,123.880,-40.0,0.400,-0.400,181.080,1000.0
2025-09-10T15:27:15.938181,20.590,13.720,123.530,-40.0,0.400,-0.400,181.080,1000.0
2025-09-10T15:27:15.967793,19.560,14.710,123.180,-40.0,0.400,-0.400,181.080,1000.0
2025-09-10T15:27:15.969792,18.570,15.610,122.800,-40.0,0.400,-0.400,181.080,1000.0
2025-09-10T15:27:15.997930,17.600,16.580,122.380,-40.0,0.400,-0.400,181.080,1000.0
2025-09-10T15:27:16.027655,16.750,17.480,121.910,-40.0,0.400,-0.400,181.080,1000.0
2025-09-10T15:27:16.030652,16.210,18.110,121.540,-40.0,0.400,-0.400,181.080,1000.0
2025-09-10T15:27:16.057790,15.500,19.040,120.980,-40.0,0.400,-0.400,181.080,1000.0
2025-09-10T15:27:16.072555,15.090,19.710,120.680,-40.0,0.400,-0.400,181.080,1000.0
2025-09-10T15:27:16.102269,14.860,20.310,120.520,-40.0,0.400,-0.400,181.080,1000.0
2025-09-10T15:27:16.103257,14.850,20.830,120.450,-40.0,0.400,-0.400,181.080,1000.0
2025-09-10T15:27:16.131160,15.080,21.290,120.460,-40.0,0.400,-0.400,181.080,1000.0
2025-09-10T15:27:16.177128,15.510,21.650,120.540,-40.0,0.400,-0.400,181.080,1000.0
2025-09-10T15:27:16.179129,16.110,21.910,120.710,-40.0,0.400,-0.400,181.080,1000.0
2025-09-10T15:27:16.207167,16.880,22.090,121.000,-40.0,0.400,-0.400,181.080,1000.0
2025-09-10T15:27:16.237155,17.820,22.150,121.400,-40.0,0.400,-0.400,181.080,1000.0
2025-09-10T15:27:16.239157,18.940,22.080,121.880,-40.0,0.400,-0.400,181.080,1000.0
2025-09-10T15:27:16.267155,20.200,22.010,122.350,-40.0,0.400,-0.400,181.080,1000.0
2025-09-10T15:27:16.268165,21.540,21.910,122.800,-40.0,0.400,-0.400,181.080,1000.0
2025-09-10T15:27:16.297157,22.850,21.810,123.220,-40.0,0.400,-0.400,181.080,1000.0
2025-09-10T15:27:16.327350,24.110,21.760,123.680,-40.0,0.400,-0.400,181.080,1000.0
2025-09-10T15:27:16.329347,25.340,21.720,124.220,-40.0,0.400,-0.400,181.080,1000.0
2025-09-10T15:27:16.357376,26.480,21.710,124.780,-40.0,0.400,-0.400,181.080,1000.0
2025-09-10T15:27:16.358374,27.290,21.730,125.160,-40.0,0.400,-0.400,181.080,1000.0
2025-09-10T15:27:16.402402,28.600,21.770,125.720,-40.0,0.400,-0.400,181.080,1000.0
2025-09-10T15:27:16.447403,29.550,21.760,126.130,-40.0,0.400,-0.400,181.080,1000.0
2025-09-10T15:27:16.448404,30.420,21.800,126.570,-40.0,0.400,-0.400,181.080,1000.0
2025-09-10T15:27:16.477407,31.250,21.860,127.040,-40.0,0.400,-0.400,181.080,1000.0
2025-09-10T15:27:16.479407,32.070,21.970,127.510,-40.0,0.400,-0.400,181.080,1000.0
2025-09-10T15:27:16.507403,32.890,22.160,127.950,-40.0,0.400,-0.400,181.080,1000.0
2025-09-10T15:27:16.508403,33.680,22.440,128.390,-40.0,0.400,-0.400,181.080,1000.0
2025-09-10T15:27:16.537404,34.460,22.790,128.850,-40.0,0.400,-0.400,181.080,1000.0
2025-09-10T15:27:16.567441,35.110,23.130,129.270,-40.0,0.400,-0.400,181.080,1000.0
2025-09-10T15:27:16.568441,35.690,23.370,129.610,-40.0,0.400,-0.400,181.080,1000.0
2025-09-10T15:27:16.597443,36.220,23.480,129.850,-40.0,0.400,-0.400,181.080,1000.0
2025-09-10T15:27:16.598440,36.570,23.480,129.940,-40.0,0.400,-0.400,181.080,1000.0
2025-09-10T15:27:16.642066,37.060,23.380,129.990,-40.0,0.400,-0.400,181.080,1000.0
2025-09-10T15:27:16.672066,37.330,23.260,129.950,-40.0,0.400,-0.400,181.080,1000.0
2025-09-10T15:27:16.673066,37.480,23.080,129.830,-40.0,0.400,-0.400,181.080,1000.0
2025-09-10T15:27:16.702107,37.530,22.880,129.680,-40.0,0.400,-0.400,181.080,1000.0
2025-09-10T15:27:16.703064,37.520,22.740,129.550,-40.1,0.400,-0.400,181.080,1000.0
2025-09-10T15:27:16.732067,37.460,22.650,129.440,-40.1,0.400,-0.400,181.080,1000.0
2025-09-10T15:27:16.777066,37.390,22.590,129.320,-40.0,0.400,-0.400,181.080,1000.0
2025-09-10T15:27:16.779065,37.320,22.530,129.190,-40.0,0.400,-0.400,181.080,1000.0
2025-09-10T15:27:16.806074,37.270,22.460,129.050,-40.0,0.400,-0.400,181.080,1000.0
2025-09-10T15:27:16.808116,37.250,22.370,128.950,-40.0,0.400,-0.400,181.080,1000.0
2025-09-10T15:27:16.837068,37.290,22.300,128.910,-40.0,0.400,-0.400,181.080,1000.0
2025-09-10T15:27:16.882065,37.380,22.240,128.950,-40.0,0.400,-0.400,181.080,1000.0
2025-09-10T15:27:16.883065,37.540,22.170,129.040,-40.0,0.400,-0.400,181.080,1000.0
2025-09-10T15:27:16.912067,37.760,22.050,129.170,-40.0,0.400,-0.400,181.080,1000.0
2025-09-10T15:27:16.914070,37.960,21.940,129.270,-40.1,0.400,-0.400,181.080,1000.0
2025-09-10T15:27:16.942123,38.230,21.840,129.420,-40.1,0.400,-0.400,181.080,1000.0
2025-09-10T15:27:16.972066,38.500,21.790,129.580,-40.1,0.400,-0.400,181.080,1000.0
2025-09-10T15:27:16.973105,38.770,21.790,129.750,-40.1,0.400,-0.400,181.080,1000.0
2025-09-10T15:27:17.002065,38.910,21.830,129.880,-40.1,0.400,-0.400,181.080,1000.0
2025-09-10T15:27:17.004068,38.940,21.880,129.990,-40.1,0.400,-0.400,181.080,1000.0
2025-09-10T15:27:17.032065,38.840,21.910,130.030,-40.1,0.400,-0.400,181.080,1000.0
2025-09-10T15:27:17.062066,38.600,21.900,130.000,-40.1,0.400,-0.400,181.080,1000.0
2025-09-10T15:27:17.076070,38.140,21.890,129.790,-40.1,0.400,-0.400,181.080,1000.0
2025-09-10T15:27:17.122421,37.380,21.930,129.240,-40.1,0.400,-0.400,181.080,1000.0
2025-09-10T15:27:17.125421,36.360,22.000,128.500,-40.1,0.400,-0.400,181.080,1000.0
2025-09-10T15:27:17.127423,34.480,22.170,127.220,-40.1,0.400,-0.400,181.080,1000.0
2025-09-10T15:27:17.183114,32.520,22.430,126.030,-40.1,0.400,-0.400,181.080,1000.0
2025-09-10T15:27:17.184113,30.040,22.760,124.620,-40.1,0.400,-0.400,181.080,1000.0
2025-09-10T15:27:17.213312,26.750,23.130,122.740,-40.1,0.400,-0.400,181.080,1000.0
2025-09-10T15:27:17.215312,23.960,23.430,121.090,-40.1,0.400,-0.400,181.080,1000.0
2025-09-10T15:27:17.244417,20.620,23.720,119.120,-40.1,0.400,-0.400,181.080,1000.0
2025-09-10T15:27:17.275621,16.800,23.940,117.000,-40.1,0.400,-0.400,181.080,1000.0
2025-09-10T15:27:17.276620,13.430,24.100,115.210,-40.1,0.400,-0.400,181.080,1000.0
2025-09-10T15:27:17.305647,11.070,24.170,113.940,-40.1,0.400,-0.400,181.080,1000.0
2025-09-10T15:27:17.307645,7.690,24.190,112.020,-40.1,0.400,-0.400,181.080,1000.0
2025-09-10T15:27:17.335648,4.970,24.160,110.430,-40.1,0.400,-0.400,181.080,1000.0
2025-09-10T15:27:17.365515,2.910,24.220,109.250,-40.1,0.400,-0.400,181.080,1000.0
2025-09-10T15:27:17.367513,1.290,24.410,108.330,-40.1,0.400,-0.400,181.080,1000.0
2025-09-10T15:27:17.396088,0.130,24.520,107.700,-40.1,0.400,-0.400,181.080,1000.0
2025-09-10T15:27:17.398126,-1.140,24.530,106.990,-40.1,0.400,-0.400,181.080,1000.0
2025-09-10T15:27:17.441164,-2.070,24.510,106.520,-40.1,0.400,-0.400,181.080,1000.0
2025-09-10T15:27:17.456161,-2.860,24.430,106.200,-40.1,0.400,-0.400,181.080,1000.0
2025-09-10T15:27:17.486077,-3.690,24.240,105.900,-40.1,0.400,-0.400,181.080,1000.0
2025-09-10T15:27:17.516929,-4.560,24.000,105.490,-40.1,0.400,-0.400,181.080,1000.0
2025-09-10T15:27:17.518932,-5.430,23.730,104.980,-40.1,0.400,-0.400,181.080,1000.0
2025-09-10T15:27:17.547100,-6.320,23.410,104.520,-40.1,0.400,-0.400,181.080,1000.0
2025-09-10T15:27:17.548098,-7.330,23.080,104.110,-40.1,0.400,-0.400,181.080,1000.0
2025-09-10T15:27:17.577893,-8.350,22.760,103.760,-40.1,0.400,-0.400,181.080,1000.0
2025-09-10T15:27:17.607213,-9.190,22.400,103.480,-40.1,0.400,-0.400,181.080,1000.0
2025-09-10T15:27:17.608219,-10.210,21.900,103.230,-40.1,0.400,-0.400,181.080,1000.0
2025-09-10T15:27:17.637244,-10.990,21.390,103.220,-40.1,0.400,-0.400,181.080,1000.0
2025-09-10T15:27:17.638243,-11.620,20.790,103.370,-40.1,0.400,-0.400,181.080,1000.0
2025-09-10T15:27:17.667977,-12.080,20.060,103.670,-40.1,0.400,-0.400,181.080,1000.0
2025-09-10T15:27:17.713123,-12.400,19.290,104.130,-40.1,0.400,-0.400,181.080,1000.0
2025-09-10T15:27:17.715260,-12.530,18.610,104.670,-40.1,0.400,-0.400,181.080,1000.0
2025-09-10T15:27:17.743250,-12.500,17.950,105.280,-40.1,0.400,-0.400,181.080,1000.0
2025-09-10T15:27:17.745241,-12.460,17.190,105.970,-40.1,0.400,-0.400,181.080,1000.0
2025-09-10T15:27:17.773701,-12.430,16.220,106.820,-40.0,0.400,-0.400,181.080,1000.0
2025-09-10T15:27:17.818573,-12.230,15.100,107.820,-40.0,0.400,-0.400,181.080,1000.0
2025-09-10T15:27:17.820572,-11.800,14.040,108.760,-40.0,0.400,-0.400,181.080,1000.0
2025-09-10T15:27:17.849088,-11.360,13.250,109.420,-40.0,0.400,-0.400,181.080,1000.0
2025-09-10T15:27:17.850087,-10.960,12.440,110.030,-40.0,0.400,-0.400,181.080,1000.0
2025-09-10T15:27:17.879638,-10.560,11.550,110.770,-40.0,0.400,-0.400,181.080,1000.0
2025-09-10T15:27:17.909547,-9.900,10.450,111.790,-40.0,0.400,-0.400,181.080,1000.0
2025-09-10T15:27:17.912548,-8.850,9.350,112.850,-40.0,0.400,-0.400,181.080,1000.0
2025-09-10T15:27:17.939377,-7.440,8.270,113.830,-40.0,0.400,-0.400,181.080,1000.0
2025-09-10T15:27:17.941401,-5.730,7.110,114.870,-40.0,0.400,-0.400,181.080,1000.0
2025-09-10T15:27:17.984441,-4.070,6.050,115.960,-40.0,0.400,-0.400,181.080,1000.0
2025-09-10T15:27:18.014955,-1.610,4.700,117.520,-40.0,0.400,-0.400,181.080,1000.0
2025-09-10T15:27:18.016953,0.600,3.830,118.580,-40.0,0.400,-0.400,181.080,1000.0
2025-09-10T15:27:18.045248,2.680,3.190,119.280,-40.0,0.400,-0.400,181.080,1000.0
2025-09-10T15:27:18.047255,4.310,2.700,119.800,-40.0,0.400,-0.400,181.080,1000.0
2025-09-10T15:27:18.075068,5.530,2.240,120.400,-40.0,0.400,-0.400,181.080,1000.0
2025-09-10T15:27:18.105110,6.470,1.700,121.160,-40.0,0.400,-0.400,181.080,1000.0
2025-09-10T15:27:18.120180,7.060,1.190,121.830,-40.0,0.400,-0.400,181.080,1000.0
2025-09-10T15:27:18.135107,7.250,0.810,122.190,-40.0,0.400,-0.400,181.080,1000.0
2025-09-10T15:27:18.150272,7.100,0.550,122.210,-40.0,0.400,-0.400,181.080,1000.0
2025-09-10T15:27:18.179647,6.660,0.360,122.000,-40.0,0.400,-0.400,181.080,1000.0
2025-09-10T15:27:18.183647,6.030,0.200,121.720,-40.0,0.400,-0.400,181.080,1000.0
2025-09-10T15:27:18.225245,5.400,-0.080,121.540,-40.0,0.400,-0.400,181.080,1000.0
2025-09-10T15:27:18.255641,5.000,-0.540,121.530,-40.0,0.400,-0.400,181.080,1000.0
2025-09-10T15:27:18.257641,4.960,-1.070,121.610,-40.0,0.400,-0.400,181.080,1000.0
2025-09-10T15:27:18.285518,5.290,-1.750,121.700,-40.0,0.400,-0.400,181.080,1000.0
2025-09-10T15:27:18.316123,5.980,-2.580,121.790,-40.0,0.400,-0.400,181.080,1000.0
2025-09-10T15:27:18.318117,6.950,-3.580,121.990,-40.0,0.400,-0.400,181.080,1000.0
2025-09-10T15:27:18.346101,8.090,-4.610,122.360,-40.1,0.400,-0.400,181.080,1000.0
2025-09-10T15:27:18.348099,9.330,-5.650,122.690,-40.1,0.400,-0.400,181.080,1000.0
2025-09-10T15:27:18.376248,10.490,-6.640,122.870,-40.1,0.400,-0.400,181.080,1000.0
2025-09-10T15:27:18.381251,11.380,-7.630,122.980,-40.1,0.400,-0.400,181.080,1000.0
2025-09-10T15:27:18.406184,11.900,-8.480,123.110,-40.1,0.400,-0.400,181.080,1000.0
2025-09-10T15:27:18.436713,12.100,-9.020,123.200,-40.1,0.400,-0.400,181.080,1000.0
2025-09-10T15:27:18.451519,12.060,-9.640,123.200,-40.1,0.400,-0.400,181.080,1000.0
2025-09-10T15:27:18.467149,11.680,-9.990,123.080,-40.1,0.400,-0.400,181.080,1000.0
2025-09-10T15:27:18.500354,11.070,-10.230,122.900,-40.1,0.400,-0.400,181.080,1000.0
2025-09-10T15:27:18.528446,10.370,-10.310,122.710,-40.1,0.400,-0.400,181.080,1000.0
2025-09-10T15:27:18.558476,9.630,-10.250,122.500,-40.1,0.400,-0.400,181.080,1000.0
2025-09-10T15:27:18.560478,8.930,-10.080,122.170,-40.1,0.400,-0.400,181.080,1000.0
2025-09-10T15:27:18.588862,8.320,-9.760,121.720,-40.1,0.400,-0.400,181.080,1000.0
2025-09-10T15:27:18.592862,7.780,-9.310,121.280,-40.0,0.400,-0.400,181.080,1000.0
2025-09-10T15:27:18.619508,7.330,-8.680,120.860,-40.0,0.400,-0.400,181.080,1000.0
2025-09-10T15:27:18.650086,7.020,-7.990,120.440,-40.0,0.400,-0.400,181.080,1000.0
2025-09-10T15:27:18.652087,6.790,-7.230,119.970,-40.0,0.400,-0.400,181.080,1000.0
2025-09-10T15:27:18.680718,6.640,-6.420,119.490,-40.0,0.400,-0.400,181.080,1000.0
2025-09-10T15:27:18.685708,6.560,-5.550,119.070,-40.0,0.400,-0.400,181.080,1000.0
2025-09-10T15:27:18.710968,6.520,-4.560,118.750,-40.0,0.400,-0.400,181.080,1000.0
2025-09-10T15:27:18.741092,6.560,-3.390,118.530,-40.0,0.400,-0.400,181.080,1000.0
2025-09-10T15:27:18.743092,6.680,-2.200,118.380,-40.0,0.400,-0.400,181.080,1000.0
2025-09-10T15:27:18.785900,6.940,-0.280,118.200,-40.0,0.400,-0.400,181.080,1000.0
2025-09-10T15:27:18.789898,7.200,1.190,118.140,-40.0,0.400,-0.400,181.080,1000.0
2025-09-10T15:27:18.815991,7.590,3.070,118.170,-40.0,0.400,-0.400,181.080,1000.0
2025-09-10T15:27:18.860963,8.090,5.120,118.390,-40.0,0.400,-0.400,181.080,1000.0
2025-09-10T15:27:18.863964,8.680,7.130,118.740,-40.0,0.400,-0.400,181.080,1000.0
2025-09-10T15:27:18.890761,9.390,9.170,119.170,-40.0,0.400,-0.400,181.080,1000.0
2025-09-10T15:27:18.893760,10.230,11.180,119.590,-40.0,0.400,-0.400,181.080,1000.0
2025-09-10T15:27:18.920915,11.210,13.130,119.960,-40.0,0.400,-0.400,181.080,1000.0
2025-09-10T15:27:18.950659,12.290,15.020,120.340,-40.0,0.400,-0.400,181.080,1000.0
2025-09-10T15:27:18.952652,13.500,17.190,120.960,-40.0,0.400,-0.400,181.080,1000.0
2025-09-10T15:27:18.980983,14.580,19.080,121.700,-40.0,0.400,-0.400,181.080,1000.0
2025-09-10T15:27:18.984986,15.580,20.600,122.450,-40.0,0.400,-0.400,181.080,1000.0
2025-09-10T15:27:19.010962,16.990,22.350,123.390,-40.0,0.400,-0.400,181.080,1000.0
2025-09-10T15:27:19.055588,18.230,23.610,124.140,-40.0,0.400,-0.400,181.080,1000.0
2025-09-10T15:27:19.057588,19.820,25.110,125.160,-40.0,0.400,-0.400,181.080,1000.0
2025-09-10T15:27:19.085619,21.080,26.390,126.060,-40.0,0.400,-0.400,181.080,1000.0
2025-09-10T15:27:19.100622,22.430,27.840,127.090,-40.0,0.400,-0.400,181.080,1000.0
2025-09-10T15:27:19.115621,23.800,29.440,128.140,-40.0,0.400,-0.400,181.080,1000.0
2025-09-10T15:27:19.145621,24.840,30.720,128.970,-40.0,0.400,-0.400,181.080,1000.0
2025-09-10T15:27:19.160619,25.640,31.790,129.630,-40.0,0.400,-0.400,181.080,1000.0
2025-09-10T15:27:19.190976,26.190,32.620,130.020,-40.0,0.400,-0.400,181.080,1000.0
2025-09-10T15:27:19.193975,26.520,33.050,130.070,-40.0,0.400,-0.400,181.080,1000.0
2025-09-10T15:27:19.221479,26.580,32.920,129.740,-40.0,0.400,-0.400,181.080,1000.0
2025-09-10T15:27:19.251263,26.290,32.380,129.140,-40.0,0.400,-0.400,181.080,1000.0
2025-09-10T15:27:19.252280,25.710,31.580,120.260,-40.0,0.400,-0.400,181.080,1000.0
2025-09-10T15:27:19.297144,24.840,30.490,119.330,-40.0,0.400,-0.400,181.080,1000.0
2025-09-10T15:27:19.301686,23.770,29.270,118.260,-40.0,0.400,-0.400,181.080,1000.0
2025-09-10T15:27:19.326685,22.570,27.910,117.130,-40.1,0.400,-0.400,181.080,1000.0
2025-09-10T15:27:19.328688,21.210,26.460,116.040,-40.1,0.400,-0.400,181.080,1000.0
2025-09-10T15:27:19.357728,19.780,25.000,115.020,-40.1,0.400,-0.400,181.080,1000.0
2025-09-10T15:27:19.387854,18.400,23.570,114.030,-40.1,0.400,-0.400,181.080,1000.0
2025-09-10T15:27:19.390858,17.150,22.150,113.020,-40.1,0.400,-0.400,181.080,1000.0
2025-09-10T15:27:19.417853,16.060,20.800,112.030,-40.1,0.400,-0.400,181.080,1000.0
2025-09-10T15:27:19.420856,15.120,19.620,111.160,-40.1,0.400,-0.400,181.080,1000.0
2025-09-10T15:27:19.448477,14.330,18.680,110.400,-40.1,0.400,-0.400,181.080,1000.0
2025-09-10T15:27:19.478341,13.670,17.930,109.730,-40.1,0.400,-0.400,181.080,1000.0
2025-09-10T15:27:19.495341,13.120,17.210,109.070,-40.1,0.400,-0.400,181.080,1000.0
2025-09-10T15:27:19.522215,12.710,16.630,108.530,-40.1,0.400,-0.400,181.080,1000.0
2025-09-10T15:27:19.525216,12.260,15.890,107.850,-40.1,0.400,-0.400,181.080,1000.0
2025-09-10T15:27:19.567752,11.900,15.280,107.250,-40.1,0.400,-0.400,181.080,1000.0
2025-09-10T15:27:19.598531,11.490,14.630,106.500,-40.1,0.400,-0.400,181.080,1000.0
2025-09-10T15:27:19.602529,10.930,13.880,105.550,-40.1,0.400,-0.400,181.080,1000.0
2025-09-10T15:27:19.628530,10.240,13.150,104.590,-40.1,0.400,-0.400,181.080,1000.0
2025-09-10T15:27:19.631531,9.380,12.510,103.780,-40.1,0.400,-0.400,181.080,1000.0
2025-09-10T15:27:19.659135,8.420,11.990,103.070,-40.1,0.400,-0.400,181.080,1000.0
2025-09-10T15:27:19.689133,7.450,11.420,102.300,-40.1,0.400,-0.400,181.080,1000.0
2025-09-10T15:27:19.692133,6.470,10.700,101.390,-40.1,0.400,-0.400,181.080,1000.0
2025-09-10T15:27:19.719134,5.550,10.040,100.580,-40.1,0.400,-0.400,181.080,1000.0
2025-09-10T15:27:19.721135,4.770,9.490,100.040,-40.1,0.400,-0.400,181.080,1000.0
2025-09-10T15:27:19.748640,4.090,8.900,99.560,-40.1,0.400,-0.400,181.080,1000.0
2025-09-10T15:27:19.779466,3.490,8.190,99.050,-40.1,0.400,-0.400,181.080,1000.0
2025-09-10T15:27:19.809651,3.080,7.590,98.650,-40.0,0.400,-0.400,181.080,1000.0
2025-09-10T15:27:19.810657,2.880,7.100,98.390,-40.0,0.400,-0.400,181.080,1000.0
2025-09-10T15:27:19.812653,2.790,6.690,98.160,-40.0,0.400,-0.400,181.080,1000.0
2025-09-10T15:27:19.855467,2.660,6.290,97.900,-40.0,0.400,-0.400,181.080,1000.0
2025-09-10T15:27:19.900267,2.500,5.740,97.660,-40.0,0.400,-0.400,181.080,1000.0
2025-09-10T15:27:19.905264,2.440,5.210,97.610,-40.0,0.400,-0.400,181.080,1000.0
2025-09-10T15:27:19.930710,2.410,4.710,97.640,-40.0,0.400,-0.400,181.080,1000.0
2025-09-10T15:27:19.933708,2.440,4.270,97.640,-40.0,0.400,-0.400,181.080,1000.0
2025-09-10T15:27:19.960648,2.540,3.860,97.700,-40.0,0.400,-0.400,181.080,1000.0
2025-09-10T15:27:19.991085,2.750,3.490,97.990,-40.0,0.400,-0.400,181.080,1000.0
2025-09-10T15:27:19.995087,3.140,3.120,98.470,-40.0,0.400,-0.400,181.080,1000.0
2025-09-10T15:27:20.021182,3.720,2.820,98.880,-40.0,0.400,-0.400,181.080,1000.0
2025-09-10T15:27:20.024181,4.360,2.520,99.170,-40.0,0.400,-0.400,181.080,1000.0
2025-09-10T15:27:20.051483,4.950,2.280,99.490,-40.0,0.400,-0.400,181.080,1000.0
2025-09-10T15:27:20.097070,5.480,2.030,99.940,-40.0,0.400,-0.400,181.080,1000.0
2025-09-10T15:27:20.102068,5.970,1.780,100.500,-40.0,0.400,-0.400,181.080,1000.0
2025-09-10T15:27:20.127067,6.410,1.580,100.950,-40.0,0.400,-0.400,181.080,1000.0
2025-09-10T15:27:20.129069,6.730,1.440,101.280,-40.0,0.400,-0.400,181.080,1000.0
