Timestamp,Roll_Angle,Pitch_Angle,Yaw_Angle,Altitude,Roll_Setpoint,Pitch_Setpoint,Yaw_Setpoint,Altitude_Setpoint
2025-09-04T15:58:14.437904,-2.750,2.200,0.270,-85.3,0.200,-0.300,180.360,1000.0
2025-09-04T15:58:14.438905,-2.750,2.200,0.270,-85.3,0.200,-0.300,180.360,1000.0
2025-09-04T15:58:14.468324,-2.750,2.200,0.270,-85.3,0.200,-0.300,180.360,1000.0
2025-09-04T15:58:14.498514,-2.750,2.190,0.270,-85.3,0.200,-0.300,180.360,1000.0
2025-09-04T15:58:14.608597,-2.750,2.190,0.270,-85.3,0.200,-0.300,180.360,1000.0
2025-09-04T15:58:14.610600,-2.750,2.190,0.270,-85.3,0.200,-0.300,180.360,1000.0
2025-09-04T15:58:14.612598,-2.750,2.190,0.270,-85.3,0.200,-0.300,180.360,1000.0
2025-09-04T15:58:14.614597,-2.750,2.190,0.270,-85.3,0.200,-0.300,180.360,1000.0
2025-09-04T15:58:14.616598,-2.750,2.190,0.270,-85.3,0.200,-0.300,180.360,1000.0
2025-09-04T15:58:14.731910,-2.750,2.190,0.270,-85.3,0.200,-0.300,180.360,1000.0
2025-09-04T15:58:14.733911,-2.750,2.190,0.270,-85.3,0.200,-0.300,180.360,1000.0
2025-09-04T15:58:14.734911,-2.750,2.190,0.270,-85.3,0.200,-0.300,180.360,1000.0
2025-09-04T15:58:14.735910,-2.750,2.190,0.270,-85.3,0.200,-0.300,180.360,1000.0
2025-09-04T15:58:14.736911,-2.750,2.190,0.270,-85.3,0.200,-0.300,180.360,1000.0
2025-09-04T15:58:14.856157,-2.750,2.190,0.270,-85.3,0.200,-0.300,180.360,1000.0
2025-09-04T15:58:14.858171,-2.750,2.190,0.270,-85.3,0.200,-0.300,180.360,1000.0
2025-09-04T15:58:14.860158,-2.750,2.190,0.270,-85.3,0.200,-0.300,180.360,1000.0
2025-09-04T15:58:14.861158,-2.750,2.190,0.270,-85.3,0.200,-0.300,180.360,1000.0
2025-09-04T15:58:14.863164,-2.750,2.190,0.270,-85.3,0.200,-0.300,180.360,1000.0
2025-09-04T15:58:14.980156,-2.750,2.190,0.270,-85.3,0.200,-0.300,180.360,1000.0
2025-09-04T15:58:14.981155,-2.750,2.190,0.270,-85.3,0.200,-0.300,180.360,1000.0
2025-09-04T15:58:14.982154,-2.750,2.190,0.270,-85.3,0.200,-0.300,180.360,1000.0
2025-09-04T15:58:14.983155,-2.750,2.190,0.270,-85.3,0.200,-0.300,180.360,1000.0
2025-09-04T15:58:14.984159,-2.750,2.190,0.270,-85.3,0.200,-0.300,180.360,1000.0
2025-09-04T15:58:15.103162,-2.750,2.190,0.270,-85.3,0.200,-0.300,180.360,1000.0
2025-09-04T15:58:15.104155,-2.750,2.190,0.270,-85.3,0.200,-0.300,180.360,1000.0
2025-09-04T15:58:15.105157,-2.750,2.190,0.270,-85.3,0.200,-0.300,180.360,1000.0
2025-09-04T15:58:15.107156,-2.750,2.190,0.270,-85.3,0.200,-0.300,180.360,1000.0
2025-09-04T15:58:15.226454,-2.750,2.190,0.270,-85.3,0.200,-0.300,180.360,1000.0
2025-09-04T15:58:15.227459,-2.750,2.190,0.270,-85.3,0.200,-0.300,180.360,1000.0
2025-09-04T15:58:15.229459,-2.750,2.200,0.270,-85.3,0.200,-0.300,180.360,1000.0
2025-09-04T15:58:15.230459,-2.750,2.200,0.270,-85.3,0.200,-0.300,180.360,1000.0
2025-09-04T15:58:15.231460,-2.750,2.200,0.270,-85.3,0.200,-0.300,180.360,1000.0
2025-09-04T15:58:15.335790,-2.750,2.200,0.270,-85.3,0.200,-0.300,180.360,1000.0
2025-09-04T15:58:15.336795,-2.750,2.210,0.270,-85.3,0.200,-0.300,180.360,1000.0
2025-09-04T15:58:15.337795,-2.750,2.210,0.270,-85.3,0.200,-0.300,180.360,1000.0
2025-09-04T15:58:15.338795,-2.750,2.210,0.270,-85.3,0.200,-0.300,180.360,1000.0
2025-09-04T15:58:15.340798,-2.750,2.210,0.270,-85.3,0.200,-0.300,180.360,1000.0
2025-09-04T15:58:15.446144,-2.750,2.210,0.270,-85.3,0.200,-0.300,180.360,1000.0
2025-09-04T15:58:15.447143,-2.750,2.210,0.270,-85.3,0.200,-0.300,180.360,1000.0
2025-09-04T15:58:15.448143,-2.750,2.210,0.270,-85.3,0.200,-0.300,180.360,1000.0
2025-09-04T15:58:15.449144,-2.750,2.210,0.270,-85.3,0.200,-0.300,180.360,1000.0
2025-09-04T15:58:15.451145,-2.750,2.210,0.270,-85.3,0.200,-0.300,180.360,1000.0
2025-09-04T15:58:15.556132,-2.750,2.210,0.270,-85.3,0.200,-0.300,180.360,1000.0
2025-09-04T15:58:15.558135,-2.750,2.210,0.270,-85.3,0.200,-0.300,180.360,1000.0
2025-09-04T15:58:15.559135,-2.750,2.200,0.270,-85.3,0.200,-0.300,180.360,1000.0
2025-09-04T15:58:15.561133,-2.760,2.200,0.270,-85.3,0.200,-0.300,180.360,1000.0
2025-09-04T15:58:15.562132,-2.750,2.200,0.270,-85.3,0.200,-0.300,180.360,1000.0
2025-09-04T15:58:15.677968,-2.750,2.200,0.270,-85.3,0.200,-0.300,180.360,1000.0
2025-09-04T15:58:15.679979,-2.750,2.200,0.270,-85.3,0.200,-0.300,180.360,1000.0
2025-09-04T15:58:15.680969,-2.750,2.200,0.280,-85.3,0.200,-0.300,180.360,1000.0
2025-09-04T15:58:15.681971,-2.750,2.200,0.280,-85.3,0.200,-0.300,180.360,1000.0
2025-09-04T15:58:15.683094,-2.750,2.200,0.280,-85.3,0.200,-0.300,180.360,1000.0
2025-09-04T15:58:15.801758,-2.750,2.200,0.280,-85.3,0.200,-0.300,180.360,1000.0
2025-09-04T15:58:15.803760,-2.750,2.200,0.280,-85.3,0.200,-0.300,180.360,1000.0
2025-09-04T15:58:15.804761,-2.750,2.190,0.280,-85.3,0.200,-0.300,180.360,1000.0
2025-09-04T15:58:15.805761,-2.760,2.200,0.280,-85.3,0.200,-0.300,180.360,1000.0
2025-09-04T15:58:15.806762,-2.760,2.200,0.280,-85.3,0.200,-0.300,180.360,1000.0
2025-09-04T15:58:15.913307,-2.750,2.190,0.280,-85.3,0.200,-0.300,180.360,1000.0
2025-09-04T15:58:15.915307,-2.750,2.190,0.280,-85.3,0.200,-0.300,180.360,1000.0
2025-09-04T15:58:15.917308,-2.750,2.190,0.280,-85.3,0.200,-0.300,180.360,1000.0
2025-09-04T15:58:15.919312,-2.750,2.190,0.280,-85.3,0.200,-0.300,180.360,1000.0
2025-09-04T15:58:15.920309,-2.750,2.190,0.280,-85.3,0.200,-0.300,180.360,1000.0
2025-09-04T15:58:16.037316,-2.750,2.190,0.280,-85.3,0.200,-0.300,180.360,1000.0
2025-09-04T15:58:16.038306,-2.750,2.190,0.280,-85.3,0.200,-0.300,180.360,1000.0
2025-09-04T15:58:16.040305,-2.750,2.190,0.280,-85.3,0.200,-0.300,180.360,1000.0
2025-09-04T15:58:16.042308,-2.760,2.190,0.280,-85.3,0.200,-0.300,180.360,1000.0
2025-09-04T15:58:16.044308,-2.760,2.190,0.280,-85.3,0.200,-0.300,180.360,1000.0
2025-09-04T15:58:16.160018,-2.750,2.190,0.280,-85.3,0.200,-0.300,180.360,1000.0
2025-09-04T15:58:16.162019,-2.760,2.190,0.280,-85.3,0.200,-0.300,180.360,1000.0
2025-09-04T15:58:16.163019,-2.750,2.190,0.280,-85.3,0.200,-0.300,180.360,1000.0
2025-09-04T15:58:16.164020,-2.760,2.190,0.280,-85.3,0.200,-0.300,180.360,1000.0
2025-09-04T15:58:16.165019,-2.760,2.190,0.280,-85.3,0.200,-0.300,180.360,1000.0
2025-09-04T15:58:16.283621,-2.760,2.200,0.280,-85.3,0.200,-0.300,180.360,1000.0
2025-09-04T15:58:16.284620,-2.760,2.200,0.280,-85.3,0.200,-0.300,180.360,1000.0
2025-09-04T15:58:16.285620,-2.760,2.200,0.280,-85.3,0.200,-0.300,180.360,1000.0
2025-09-04T15:58:16.286621,-2.760,2.200,0.280,-85.3,0.200,-0.300,180.360,1000.0
2025-09-04T15:58:16.288621,-2.760,2.200,0.280,-85.3,0.200,-0.300,180.360,1000.0
2025-09-04T15:58:16.407740,-2.760,2.210,0.280,-85.3,0.200,-0.300,180.360,1000.0
2025-09-04T15:58:16.409738,-2.760,2.210,0.270,-85.3,0.200,-0.300,180.360,1000.0
2025-09-04T15:58:16.410741,-2.760,2.210,0.280,-85.3,0.200,-0.300,180.360,1000.0
2025-09-04T15:58:16.412739,-2.770,2.210,0.270,-85.3,0.200,-0.300,180.360,1000.0
2025-09-04T15:58:16.413737,-2.770,2.210,0.270,-85.3,0.200,-0.300,180.360,1000.0
2025-09-04T15:58:16.529713,-2.770,2.210,0.270,-85.3,0.200,-0.300,180.360,1000.0
2025-09-04T15:58:16.531719,-2.770,2.210,0.280,-85.3,0.200,-0.300,180.360,1000.0
2025-09-04T15:58:16.532719,-2.770,2.210,0.280,-85.3,0.200,-0.300,180.360,1000.0
2025-09-04T15:58:16.534720,-2.760,2.210,0.270,-85.3,0.200,-0.300,180.360,1000.0
2025-09-04T15:58:16.535719,-2.760,2.210,0.270,-85.3,0.200,-0.300,180.360,1000.0
2025-09-04T15:58:16.654604,-2.760,2.220,0.270,-85.3,0.200,-0.300,180.360,1000.0
2025-09-04T15:58:16.656612,-2.760,2.210,0.270,-85.3,0.200,-0.300,180.360,1000.0
2025-09-04T15:58:16.658614,-2.760,2.210,0.270,-85.3,0.200,-0.300,180.360,1000.0
2025-09-04T15:58:16.659614,-2.760,2.210,0.270,-85.3,0.200,-0.300,180.360,1000.0
2025-09-04T15:58:16.660613,-2.760,2.210,0.270,-85.3,0.200,-0.300,180.360,1000.0
2025-09-04T15:58:16.778988,-2.760,2.210,0.270,-85.3,0.200,-0.300,180.360,1000.0
2025-09-04T15:58:16.779989,-2.760,2.210,0.270,-85.3,0.200,-0.300,180.360,1000.0
2025-09-04T15:58:16.781989,-2.760,2.200,0.270,-85.3,0.200,-0.300,180.360,1000.0
2025-09-04T15:58:16.782990,-2.760,2.200,0.270,-85.3,0.200,-0.300,180.360,1000.0
2025-09-04T15:58:16.783990,-2.760,2.200,0.270,-85.3,0.200,-0.300,180.360,1000.0
2025-09-04T15:58:16.899835,-2.760,2.200,0.260,-85.3,0.200,-0.300,180.360,1000.0
2025-09-04T15:58:16.901834,-2.760,2.200,0.260,-85.4,0.200,-0.300,180.360,1000.0
2025-09-04T15:58:16.902834,-2.760,2.200,0.260,-85.4,0.200,-0.300,180.360,1000.0
2025-09-04T15:58:16.903835,-2.760,2.190,0.260,-85.4,0.200,-0.300,180.360,1000.0
2025-09-04T15:58:16.905835,-2.760,2.190,0.260,-85.3,0.200,-0.300,180.360,1000.0
2025-09-04T15:58:17.022343,-2.760,2.190,0.260,-85.3,0.200,-0.300,180.360,1000.0
2025-09-04T15:58:17.023343,-2.760,2.190,0.260,-85.3,0.200,-0.300,180.360,1000.0
2025-09-04T15:58:17.025347,-2.760,2.190,0.260,-85.3,0.200,-0.300,180.360,1000.0
2025-09-04T15:58:17.027349,-2.760,2.190,0.260,-85.3,0.200,-0.300,180.360,1000.0
2025-09-04T15:58:17.028344,-2.760,2.190,0.260,-85.3,0.200,-0.300,180.360,1000.0
2025-09-04T15:58:17.143796,-2.760,2.190,0.260,-85.3,0.200,-0.300,180.360,1000.0
2025-09-04T15:58:17.144792,-2.760,2.190,0.260,-85.3,0.200,-0.300,180.360,1000.0
2025-09-04T15:58:17.145790,-2.760,2.190,0.260,-85.3,0.200,-0.300,180.360,1000.0
2025-09-04T15:58:17.146790,-2.760,2.190,0.260,-85.3,0.200,-0.300,180.360,1000.0
2025-09-04T15:58:17.148792,-2.760,2.190,0.260,-85.4,0.200,-0.300,180.360,1000.0
2025-09-04T15:58:17.252030,-2.760,2.200,0.260,-85.4,0.200,-0.300,180.360,1000.0
2025-09-04T15:58:17.254030,-2.760,2.200,0.260,-85.4,0.200,-0.300,180.360,1000.0
2025-09-04T15:58:17.255031,-2.760,2.200,0.260,-85.4,0.200,-0.300,180.360,1000.0
2025-09-04T15:58:17.257031,-2.760,2.200,0.260,-85.4,0.200,-0.300,180.360,1000.0
2025-09-04T15:58:17.259035,-2.760,2.210,0.260,-85.4,0.200,-0.300,180.360,1000.0
2025-09-04T15:58:17.376612,-2.760,2.210,0.260,-85.4,0.200,-0.300,180.360,1000.0
2025-09-04T15:58:17.379602,-2.760,2.210,0.260,-85.4,0.200,-0.300,180.360,1000.0
2025-09-04T15:58:17.381601,-2.760,2.210,0.260,-85.4,0.200,-0.300,180.360,1000.0
2025-09-04T15:58:17.382601,-2.760,2.210,0.260,-85.4,0.200,-0.300,180.360,1000.0
2025-09-04T15:58:17.383599,-2.760,2.210,0.260,-85.4,0.200,-0.300,180.360,1000.0
2025-09-04T15:58:17.500754,-2.760,2.210,0.260,-85.4,0.200,-0.300,180.360,1000.0
2025-09-04T15:58:17.501753,-2.760,2.210,0.260,-85.4,0.200,-0.300,180.360,1000.0
2025-09-04T15:58:17.502754,-2.760,2.210,0.260,-85.4,0.200,-0.300,180.360,1000.0
2025-09-04T15:58:17.503756,-2.760,2.210,0.260,-85.4,0.200,-0.300,180.360,1000.0
2025-09-04T15:58:17.504755,-2.760,2.210,0.260,-85.4,0.200,-0.300,180.360,1000.0
2025-09-04T15:58:17.610557,-2.760,2.210,0.260,-85.3,0.200,-0.300,180.360,1000.0
2025-09-04T15:58:17.612556,-2.760,2.210,0.260,-85.3,0.200,-0.300,180.360,1000.0
2025-09-04T15:58:17.614557,-2.760,2.210,0.260,-85.3,0.200,-0.300,180.360,1000.0
2025-09-04T15:58:17.615556,-2.760,2.220,0.260,-85.3,0.200,-0.300,180.360,1000.0
2025-09-04T15:58:17.616556,-2.750,2.220,0.260,-85.3,0.200,-0.300,180.360,1000.0
2025-09-04T15:58:17.736322,-2.750,2.220,0.260,-85.3,0.200,-0.300,180.360,1000.0
2025-09-04T15:58:17.737336,-2.750,2.220,0.260,-85.3,0.200,-0.300,180.360,1000.0
2025-09-04T15:58:17.739328,-2.750,2.220,0.260,-85.3,0.200,-0.300,180.360,1000.0
2025-09-04T15:58:17.741325,-2.750,2.220,0.260,-85.3,0.200,-0.300,180.360,1000.0
2025-09-04T15:58:17.743328,-2.750,2.220,0.260,-85.3,0.200,-0.300,180.360,1000.0
2025-09-04T15:58:17.859250,-2.750,2.220,0.260,-85.3,0.200,-0.300,180.360,1000.0
2025-09-04T15:58:17.861251,-2.750,2.220,0.260,-85.3,0.200,-0.300,180.360,1000.0
2025-09-04T15:58:17.862261,-2.750,2.220,0.260,-85.3,0.200,-0.300,180.360,1000.0
2025-09-04T15:58:17.864251,-2.750,2.220,0.260,-85.3,0.200,-0.300,180.360,1000.0
2025-09-04T15:58:17.865252,-2.750,2.220,0.260,-85.3,0.200,-0.300,180.360,1000.0
2025-09-04T15:58:17.984248,-2.750,2.220,0.260,-85.3,0.200,-0.300,180.360,1000.0
2025-09-04T15:58:17.985247,-2.750,2.220,0.260,-85.3,0.200,-0.300,180.360,1000.0
2025-09-04T15:58:17.986248,-2.750,2.220,0.260,-85.3,0.200,-0.300,180.360,1000.0
2025-09-04T15:58:17.987248,-2.750,2.220,0.260,-85.3,0.200,-0.300,180.360,1000.0
2025-09-04T15:58:17.989248,-2.750,2.220,0.260,-85.3,0.200,-0.300,180.360,1000.0
2025-09-04T15:58:18.108250,-2.750,2.220,0.260,-85.3,0.200,-0.300,180.360,1000.0
2025-09-04T15:58:18.110261,-2.750,2.220,0.260,-85.3,0.200,-0.300,180.360,1000.0
2025-09-04T15:58:18.112253,-2.750,2.220,0.260,-85.3,0.200,-0.300,180.360,1000.0
2025-09-04T15:58:18.114252,-2.750,2.220,0.260,-85.3,0.200,-0.300,180.360,1000.0
2025-09-04T15:58:18.115249,-2.750,2.220,0.260,-85.3,0.200,-0.300,180.360,1000.0
2025-09-04T15:58:18.230512,-2.750,2.220,0.260,-85.3,0.200,-0.300,180.360,1000.0
2025-09-04T15:58:18.231511,-2.750,2.220,0.260,-85.3,0.200,-0.300,180.360,1000.0
2025-09-04T15:58:18.232511,-2.750,2.220,0.260,-85.3,0.200,-0.300,180.360,1000.0
2025-09-04T15:58:18.233511,-2.750,2.220,0.260,-85.3,0.200,-0.300,180.360,1000.0
2025-09-04T15:58:18.234513,-2.750,2.220,0.260,-85.3,0.200,-0.300,180.360,1000.0
2025-09-04T15:58:18.339927,-2.750,2.220,0.260,-85.3,0.200,-0.300,180.360,1000.0
2025-09-04T15:58:18.341929,-2.760,2.220,0.260,-85.3,0.200,-0.300,180.360,1000.0
2025-09-04T15:58:18.342933,-2.760,2.220,0.260,-85.3,0.200,-0.300,180.360,1000.0
2025-09-04T15:58:18.344928,-2.760,2.220,0.260,-85.3,0.200,-0.300,180.360,1000.0
2025-09-04T15:58:18.345928,-2.760,2.220,0.260,-85.4,0.200,-0.300,180.360,1000.0
2025-09-04T15:58:18.450133,-2.760,2.230,0.260,-85.4,0.200,-0.300,180.360,1000.0
2025-09-04T15:58:18.452134,-2.760,2.230,0.260,-85.4,0.200,-0.300,180.360,1000.0
2025-09-04T15:58:18.453132,-2.760,2.230,0.260,-85.4,0.200,-0.300,180.360,1000.0
2025-09-04T15:58:18.454131,-2.760,2.230,0.260,-85.4,0.200,-0.300,180.360,1000.0
2025-09-04T15:58:18.455133,-2.760,2.230,0.260,-85.4,0.200,-0.300,180.360,1000.0
2025-09-04T15:58:18.562086,-2.750,2.230,0.260,-85.4,0.200,-0.300,180.360,1000.0
2025-09-04T15:58:18.564088,-2.750,2.230,0.260,-85.4,0.200,-0.300,180.360,1000.0
2025-09-04T15:58:18.565087,-2.750,2.230,0.260,-85.4,0.200,-0.300,180.360,1000.0
2025-09-04T15:58:18.566089,-2.750,2.230,0.260,-85.3,0.200,-0.300,180.360,1000.0
2025-09-04T15:58:18.567089,-2.750,2.230,0.260,-85.3,0.200,-0.300,180.360,1000.0
2025-09-04T15:58:18.683634,-2.750,2.230,0.260,-85.3,0.200,-0.300,180.360,1000.0
2025-09-04T15:58:18.684636,-2.750,2.230,0.260,-85.3,0.200,-0.300,180.360,1000.0
2025-09-04T15:58:18.686634,-2.750,2.230,0.260,-85.3,0.200,-0.300,180.360,1000.0
2025-09-04T15:58:18.687635,-2.750,2.230,0.260,-85.3,0.200,-0.300,180.360,1000.0
2025-09-04T15:58:18.689634,-2.750,2.230,0.260,-85.3,0.200,-0.300,180.360,1000.0
2025-09-04T15:58:18.807378,-2.750,2.230,0.260,-85.3,0.200,-0.300,180.360,1000.0
2025-09-04T15:58:18.809346,-2.750,2.230,0.260,-85.3,0.200,-0.300,180.360,1000.0
2025-09-04T15:58:18.811354,-2.760,2.230,0.260,-85.3,0.200,-0.300,180.360,1000.0
2025-09-04T15:58:18.813345,-2.760,2.230,0.260,-85.2,0.200,-0.300,180.360,1000.0
2025-09-04T15:58:18.814351,-2.760,2.230,0.260,-85.2,0.200,-0.300,180.360,1000.0
2025-09-04T15:58:18.929347,-2.760,2.230,0.260,-85.2,0.200,-0.300,180.360,1000.0
2025-09-04T15:58:18.931346,-2.760,2.230,0.260,-85.2,0.200,-0.300,180.360,1000.0
2025-09-04T15:58:18.932347,-2.750,2.230,0.260,-85.3,0.200,-0.300,180.360,1000.0
2025-09-04T15:58:18.933347,-2.750,2.230,0.260,-85.3,0.200,-0.300,180.360,1000.0
2025-09-04T15:58:18.935344,-2.750,2.230,0.260,-85.3,0.200,-0.300,180.360,1000.0
2025-09-04T15:58:19.051394,-2.750,2.230,0.260,-85.3,0.200,-0.300,180.360,1000.0
2025-09-04T15:58:19.052343,-2.750,2.230,0.260,-85.3,0.200,-0.300,180.360,1000.0
2025-09-04T15:58:19.053344,-2.750,2.230,0.260,-85.3,0.200,-0.300,180.360,1000.0
2025-09-04T15:58:19.054376,-2.750,2.230,0.260,-85.3,0.200,-0.300,180.360,1000.0
2025-09-04T15:58:19.055342,-2.750,2.230,0.260,-85.3,0.200,-0.300,180.360,1000.0
2025-09-04T15:58:19.159347,-2.750,2.230,0.260,-85.3,0.200,-0.300,180.360,1000.0
2025-09-04T15:58:19.161347,-2.750,2.230,0.260,-85.3,0.200,-0.300,180.360,1000.0
2025-09-04T15:58:19.162347,-2.750,2.230,0.260,-85.3,0.200,-0.300,180.360,1000.0
2025-09-04T15:58:19.164346,-2.750,2.230,0.260,-85.3,0.200,-0.300,180.360,1000.0
2025-09-04T15:58:19.165346,-2.750,2.230,0.260,-85.3,0.200,-0.300,180.360,1000.0
2025-09-04T15:58:19.283157,-2.750,2.230,0.260,-85.3,0.200,-0.300,180.360,1000.0
2025-09-04T15:58:19.284157,-2.750,2.230,0.260,-85.3,0.200,-0.300,180.360,1000.0
2025-09-04T15:58:19.285158,-2.750,2.220,0.260,-85.3,0.200,-0.300,180.360,1000.0
2025-09-04T15:58:19.287158,-2.750,2.220,0.260,-85.3,0.200,-0.300,180.360,1000.0
2025-09-04T15:58:19.288158,-2.750,2.210,0.260,-85.3,0.200,-0.300,180.360,1000.0
2025-09-04T15:58:19.393730,-2.750,2.210,0.260,-85.3,0.200,-0.300,180.360,1000.0
2025-09-04T15:58:19.395615,-2.750,2.210,0.260,-85.3,0.200,-0.300,180.360,1000.0
2025-09-04T15:58:19.396616,-2.750,2.210,0.260,-85.3,0.200,-0.300,180.360,1000.0
2025-09-04T15:58:19.397615,-2.750,2.210,0.260,-85.3,0.200,-0.300,180.360,1000.0
2025-09-04T15:58:19.399614,-2.750,2.210,0.260,-85.3,0.200,-0.300,180.360,1000.0
2025-09-04T15:58:19.514963,-2.750,2.200,0.260,-85.3,0.200,-0.300,180.360,1000.0
2025-09-04T15:58:19.515970,-2.750,2.200,0.260,-85.3,0.200,-0.300,180.360,1000.0
2025-09-04T15:58:19.516962,-2.750,2.200,0.260,-85.3,0.200,-0.300,180.360,1000.0
2025-09-04T15:58:19.517962,-2.750,2.200,0.260,-85.3,0.200,-0.300,180.360,1000.0
2025-09-04T15:58:19.518962,-2.750,2.190,0.260,-85.3,0.200,-0.300,180.360,1000.0
2025-09-04T15:58:19.639081,-2.750,2.190,0.260,-85.3,0.200,-0.300,180.360,1000.0
2025-09-04T15:58:19.640082,-2.750,2.190,0.260,-85.3,0.200,-0.300,180.360,1000.0
2025-09-04T15:58:19.641082,-2.750,2.190,0.260,-85.3,0.200,-0.300,180.360,1000.0
2025-09-04T15:58:19.643085,-2.750,2.190,0.260,-85.3,0.200,-0.300,180.360,1000.0
2025-09-04T15:58:19.644087,-2.750,2.190,0.260,-85.3,0.200,-0.300,180.360,1000.0
2025-09-04T15:58:19.761086,-2.750,2.190,0.260,-85.3,0.200,-0.300,180.360,1000.0
2025-09-04T15:58:19.763084,-2.750,2.190,0.260,-85.3,0.200,-0.300,180.360,1000.0
2025-09-04T15:58:19.764084,-2.750,2.190,0.260,-85.3,0.200,-0.300,180.360,1000.0
2025-09-04T15:58:19.766084,-2.750,2.190,0.260,-85.3,0.200,-0.300,180.360,1000.0
2025-09-04T15:58:19.767083,-2.750,2.190,0.260,-85.3,0.200,-0.300,180.360,1000.0
2025-09-04T15:58:19.883706,-2.750,2.190,0.260,-85.3,0.200,-0.300,180.360,1000.0
2025-09-04T15:58:19.884706,-2.750,2.190,0.260,-85.3,0.200,-0.300,180.360,1000.0
2025-09-04T15:58:19.886706,-2.750,2.190,0.260,-85.3,0.200,-0.300,180.360,1000.0
2025-09-04T15:58:19.887707,-2.750,2.190,0.260,-85.3,0.200,-0.300,180.360,1000.0
2025-09-04T15:58:24.215216,-2.770,2.190,0.280,-85.4,0.200,-0.300,180.360,1000.0
2025-09-04T15:58:24.308413,-2.760,2.190,0.280,-85.4,0.200,-0.300,180.360,1000.0
2025-09-04T15:58:24.417985,-2.760,2.190,0.280,-85.4,0.200,-0.300,180.360,1000.0
2025-09-04T15:58:24.419982,-2.760,2.200,0.280,-85.4,0.200,-0.300,180.360,1000.0
2025-09-04T15:58:24.420983,-2.760,2.200,0.280,-85.3,0.200,-0.300,180.360,1000.0
2025-09-04T15:58:24.433986,-2.760,2.210,0.280,-85.3,0.200,-0.300,180.360,1000.0
2025-09-04T15:58:24.511916,-2.760,2.210,0.280,-85.3,0.200,-0.300,180.360,1000.0
2025-09-04T15:58:24.513920,-2.760,2.210,0.280,-85.3,0.200,-0.300,180.360,1000.0
2025-09-04T15:58:24.516049,-2.760,2.210,0.280,-85.3,0.200,-0.300,180.360,1000.0
2025-09-04T15:58:24.620377,-2.760,2.200,0.280,-85.3,0.200,-0.300,180.360,1000.0
2025-09-04T15:58:24.622377,-2.760,2.200,0.280,-85.3,0.200,-0.300,180.360,1000.0
2025-09-04T15:58:24.623377,-2.760,2.200,0.280,-85.3,0.200,-0.300,180.360,1000.0
2025-09-04T15:58:24.624377,-2.760,2.190,0.280,-85.3,0.200,-0.300,180.360,1000.0
2025-09-04T15:58:24.697959,-2.760,2.200,0.280,-85.3,0.200,-0.300,180.360,1000.0
2025-09-04T15:58:24.805292,-2.760,2.200,0.280,-85.3,0.200,-0.300,180.360,1000.0
2025-09-04T15:58:24.806290,-2.760,2.200,0.280,-85.3,0.200,-0.300,180.360,1000.0
2025-09-04T15:58:24.807294,-2.760,2.210,0.280,-85.3,0.200,-0.300,180.360,1000.0
2025-09-04T15:58:24.836291,-2.760,2.210,0.280,-85.4,0.200,-0.300,180.360,1000.0
2025-09-04T15:58:24.837291,-2.760,2.210,0.280,-85.4,0.200,-0.300,180.360,1000.0
2025-09-04T15:58:24.898539,-2.760,2.210,0.280,-85.4,0.200,-0.300,180.360,1000.0
2025-09-04T15:58:25.008538,-2.760,2.210,0.280,-85.3,0.200,-0.300,180.360,1000.0
2025-09-04T15:58:25.009537,-2.760,2.210,0.280,-85.3,0.200,-0.300,180.360,1000.0
2025-09-04T15:58:25.010537,-2.760,2.210,0.280,-85.3,0.200,-0.300,180.360,1000.0
2025-09-04T15:58:25.011538,-2.760,2.210,0.280,-85.3,0.200,-0.300,180.360,1000.0
2025-09-04T15:58:25.119539,-2.750,2.210,0.280,-85.3,0.200,-0.300,180.360,1000.0
2025-09-04T15:58:25.120538,-2.750,2.210,0.280,-85.3,0.200,-0.300,180.360,1000.0
2025-09-04T15:58:25.121538,-2.750,2.220,0.280,-85.3,0.200,-0.300,180.360,1000.0
2025-09-04T15:58:25.123538,-2.750,2.220,0.280,-85.3,0.200,-0.300,180.360,1000.0
2025-09-04T15:58:25.229550,-2.750,2.220,0.280,-85.3,0.200,-0.300,180.360,1000.0
2025-09-04T15:58:27.132351,-2.750,2.190,0.280,-85.3,-2.750,2.190,0.280,-85.3
2025-09-04T15:58:27.133352,-2.750,2.180,0.280,-85.3,-2.750,2.180,0.280,-85.3
2025-09-04T15:58:27.135349,-2.750,2.180,0.280,-85.3,-2.750,2.180,0.280,-85.3
2025-09-04T15:58:28.006756,-2.750,2.180,0.280,-85.3,-2.750,2.180,0.280,-85.3
2025-09-04T15:58:28.008757,-2.750,2.180,0.280,-85.3,-2.750,2.180,0.280,-85.3
2025-09-04T15:58:28.009756,-2.750,2.180,0.280,-85.3,-2.750,2.180,0.280,-85.3
2025-09-04T15:58:28.010756,-2.750,2.180,0.280,-85.3,-2.750,2.180,0.280,-85.3
2025-09-04T15:58:28.011756,-2.750,2.180,0.280,-85.3,-2.750,2.180,0.280,-85.3
2025-09-04T15:58:28.013759,-2.750,2.180,0.280,-85.3,-2.750,2.180,0.280,-85.3
2025-09-04T15:58:28.349089,-2.750,2.180,0.280,-85.3,-2.750,2.180,0.280,-85.3
2025-09-04T15:58:28.351087,-2.750,2.190,0.280,-85.3,-2.750,2.190,0.280,-85.3
2025-09-04T15:58:28.352087,-2.750,2.190,0.280,-85.3,-2.750,2.190,0.280,-85.3
2025-09-04T15:58:28.353087,-2.750,2.190,0.280,-85.3,-2.750,2.190,0.280,-85.3
2025-09-04T15:58:28.354097,-2.750,2.200,0.280,-85.3,-2.750,2.200,0.280,-85.3
2025-09-04T15:58:28.355088,-2.770,2.190,0.280,-85.3,-2.770,2.190,0.280,-85.3
2025-09-04T15:58:28.676603,-2.750,2.210,0.280,-85.3,-2.750,2.210,0.280,-85.3
2025-09-04T15:58:28.679602,-2.750,2.210,0.280,-85.3,-2.750,2.210,0.280,-85.3
2025-09-04T15:58:28.681603,-2.750,2.210,0.280,-85.3,-2.750,2.210,0.280,-85.3
2025-09-04T15:58:28.683604,-2.750,2.210,0.280,-85.3,-2.750,2.210,0.280,-85.3
2025-09-04T15:58:28.685603,-2.760,2.210,0.280,-85.3,-2.760,2.210,0.280,-85.3
2025-09-04T15:58:28.686604,-2.760,2.220,0.280,-85.3,-2.760,2.220,0.280,-85.3
2025-09-04T15:58:28.688603,-2.770,2.210,0.280,-85.3,-2.770,2.210,0.280,-85.3
2025-09-04T15:58:28.689602,-2.770,2.210,0.280,-85.3,-2.770,2.210,0.280,-85.3
2025-09-04T15:58:29.032420,-2.760,2.230,0.300,-85.3,0.200,-0.300,180.360,1000.0
2025-09-04T15:58:29.033423,-2.760,2.240,0.300,-85.3,0.200,-0.300,180.360,1000.0
2025-09-04T15:58:29.035421,-2.760,2.240,0.300,-85.3,0.200,-0.300,180.360,1000.0
2025-09-04T15:58:29.036419,-2.760,2.250,0.300,-85.3,0.200,-0.300,180.360,1000.0
2025-09-04T15:58:29.037419,-2.760,2.250,0.300,-85.3,0.200,-0.300,180.360,1000.0
2025-09-04T15:58:29.150677,-2.760,2.250,0.300,-85.3,0.200,-0.300,180.360,1000.0
2025-09-04T15:58:29.151683,-2.760,2.250,0.300,-85.3,0.200,-0.300,180.360,1000.0
2025-09-04T15:58:29.152677,-2.760,2.240,0.300,-85.3,0.200,-0.300,180.360,1000.0
2025-09-04T15:58:29.153676,-2.770,2.240,0.300,-85.3,0.200,-0.300,180.360,1000.0
2025-09-04T15:58:29.155677,-2.770,2.230,0.290,-85.3,0.200,-0.300,180.360,1000.0
2025-09-04T15:58:29.156675,-2.770,2.230,0.290,-85.3,0.200,-0.300,180.360,1000.0
2025-09-04T15:58:29.157676,-2.760,2.220,0.280,-85.3,0.200,-0.300,180.360,1000.0
2025-09-04T15:58:29.158676,-2.770,2.230,0.280,-85.3,0.200,-0.300,180.360,1000.0
2025-09-04T15:58:29.273520,-2.760,2.220,0.290,-85.3,0.200,-0.300,180.360,1000.0
2025-09-04T15:58:29.276520,-2.760,2.230,0.290,-85.3,0.200,-0.300,180.360,1000.0
2025-09-04T15:58:29.278521,-2.760,2.220,0.290,-85.3,0.200,-0.300,180.360,1000.0
2025-09-04T15:58:29.279520,-2.760,2.230,0.290,-85.3,0.200,-0.300,180.360,1000.0
2025-09-04T15:58:29.280519,-2.760,2.230,0.290,-85.3,0.200,-0.300,180.360,1000.0
2025-09-04T15:58:29.282524,-2.770,2.230,0.280,-85.3,0.200,-0.300,180.360,1000.0
2025-09-04T15:58:29.284523,-2.760,2.230,0.280,-85.3,0.200,-0.300,180.360,1000.0
2025-09-04T15:58:29.285527,-2.760,2.230,0.280,-85.3,0.200,-0.300,180.360,1000.0
2025-09-04T15:58:29.398925,-2.760,2.230,0.280,-85.3,0.200,-0.300,180.360,1000.0
2025-09-04T15:58:29.400915,-2.770,2.230,0.280,-85.3,0.200,-0.300,180.360,1000.0
2025-09-04T15:58:29.401917,-2.770,2.230,0.280,-85.3,0.200,-0.300,180.360,1000.0
2025-09-04T15:58:29.403913,-2.770,2.230,0.280,-85.3,0.200,-0.300,180.360,1000.0
2025-09-04T15:58:29.404914,-2.770,2.230,0.280,-85.3,0.200,-0.300,180.360,1000.0
2025-09-04T15:58:29.405916,-2.770,2.230,0.280,-85.3,0.200,-0.300,180.360,1000.0
2025-09-04T15:58:29.406914,-2.770,2.230,0.280,-85.3,-2.770,2.230,0.280,-85.3
2025-09-04T15:58:30.179053,-2.760,2.230,0.280,-85.3,-2.760,2.230,0.280,-85.3
2025-09-04T15:58:30.180052,-2.760,2.230,0.280,-85.3,-2.760,2.230,0.280,-85.3
2025-09-04T15:58:30.182054,-2.760,2.230,0.280,-85.3,-2.760,2.230,0.280,-85.3
2025-09-04T15:58:30.184053,-2.760,2.230,0.280,-85.3,-2.760,2.230,0.280,-85.3
2025-09-04T15:58:30.185053,-2.760,2.230,0.280,-85.3,-2.760,2.230,0.280,-85.3
2025-09-04T15:58:30.954248,-2.760,2.230,0.280,-85.3,-2.760,2.230,0.280,-85.3
2025-09-04T15:58:30.955235,-2.760,2.230,0.280,-85.3,-2.760,2.230,0.280,-85.3
2025-09-04T15:58:30.956236,-2.760,2.230,0.280,-85.3,-2.760,2.230,0.280,-85.3
2025-09-04T15:58:30.957235,-2.760,2.230,179.480,416.3,-2.760,2.230,179.480,416.3
2025-09-04T15:58:31.039243,-2.780,2.210,0.280,-85.3,-2.780,2.210,0.280,-85.3
2025-09-04T15:58:31.040236,-2.780,2.210,0.280,-85.3,-2.780,2.210,0.280,-85.3
2025-09-04T15:58:31.697976,-2.770,2.200,0.280,-85.3,-2.770,2.200,0.280,-85.3
2025-09-04T15:58:31.698976,-2.770,2.200,0.280,-85.3,-2.770,2.200,0.280,-85.3
2025-09-04T15:58:31.700976,-2.770,2.200,0.280,-85.3,-2.770,2.200,0.280,-85.3
2025-09-04T15:58:31.701978,-2.770,2.200,0.280,-85.3,-2.770,2.200,0.280,-85.3
2025-09-04T15:58:31.703981,-2.770,2.200,0.280,-85.3,-2.770,2.200,0.280,-85.3
2025-09-04T15:58:32.362170,-2.770,2.190,0.280,-85.3,-2.770,2.190,0.280,-85.3
2025-09-04T15:58:32.364171,-2.770,2.190,0.280,-85.3,-2.770,2.190,0.280,-85.3
2025-09-04T15:58:32.365170,-2.770,2.190,0.280,-85.3,-2.770,2.190,0.280,-85.3
2025-09-04T15:58:32.368176,-2.770,2.190,0.280,-85.3,-2.770,2.190,0.280,-85.3
2025-09-04T15:58:32.370172,-2.770,2.190,0.280,-85.3,-2.770,2.190,0.280,-85.3
2025-09-04T15:58:33.024138,-2.770,2.190,0.280,-85.3,-2.770,2.190,0.280,-85.3
2025-09-04T15:58:33.026138,-2.760,2.190,0.280,-85.3,-2.760,2.190,0.280,-85.3
2025-09-04T15:58:33.027138,-2.760,2.190,0.280,-85.3,-2.760,2.190,0.280,-85.3
2025-09-04T15:58:33.028141,-2.760,2.200,0.280,-85.3,-2.760,2.200,0.280,-85.3
2025-09-04T15:58:33.030140,-2.760,2.200,0.280,-85.3,-2.760,2.200,0.280,-85.3
2025-09-04T15:58:33.679333,-2.760,2.200,0.280,-85.3,-2.760,2.200,0.280,-85.3
2025-09-04T15:58:33.682335,-2.760,2.200,0.280,-85.3,-2.760,2.200,0.280,-85.3
2025-09-04T15:58:33.686336,-2.760,2.210,0.280,-85.4,-2.760,2.210,0.280,-85.4
2025-09-04T15:58:33.688339,-2.760,2.210,0.280,-85.4,-2.760,2.210,0.280,-85.4
2025-09-04T15:58:33.690338,-2.760,2.210,0.280,-85.4,-2.760,2.210,0.280,-85.4
2025-09-04T15:58:34.351668,-2.760,2.210,0.280,-85.4,-2.760,2.210,0.280,-85.4
2025-09-04T15:58:34.353670,-2.760,2.210,0.280,-85.4,-2.760,2.210,0.280,-85.4
2025-09-04T15:58:34.354668,-2.760,2.210,0.280,-85.4,-2.760,2.210,0.280,-85.4
2025-09-04T15:58:34.355669,-2.760,2.210,0.280,-85.4,-2.760,2.210,0.280,-85.4
2025-09-04T15:58:34.356674,-2.760,2.210,0.280,-85.4,-2.760,2.210,0.280,-85.4
2025-09-04T15:58:35.015598,-2.760,2.210,0.280,-85.4,-2.760,2.210,0.280,-85.4
2025-09-04T15:58:35.018599,-2.760,2.210,0.280,-85.4,-2.760,2.210,0.280,-85.4
2025-09-04T15:58:35.020601,-2.760,2.210,0.280,-85.4,-2.760,2.210,0.280,-85.4
2025-09-04T15:58:35.021600,-2.760,2.210,0.280,-85.4,-2.760,2.210,0.280,-85.4
2025-09-04T15:58:35.023598,-2.760,2.210,0.280,-85.4,-2.760,2.210,0.280,-85.4
2025-09-04T15:58:35.682602,-2.760,2.210,0.280,-85.4,-2.760,2.210,0.280,-85.4
2025-09-04T15:58:35.685606,-2.760,2.220,0.280,-85.4,-2.760,2.220,0.280,-85.4
2025-09-04T15:58:35.687603,-2.760,2.220,0.280,-85.4,-2.760,2.220,0.280,-85.4
2025-09-04T15:58:35.688602,-2.760,2.220,0.280,-85.4,-2.760,2.220,0.280,-85.4
2025-09-04T15:58:35.689605,-2.760,2.220,0.280,-85.5,-2.760,2.220,0.280,-85.5
2025-09-04T15:58:36.345059,-2.760,2.210,0.280,-85.5,-2.760,2.210,0.280,-85.5
2025-09-04T15:58:36.346058,-2.760,2.210,0.280,-85.5,-2.760,2.210,0.280,-85.5
2025-09-04T15:58:36.347058,-2.760,2.210,0.280,-85.5,-2.760,2.210,0.280,-85.5
2025-09-04T15:58:36.348065,-2.760,2.210,0.280,-85.5,-2.760,2.210,0.280,-85.5
2025-09-04T15:58:36.349058,-2.760,2.210,0.280,-85.5,-2.760,2.210,0.280,-85.5
2025-09-04T15:58:37.002060,-2.760,2.210,0.280,-85.5,-2.760,2.210,0.280,-85.5
2025-09-04T15:58:37.003060,-2.760,2.210,0.280,-85.5,-2.760,2.210,0.280,-85.5
2025-09-04T15:58:37.005062,-2.760,2.200,0.280,-85.5,-2.760,2.200,0.280,-85.5
2025-09-04T15:58:37.007061,-2.760,2.200,0.280,-85.5,-2.760,2.200,0.280,-85.5
2025-09-04T15:58:37.657803,-2.770,2.200,0.280,-85.5,-2.770,2.200,0.280,-85.5
2025-09-04T15:58:37.659803,-2.770,2.210,0.280,-85.4,-2.770,2.210,0.280,-85.4
2025-09-04T15:58:37.660802,-2.770,2.210,0.280,-85.4,-2.770,2.210,0.280,-85.4
2025-09-04T15:58:37.661801,-2.780,2.210,0.280,-85.4,-2.780,2.210,0.280,-85.4
2025-09-04T15:58:37.662802,-2.780,2.210,0.280,-85.4,-2.780,2.210,0.280,-85.4
2025-09-04T15:58:38.323174,-2.780,2.210,0.280,-85.4,-2.780,2.210,0.280,-85.4
2025-09-04T15:58:38.324174,-2.780,2.210,0.280,-85.4,-2.780,2.210,0.280,-85.4
2025-09-04T15:58:38.326174,-2.780,2.210,0.280,-85.4,-2.780,2.210,0.280,-85.4
2025-09-04T15:58:38.327175,-2.780,2.210,0.280,-85.4,-2.780,2.210,0.280,-85.4
2025-09-04T15:58:38.328174,-2.780,2.210,0.280,-85.4,-2.780,2.210,0.280,-85.4
2025-09-04T15:58:38.330177,-2.780,2.210,0.280,-85.4,-2.780,2.210,0.280,-85.4
2025-09-04T15:58:38.331174,-2.780,2.210,0.280,-85.4,-2.780,2.210,0.280,-85.4
2025-09-04T15:58:38.333175,-2.780,2.220,0.280,-85.4,-2.780,2.220,0.280,-85.4
2025-09-04T15:58:38.334175,-2.780,2.220,0.280,-85.4,-2.780,2.220,0.280,-85.4
2025-09-04T15:58:38.770292,-2.780,2.220,0.280,-85.4,-2.780,2.220,0.280,-85.4
2025-09-04T15:58:38.771293,-2.780,2.220,0.280,-85.4,-2.780,2.220,0.280,-85.4
2025-09-04T15:58:38.772292,-2.770,2.220,0.280,-85.4,-2.770,2.220,0.280,-85.4
2025-09-04T15:58:38.774291,-2.770,2.220,0.280,-85.4,-2.770,2.220,0.280,-85.4
2025-09-04T15:58:38.775292,-2.770,2.220,0.280,-85.4,-2.770,2.220,0.280,-85.4
2025-09-04T15:58:38.788295,-2.760,2.220,0.280,-85.4,-2.760,2.220,0.280,-85.4
2025-09-04T15:58:38.790295,-2.760,2.220,0.280,-85.4,-2.760,2.220,0.280,-85.4
2025-09-04T15:58:38.791294,-2.760,2.230,0.280,-85.4,-2.760,2.230,0.280,-85.4
2025-09-04T15:58:38.792292,-2.760,2.230,0.280,-85.4,-2.760,2.230,0.280,-85.4
2025-09-04T15:58:38.794292,-2.760,2.230,0.280,-85.4,-2.760,2.230,0.280,-85.4
2025-09-04T15:58:39.559083,-2.760,2.230,0.280,-85.4,-2.760,2.230,0.280,-85.4
2025-09-04T15:58:39.561082,-2.760,2.230,0.280,-85.4,-2.760,2.230,0.280,-85.4
2025-09-04T15:58:39.562083,-2.760,2.230,0.280,-85.4,-2.760,2.230,0.280,-85.4
2025-09-04T15:58:39.563086,-2.760,2.230,0.280,-85.4,-2.760,2.230,0.280,-85.4
2025-09-04T15:58:39.564085,-2.760,2.230,0.280,-85.4,-2.760,2.230,0.280,-85.4
2025-09-04T15:58:40.333332,-2.760,2.230,0.280,-85.4,-2.760,2.230,0.280,-85.4
2025-09-04T15:58:40.335332,-2.760,2.230,0.280,-85.4,-2.760,2.230,0.280,-85.4
2025-09-04T15:58:40.337335,-2.760,2.230,0.280,-85.4,-2.760,2.230,0.280,-85.4
2025-09-04T15:58:40.338334,-2.760,2.220,0.280,-85.4,-2.760,2.220,0.280,-85.4
2025-09-04T15:58:40.339333,-2.770,2.220,0.280,-85.4,-2.770,2.220,0.280,-85.4
2025-09-04T15:58:41.093161,-2.770,2.220,0.280,-85.4,-2.770,2.220,0.280,-85.4
2025-09-04T15:58:41.095161,-2.770,2.220,0.280,-85.4,-2.770,2.220,0.280,-85.4
2025-09-04T15:58:41.096160,-2.780,2.220,0.280,-85.4,-2.780,2.220,0.280,-85.4
2025-09-04T15:58:41.097161,-2.770,2.220,0.280,-85.4,-2.770,2.220,0.280,-85.4
2025-09-04T15:58:41.099161,-2.770,2.220,0.280,-85.4,-2.770,2.220,0.280,-85.4
2025-09-04T15:58:41.100164,-2.770,2.220,0.280,-85.4,-2.770,2.220,0.280,-85.4
2025-09-04T15:58:41.102162,-2.770,2.220,0.280,-85.4,-2.770,2.220,0.280,-85.4
2025-09-04T15:58:41.103163,-2.770,2.210,0.280,-85.4,-2.770,2.210,0.280,-85.4
2025-09-04T15:58:41.865823,-2.770,2.210,0.280,-85.4,-2.770,2.210,0.280,-85.4
2025-09-04T15:58:41.867823,-2.770,2.210,0.280,-85.4,0.200,-0.300,180.360,1000.0
2025-09-04T15:58:41.868824,-2.770,2.210,0.280,-85.4,0.200,-0.300,180.360,1000.0
2025-09-04T15:58:41.869825,-2.770,2.210,0.280,-85.4,0.200,-0.300,180.360,1000.0
2025-09-04T15:58:45.567617,-2.760,2.220,0.280,-85.4,0.200,-0.300,180.360,1000.0
2025-09-04T15:58:45.568614,-2.760,2.220,0.280,-85.4,0.200,-0.300,180.360,1000.0
2025-09-04T15:58:45.570613,-2.760,2.220,0.280,-85.4,0.200,-0.300,180.360,1000.0
2025-09-04T15:58:45.571613,-2.760,2.220,0.280,-85.4,0.200,-0.300,180.360,1000.0
2025-09-04T15:58:45.572614,-2.760,2.220,0.280,-85.4,0.200,-0.300,180.360,1000.0
2025-09-04T15:58:46.664934,-2.760,2.200,0.280,-85.3,-2.760,2.200,0.280,-85.3
2025-09-04T15:58:47.205092,-2.760,2.200,0.280,-85.3,-2.760,2.200,0.280,-85.3
2025-09-04T15:58:47.206099,-2.760,2.200,0.280,-85.3,-2.760,2.200,0.280,-85.3
2025-09-04T15:58:47.207098,-2.760,2.190,0.280,-85.3,-2.760,2.190,0.280,-85.3
2025-09-04T15:58:47.209101,-2.760,2.190,0.280,-85.4,-2.760,2.190,0.280,-85.4
2025-09-04T15:58:47.211100,-2.760,2.190,0.280,-85.4,-2.760,2.190,0.280,-85.4
2025-09-04T15:58:47.753196,-2.760,2.190,0.280,-85.4,-2.760,2.190,0.280,-85.4
2025-09-04T15:58:47.755185,-2.760,2.190,0.280,-85.4,-2.760,2.190,0.280,-85.4
2025-09-04T15:58:47.757184,-2.760,2.190,0.280,-85.4,-2.760,2.190,0.280,-85.4
2025-09-04T15:58:47.759187,-2.760,2.190,0.280,-85.4,-2.760,2.190,0.280,-85.4
2025-09-04T15:58:47.761185,-2.760,2.190,0.280,-85.4,-2.760,2.190,0.280,-85.4
2025-09-04T15:58:48.306498,-2.760,2.190,0.280,-85.4,-2.760,2.190,0.280,-85.4
2025-09-04T15:58:48.308500,-2.760,2.190,0.280,-85.4,-2.760,2.190,0.280,-85.4
2025-09-04T15:58:48.310505,-2.750,2.190,0.280,-85.3,-2.750,2.190,0.280,-85.3
2025-09-04T15:58:48.312499,-2.750,2.190,0.280,-85.3,-2.750,2.190,0.280,-85.3
2025-09-04T15:58:48.313502,-2.760,2.190,0.280,-85.4,-2.760,2.190,0.280,-85.4
2025-09-04T15:58:48.868518,-2.760,2.180,0.280,-85.4,-2.760,2.180,0.280,-85.4
2025-09-04T15:58:48.870567,-2.760,2.180,0.280,-85.4,-2.760,2.180,0.280,-85.4
2025-09-04T15:58:48.871550,-2.760,2.180,0.280,-85.4,-2.760,2.180,0.280,-85.4
2025-09-04T15:58:48.872555,-2.760,2.170,0.280,-85.4,-2.760,2.170,0.280,-85.4
2025-09-04T15:58:48.873518,-2.760,2.170,0.280,-85.4,-2.760,2.170,0.280,-85.4
2025-09-04T15:58:49.413338,-2.760,2.170,0.280,-85.4,-2.760,2.170,0.280,-85.4
2025-09-04T15:58:49.414347,-2.760,2.160,0.280,-85.4,-2.760,2.160,0.280,-85.4
2025-09-04T15:58:49.415341,-2.760,2.160,0.280,-85.4,-2.760,2.160,0.280,-85.4
2025-09-04T15:58:49.416341,-2.760,2.160,0.270,-85.4,-2.760,2.160,0.270,-85.4
2025-09-04T15:58:49.418341,-2.760,2.170,0.280,-85.4,-2.760,2.170,0.280,-85.4
2025-09-04T15:58:49.955841,-2.760,2.170,0.280,-85.4,-2.760,2.170,0.280,-85.4
2025-09-04T15:58:49.956839,-2.760,2.170,0.280,-85.4,-2.760,2.170,0.280,-85.4
2025-09-04T15:58:49.957840,-2.760,2.180,0.280,-85.4,-2.760,2.180,0.280,-85.4
2025-09-04T15:58:49.959843,-2.760,2.180,0.280,-85.4,-2.760,2.180,0.280,-85.4
2025-09-04T15:58:49.960845,-2.750,2.170,0.280,-85.4,-2.750,2.170,0.280,-85.4
2025-09-04T15:58:50.513513,-2.750,2.170,0.280,-85.4,-2.750,2.170,0.280,-85.4
2025-09-04T15:58:50.514512,-2.750,2.180,0.280,-85.4,-2.750,2.180,0.280,-85.4
2025-09-04T15:58:50.516512,-2.760,2.190,0.280,-85.4,-2.760,2.190,0.280,-85.4
2025-09-04T15:58:50.517512,-2.760,2.190,0.280,-85.4,-2.760,2.190,0.280,-85.4
2025-09-04T15:58:50.518513,-2.760,2.190,0.280,-85.4,-2.760,2.190,0.280,-85.4
2025-09-04T15:58:51.052800,-2.760,2.190,0.280,-85.4,-2.760,2.190,0.280,-85.4
2025-09-04T15:58:51.053834,-2.770,2.200,0.280,-85.4,-2.770,2.200,0.280,-85.4
2025-09-04T15:58:51.055846,-2.770,2.200,0.280,-85.4,-2.770,2.200,0.280,-85.4
2025-09-04T15:58:51.056859,-2.780,2.200,0.280,-85.4,-2.780,2.200,0.280,-85.4
2025-09-04T15:58:51.057833,-2.780,2.210,0.280,-85.4,-2.780,2.210,0.280,-85.4
2025-09-04T15:58:51.595096,-2.780,2.210,0.280,-85.4,-2.780,2.210,0.280,-85.4
2025-09-04T15:58:51.597088,-2.780,2.210,0.280,-85.4,-2.780,2.210,0.280,-85.4
2025-09-04T15:58:51.598088,-2.780,2.210,0.280,-85.4,-2.780,2.210,0.280,-85.4
2025-09-04T15:58:51.599088,-2.780,2.210,0.280,-85.4,-2.780,2.210,0.280,-85.4
2025-09-04T15:58:51.600087,-2.770,2.210,0.280,-85.4,-2.770,2.210,0.280,-85.4
2025-09-04T15:58:52.141899,-2.760,2.210,0.280,-85.4,-2.760,2.210,0.280,-85.4
2025-09-04T15:58:52.143910,-2.760,2.210,0.280,-85.4,-2.760,2.210,0.280,-85.4
2025-09-04T15:58:52.145901,-2.760,2.210,0.280,-85.4,-2.760,2.210,0.280,-85.4
2025-09-04T15:58:52.146900,-2.760,2.210,0.280,-85.4,-2.760,2.210,0.280,-85.4
2025-09-04T15:58:52.696606,-2.760,2.210,0.280,-85.4,-2.760,2.210,0.280,-85.4
2025-09-04T15:58:52.697606,-2.760,2.210,0.270,-85.4,-2.760,2.210,0.270,-85.4
2025-09-04T15:58:52.699608,-2.750,2.210,0.270,-85.4,-2.750,2.210,0.270,-85.4
2025-09-04T15:58:52.701612,-2.750,2.210,0.280,-85.4,-2.750,2.210,0.280,-85.4
2025-09-04T15:58:52.702607,-2.750,2.210,0.280,-85.4,-2.750,2.210,0.280,-85.4
2025-09-04T15:58:53.250951,-2.750,2.210,0.280,-85.4,-2.750,2.210,0.280,-85.4
2025-09-04T15:58:53.252941,-2.750,2.200,0.280,-85.4,-2.750,2.200,0.280,-85.4
2025-09-04T15:58:53.254941,-2.740,2.200,0.280,-85.4,-2.740,2.200,0.280,-85.4
2025-09-04T15:58:53.255942,-2.740,2.200,0.280,-85.4,-2.740,2.200,0.280,-85.4
2025-09-04T15:58:53.256941,-2.750,2.200,0.280,-85.4,-2.750,2.200,0.280,-85.4
2025-09-04T15:58:53.795799,-2.750,2.200,0.280,-85.4,-2.750,2.200,0.280,-85.4
2025-09-04T15:58:53.796799,-2.750,2.200,0.280,-85.4,-2.750,2.200,0.280,-85.4
2025-09-04T15:58:53.797798,-2.750,2.190,0.280,-85.4,-2.750,2.190,0.280,-85.4
2025-09-04T15:58:53.798797,-2.750,2.190,0.280,-85.4,-2.750,2.190,0.280,-85.4
2025-09-04T15:58:53.799797,-2.750,2.190,0.280,-85.4,-2.750,2.190,0.280,-85.4
2025-09-04T15:58:54.344503,-2.750,2.200,0.280,-85.4,-2.750,2.200,0.280,-85.4
2025-09-04T15:58:54.346503,-2.750,2.200,0.280,-85.4,-2.750,2.200,0.280,-85.4
2025-09-04T15:58:54.347502,-2.750,2.200,0.280,-85.4,-2.750,2.200,0.280,-85.4
2025-09-04T15:58:54.348503,-2.750,2.200,0.280,-85.4,-2.750,2.200,0.280,-85.4
2025-09-04T15:58:54.350501,-2.750,2.210,0.280,-85.4,-2.750,2.210,0.280,-85.4
2025-09-04T15:58:54.902643,-2.750,2.210,0.280,-85.4,-2.750,2.210,0.280,-85.4
2025-09-04T15:58:54.904643,-2.740,2.210,0.280,-85.4,-2.740,2.210,0.280,-85.4
2025-09-04T15:58:54.905643,-2.740,2.200,0.280,-85.4,-2.740,2.200,0.280,-85.4
2025-09-04T15:58:54.906644,-2.730,2.210,0.280,-85.4,-2.730,2.210,0.280,-85.4
2025-09-04T15:58:54.907644,-2.730,2.200,0.280,-85.4,-2.730,2.200,0.280,-85.4
2025-09-04T15:58:55.459133,-2.730,2.210,0.290,-85.4,-2.730,2.210,0.290,-85.4
2025-09-04T15:58:55.482133,-2.760,2.230,0.280,-85.4,-2.760,2.230,0.280,-85.4
2025-09-04T15:58:55.484133,-2.760,2.230,0.280,-85.4,-2.760,2.230,0.280,-85.4
2025-09-04T15:58:55.818213,-2.760,2.230,0.280,-85.4,-2.760,2.230,0.280,-85.4
2025-09-04T15:58:55.819212,-2.760,2.230,0.280,-85.4,-2.760,2.230,0.280,-85.4
2025-09-04T15:58:55.820211,-2.760,2.230,0.280,-85.4,-2.760,2.230,0.280,-85.4
2025-09-04T15:58:55.821214,-2.760,2.230,0.280,-85.5,-2.760,2.230,0.280,-85.5
2025-09-04T15:58:55.823212,-2.760,2.230,0.280,-85.5,-2.760,2.230,0.280,-85.5
2025-09-04T15:58:56.153235,-2.760,2.230,0.280,-85.5,-2.760,2.230,0.280,-85.5
2025-09-04T15:58:56.154234,-2.760,2.230,0.280,-85.5,-2.760,2.230,0.280,-85.5
2025-09-04T15:58:56.155236,-2.760,2.230,0.280,-85.5,-2.760,2.230,0.280,-85.5
2025-09-04T15:58:56.157235,-2.760,2.230,0.280,-85.5,-2.760,2.230,0.280,-85.5
2025-09-04T15:58:56.158236,-2.760,2.230,0.280,-85.4,-2.760,2.230,0.280,-85.4
2025-09-04T15:58:56.493843,-2.760,2.230,0.280,-85.4,-2.760,2.230,0.280,-85.4
2025-09-04T15:58:56.494835,-2.760,2.230,0.280,-85.4,-2.760,2.230,0.280,-85.4
2025-09-04T15:58:56.496837,-2.760,2.230,0.280,-85.4,-2.760,2.230,0.280,-85.4
2025-09-04T15:58:56.498839,-2.760,2.230,0.280,-85.4,-2.760,2.230,0.280,-85.4
2025-09-04T15:58:56.499839,-2.760,2.230,0.280,-85.4,-2.760,2.230,0.280,-85.4
2025-09-04T15:58:56.831023,-2.760,2.230,0.280,-85.4,-2.760,2.230,0.280,-85.4
2025-09-04T15:58:56.833024,-2.760,2.230,0.280,-85.4,-2.760,2.230,0.280,-85.4
2025-09-04T15:58:56.835026,-2.760,2.230,0.280,-85.4,-2.760,2.230,0.280,-85.4
2025-09-04T15:58:56.836025,-2.760,2.230,0.280,-85.4,-2.760,2.230,0.280,-85.4
2025-09-04T15:58:56.837026,-2.760,2.230,0.280,-85.4,-2.760,2.230,0.280,-85.4
2025-09-04T15:58:57.179106,-2.760,2.230,0.280,-85.4,-2.760,2.230,0.280,-85.4
2025-09-04T15:58:57.183105,-2.760,2.230,0.280,-85.4,-2.760,2.230,0.280,-85.4
2025-09-04T15:58:57.184107,-2.760,2.230,95.000,1722.2,-2.760,2.230,95.000,1722.2
2025-09-04T15:58:57.225102,-2.760,2.230,0.280,-85.5,0.200,-0.300,180.360,1000.0
2025-09-04T15:58:57.439371,-2.760,2.230,0.280,-85.4,0.200,-0.300,180.360,1000.0
2025-09-04T15:58:57.441422,-2.760,2.230,0.280,-85.4,0.200,-0.300,180.360,1000.0
2025-09-04T15:58:57.442370,-2.760,2.230,0.280,-85.4,0.200,-0.300,180.360,1000.0
2025-09-04T15:58:57.443372,-2.760,2.230,0.280,-85.4,0.200,-0.300,180.360,1000.0
2025-09-04T15:58:57.445371,-2.760,2.230,0.280,-85.4,0.200,-0.300,180.360,1000.0
2025-09-04T15:58:57.670763,-2.760,2.230,0.280,-85.4,0.200,-0.300,180.360,1000.0
2025-09-04T15:58:57.671763,-2.760,2.230,0.280,-85.4,0.200,-0.300,180.360,1000.0
2025-09-04T15:58:57.672764,-2.760,2.230,0.280,-85.4,0.200,-0.300,180.360,1000.0
2025-09-04T15:58:57.674762,-2.770,2.230,0.280,-85.4,0.200,-0.300,180.360,1000.0
2025-09-04T15:58:57.675763,-2.770,2.230,0.280,-85.4,0.200,-0.300,180.360,1000.0
2025-09-04T15:58:57.887403,-2.780,2.230,0.280,-85.4,0.200,-0.300,180.360,1000.0
2025-09-04T15:58:57.888402,-2.780,2.230,0.280,-85.4,0.200,-0.300,180.360,1000.0
2025-09-04T15:58:57.889401,-2.780,2.230,0.280,-85.4,0.200,-0.300,180.360,1000.0
2025-09-04T15:58:57.891402,-2.780,2.230,0.280,-85.4,0.200,-0.300,180.360,1000.0
2025-09-04T15:58:57.892403,-2.780,2.230,0.280,-85.4,0.200,-0.300,180.360,1000.0
2025-09-04T15:58:58.103457,-2.780,2.230,0.280,-85.4,0.200,-0.300,180.360,1000.0
2025-09-04T15:58:58.104456,-2.780,2.230,0.280,-85.4,0.200,-0.300,180.360,1000.0
2025-09-04T15:58:58.105457,-2.780,2.230,0.280,-85.4,0.200,-0.300,180.360,1000.0
2025-09-04T15:58:58.107456,-2.780,2.230,0.280,-85.4,0.200,-0.300,180.360,1000.0
2025-09-04T15:58:58.108456,-2.780,2.230,0.280,-85.4,0.200,-0.300,180.360,1000.0
2025-09-04T15:58:58.335127,-2.780,2.230,0.280,-85.4,0.200,-0.300,180.360,1000.0
2025-09-04T15:58:58.336135,-2.780,2.230,0.280,-85.4,0.200,-0.300,180.360,1000.0
2025-09-04T15:58:58.369131,-2.760,2.230,0.250,-85.4,-2.760,2.230,0.250,-85.4
2025-09-04T15:58:58.371132,-2.760,2.230,0.250,-85.4,-2.760,2.230,0.250,-85.4
2025-09-04T15:58:58.372132,-2.760,2.230,0.250,-85.4,-2.760,2.230,0.250,-85.4
2025-09-04T15:58:58.373132,-2.760,2.230,0.250,-85.4,-2.760,2.230,0.250,-85.4
2025-09-04T15:58:59.362172,-2.760,2.230,0.250,-85.4,-2.760,2.230,0.250,-85.4
2025-09-04T15:58:59.363178,-2.760,2.230,0.250,-85.5,-2.760,2.230,0.250,-85.5
2025-09-04T15:58:59.365177,-2.760,2.230,0.250,-85.5,-2.760,2.230,0.250,-85.5
2025-09-04T15:58:59.366178,-2.760,2.230,0.250,-85.5,-2.760,2.230,0.250,-85.5
2025-09-04T15:58:59.368182,-2.760,2.230,0.250,-85.5,-2.760,2.230,0.250,-85.5
2025-09-04T15:59:00.359940,-2.760,2.230,0.250,-85.5,-2.760,2.230,0.250,-85.5
2025-09-04T15:59:00.360940,-2.760,2.230,0.250,-85.5,-2.760,2.230,0.250,-85.5
2025-09-04T15:59:00.361937,-2.760,2.230,0.250,-85.5,-2.760,2.230,0.250,-85.5
2025-09-04T15:59:00.362939,-2.760,2.230,0.250,-85.5,-2.760,2.230,0.250,-85.5
2025-09-04T15:59:00.364942,-2.760,2.230,0.250,-85.5,-2.760,2.230,0.250,-85.5
2025-09-04T15:59:01.343237,-2.760,2.230,0.250,-85.5,-2.760,2.230,0.250,-85.5
2025-09-04T15:59:01.344237,-2.760,2.230,0.250,-85.5,-2.760,2.230,0.250,-85.5
2025-09-04T15:59:01.345238,-2.760,2.230,0.250,-85.5,-2.760,2.230,0.250,-85.5
2025-09-04T15:59:01.346237,-2.760,2.230,0.250,-85.5,-2.760,2.230,0.250,-85.5
2025-09-04T15:59:01.348239,-2.760,2.230,0.250,-85.5,-2.760,2.230,0.250,-85.5
2025-09-04T15:59:02.349940,-2.760,2.230,0.250,-85.5,-2.760,2.230,0.250,-85.5
2025-09-04T15:59:02.351937,-2.760,2.230,0.250,-85.5,-2.760,2.230,0.250,-85.5
2025-09-04T15:59:02.352937,-2.760,2.230,0.250,-85.5,-2.760,2.230,0.250,-85.5
2025-09-04T15:59:02.376938,-2.780,2.210,0.250,-85.4,-2.780,2.210,0.250,-85.4
2025-09-04T15:59:03.144663,-2.780,2.210,0.250,-85.4,-2.780,2.210,0.250,-85.4
2025-09-04T15:59:03.146660,-2.780,2.220,0.250,-85.4,-2.780,2.220,0.250,-85.4
2025-09-04T15:59:03.147661,-2.780,2.220,0.250,-85.4,-2.780,2.220,0.250,-85.4
2025-09-04T15:59:03.148663,-2.780,2.220,0.250,-85.4,-2.780,2.220,0.250,-85.4
2025-09-04T15:59:03.150662,-2.780,2.220,0.250,-85.4,-2.780,2.220,0.250,-85.4
2025-09-04T15:59:03.916198,-2.770,2.220,0.250,-85.4,-2.770,2.220,0.250,-85.4
2025-09-04T15:59:03.917199,-2.770,2.220,0.250,-85.4,-2.770,2.220,0.250,-85.4
2025-09-04T15:59:03.919197,-2.770,2.220,0.250,-85.5,-2.770,2.220,0.250,-85.5
2025-09-04T15:59:03.921206,-2.770,2.220,0.250,-85.5,-2.770,2.220,0.250,-85.5
2025-09-04T15:59:03.922197,-2.770,2.220,0.250,-85.5,-2.770,2.220,0.250,-85.5
2025-09-04T15:59:04.694221,-2.770,2.220,0.250,-85.5,-2.770,2.220,0.250,-85.5
2025-09-04T15:59:04.696221,-2.770,2.220,0.250,-85.5,-2.770,2.220,0.250,-85.5
2025-09-04T15:59:04.697220,-2.770,2.220,0.250,-85.5,-2.770,2.220,0.250,-85.5
2025-09-04T15:59:04.698222,-2.770,2.220,0.250,-85.5,-2.770,2.220,0.250,-85.5
2025-09-04T15:59:04.699222,-2.770,2.220,0.250,-85.5,-2.770,2.220,0.250,-85.5
2025-09-04T15:59:05.474067,-2.770,2.220,0.250,-85.5,-2.770,2.220,0.250,-85.5
2025-09-04T15:59:05.476055,-2.770,2.220,0.250,-85.5,-2.770,2.220,0.250,-85.5
2025-09-04T15:59:05.478055,-2.770,2.220,0.250,-85.5,-2.770,2.220,0.250,-85.5
2025-09-04T15:59:05.479056,-2.770,2.220,0.250,-85.5,-2.770,2.220,0.250,-85.5
2025-09-04T15:59:05.480055,-2.770,2.220,0.250,-85.5,-2.770,2.220,0.250,-85.5
2025-09-04T15:59:06.249344,-2.770,2.220,0.250,-85.5,-2.770,2.220,0.250,-85.5
2025-09-04T15:59:06.251345,-2.770,2.220,0.250,-85.5,-2.770,2.220,0.250,-85.5
2025-09-04T15:59:06.253344,-2.760,2.220,0.250,-85.5,-2.760,2.220,0.250,-85.5
2025-09-04T15:59:06.275352,-2.760,2.230,0.250,-85.5,-2.760,2.230,0.250,-85.5
2025-09-04T15:59:06.276343,-2.760,2.230,0.250,-85.5,-2.760,2.230,0.250,-85.5
2025-09-04T15:59:06.277342,-2.760,2.230,0.250,-85.5,-2.760,2.230,0.250,-85.5
2025-09-04T15:59:06.278343,-2.760,2.230,0.250,-85.5,-2.760,2.230,0.250,-85.5
2025-09-04T15:59:06.821442,-2.760,2.230,0.250,-85.5,-2.760,2.230,0.250,-85.5
2025-09-04T15:59:06.823440,-2.760,2.230,0.250,-85.5,-2.760,2.230,0.250,-85.5
2025-09-04T15:59:06.824441,-2.760,2.220,0.250,-85.5,-2.760,2.220,0.250,-85.5
2025-09-04T15:59:06.825442,-2.760,2.220,0.250,-85.5,-2.760,2.220,0.250,-85.5
2025-09-04T15:59:06.827442,-2.760,2.210,0.250,-85.5,-2.760,2.210,0.250,-85.5
2025-09-04T15:59:07.377072,-2.760,2.210,0.250,-85.5,-2.760,2.210,0.250,-85.5
2025-09-04T15:59:07.380073,-2.760,2.210,0.250,-85.5,-2.760,2.210,0.250,-85.5
2025-09-04T15:59:07.382075,-2.760,2.210,0.250,-85.5,-2.760,2.210,0.250,-85.5
2025-09-04T15:59:07.383072,-2.760,2.210,0.250,-85.5,-2.760,2.210,0.250,-85.5
2025-09-04T15:59:07.384073,-2.760,2.210,0.250,-85.5,-2.760,2.210,0.250,-85.5
2025-09-04T15:59:07.930126,-2.760,2.210,0.250,-85.5,-2.760,2.210,0.250,-85.5
2025-09-04T15:59:07.932126,-2.760,2.200,0.250,-85.5,-2.760,2.200,0.250,-85.5
2025-09-04T15:59:07.933126,-2.760,2.200,0.250,-85.5,-2.760,2.200,0.250,-85.5
2025-09-04T15:59:07.934126,-2.760,2.200,0.250,-85.5,-2.760,2.200,0.250,-85.5
2025-09-04T15:59:07.936128,-2.760,2.200,0.250,-85.5,-2.760,2.200,0.250,-85.5
2025-09-04T15:59:08.473527,-2.760,2.210,0.250,-85.5,-2.760,2.210,0.250,-85.5
2025-09-04T15:59:08.476526,-2.760,2.210,0.250,-85.5,-2.760,2.210,0.250,-85.5
2025-09-04T15:59:08.478570,-2.760,2.210,0.250,-85.5,-2.760,2.210,0.250,-85.5
2025-09-04T15:59:08.479526,-2.760,2.210,0.250,-85.5,-2.760,2.210,0.250,-85.5
2025-09-04T15:59:08.480527,-2.760,2.210,0.250,-85.5,-2.760,2.210,0.250,-85.5
2025-09-04T15:59:09.029307,-2.760,2.210,0.250,-85.5,-2.760,2.210,0.250,-85.5
2025-09-04T15:59:09.031310,-2.760,2.210,0.250,-85.5,-2.760,2.210,0.250,-85.5
2025-09-04T15:59:09.032310,-2.760,2.210,0.250,-85.5,-2.760,2.210,0.250,-85.5
2025-09-04T15:59:09.033309,-2.760,2.210,0.250,-85.5,-2.760,2.210,0.250,-85.5
2025-09-04T15:59:09.034309,-2.760,2.210,0.250,-85.5,-2.760,2.210,0.250,-85.5
2025-09-04T15:59:09.589948,-2.760,2.210,0.250,-85.5,-2.760,2.210,0.250,-85.5
2025-09-04T15:59:09.590949,-2.760,2.210,0.250,-85.5,-2.760,2.210,0.250,-85.5
2025-09-04T15:59:09.591948,-2.760,2.210,0.250,-85.5,-2.760,2.210,0.250,-85.5
2025-09-04T15:59:09.592949,-2.760,2.210,0.250,-85.5,-2.760,2.210,0.250,-85.5
2025-09-04T15:59:09.594950,-2.760,2.220,0.250,-85.5,-2.760,2.220,0.250,-85.5
2025-09-04T15:59:10.147581,-2.760,2.220,0.250,-85.5,-2.760,2.220,0.250,-85.5
2025-09-04T15:59:10.149583,-2.760,2.220,0.250,-85.5,-2.760,2.220,0.250,-85.5
2025-09-04T15:59:10.150583,-2.760,2.220,0.250,-85.5,-2.760,2.220,0.250,-85.5
2025-09-04T15:59:10.151583,-2.760,2.220,0.250,-85.5,-2.760,2.220,0.250,-85.5
2025-09-04T15:59:10.152582,-2.760,2.220,0.250,-85.5,-2.760,2.220,0.250,-85.5
2025-09-04T15:59:10.689462,-2.760,2.220,0.250,-85.5,-2.760,2.220,0.250,-85.5
2025-09-04T15:59:10.691506,-2.760,2.220,0.250,-85.5,-2.760,2.220,0.250,-85.5
2025-09-04T15:59:10.692461,-2.760,2.220,0.250,-85.5,-2.760,2.220,0.250,-85.5
2025-09-04T15:59:10.693463,-2.760,2.220,0.250,-85.5,-2.760,2.220,0.250,-85.5
2025-09-04T15:59:10.694460,-2.760,2.220,0.250,-85.5,-2.760,2.220,0.250,-85.5
2025-09-04T15:59:11.245845,-2.760,2.220,0.250,-85.5,-2.760,2.220,0.250,-85.5
2025-09-04T15:59:11.246844,-2.760,2.220,0.250,-85.6,-2.760,2.220,0.250,-85.6
2025-09-04T15:59:11.248844,-2.760,2.220,0.250,-85.6,-2.760,2.220,0.250,-85.6
2025-09-04T15:59:11.249851,-2.760,2.220,0.250,-85.6,-2.760,2.220,0.250,-85.6
2025-09-04T15:59:11.250845,-2.760,2.220,0.250,-85.6,-2.760,2.220,0.250,-85.6
2025-09-04T15:59:11.789747,-2.760,2.220,0.250,-85.6,-2.760,2.220,0.250,-85.6
2025-09-04T15:59:11.790746,-2.760,2.220,0.250,-85.6,-2.760,2.220,0.250,-85.6
2025-09-04T15:59:11.792747,-2.760,2.220,0.250,-85.6,-2.760,2.220,0.250,-85.6
2025-09-04T15:59:11.794747,-2.760,2.220,0.250,-85.5,-2.760,2.220,0.250,-85.5
2025-09-04T15:59:11.795746,-2.760,2.220,0.250,-85.5,-2.760,2.220,0.250,-85.5
2025-09-04T15:59:12.348717,-2.760,2.220,0.250,-85.5,-2.760,2.220,0.250,-85.5
2025-09-04T15:59:12.350721,-2.760,2.220,0.250,-85.5,-2.760,2.220,0.250,-85.5
2025-09-04T15:59:12.352722,-2.760,2.230,0.250,-85.5,-2.760,2.230,0.250,-85.5
2025-09-04T15:59:12.353722,-2.760,2.230,0.250,-85.5,-2.760,2.230,0.250,-85.5
2025-09-04T15:59:12.354721,-2.760,2.230,0.250,-85.5,-2.760,2.230,0.250,-85.5
2025-09-04T15:59:12.902078,-2.760,2.230,0.250,-85.5,-2.760,2.230,0.250,-85.5
2025-09-04T15:59:12.903077,-2.760,2.230,0.250,-85.5,-2.760,2.230,0.250,-85.5
2025-09-04T15:59:12.905085,-2.760,2.230,0.250,-85.5,-2.760,2.230,0.250,-85.5
2025-09-04T15:59:12.906079,-2.760,2.230,0.250,-85.6,-2.760,2.230,0.250,-85.6
2025-09-04T15:59:12.908706,-2.760,2.230,0.250,-85.6,-2.760,2.230,0.250,-85.6
2025-09-04T15:59:13.451202,-2.760,2.230,0.250,-85.6,-2.760,2.230,0.250,-85.6
2025-09-04T15:59:13.452201,-2.760,2.230,0.250,-85.6,-2.760,2.230,0.250,-85.6
2025-09-04T15:59:13.453202,-2.760,2.230,0.250,-85.6,-2.760,2.230,0.250,-85.6
2025-09-04T15:59:13.455204,-2.760,2.230,0.250,-85.6,-2.760,2.230,0.250,-85.6
2025-09-04T15:59:13.456202,-2.760,2.230,0.250,-85.5,-2.760,2.230,0.250,-85.5
2025-09-04T15:59:14.007116,-2.760,2.230,0.250,-85.5,-2.760,2.230,0.250,-85.5
2025-09-04T15:59:14.009121,-2.760,2.230,0.250,-85.5,-2.760,2.230,0.250,-85.5
2025-09-04T15:59:14.011156,-2.760,2.230,0.250,-85.5,-2.760,2.230,0.250,-85.5
2025-09-04T15:59:14.012150,-2.760,2.230,0.250,-85.5,-2.760,2.230,0.250,-85.5
2025-09-04T15:59:14.013122,-2.760,2.230,0.250,-85.5,-2.760,2.230,0.250,-85.5
2025-09-04T15:59:14.566160,-2.760,2.230,0.250,-85.5,-2.760,2.230,0.250,-85.5
2025-09-04T15:59:14.567159,-2.760,2.230,0.250,-85.5,-2.760,2.230,0.250,-85.5
2025-09-04T15:59:14.569160,-2.760,2.230,0.250,-85.5,-2.760,2.230,0.250,-85.5
2025-09-04T15:59:14.570160,-2.760,2.230,0.250,-85.5,-2.760,2.230,0.250,-85.5
2025-09-04T15:59:14.571159,-2.760,2.230,0.250,-85.5,-2.760,2.230,0.250,-85.5
2025-09-04T15:59:15.124581,-2.760,2.230,0.250,-85.5,-2.760,2.230,0.250,-85.5
2025-09-04T15:59:15.126815,-2.760,2.230,0.250,-85.5,-2.760,2.230,0.250,-85.5
2025-09-04T15:59:15.127580,-2.760,2.230,0.250,-85.5,-2.760,2.230,0.250,-85.5
2025-09-04T15:59:15.128580,-2.760,2.230,0.250,-85.5,-2.760,2.230,0.250,-85.5
2025-09-04T15:59:15.130579,-2.760,2.230,0.250,-85.5,-2.760,2.230,0.250,-85.5
2025-09-04T15:59:15.131580,-2.760,2.230,0.250,-85.5,-2.760,2.230,0.250,-85.5
2025-09-04T15:59:15.132591,-2.760,2.230,0.250,-85.5,-2.760,2.230,0.250,-85.5
2025-09-04T15:59:15.133580,-2.760,2.230,0.250,-85.5,-2.760,2.230,0.250,-85.5
2025-09-04T15:59:15.134579,-2.760,2.230,0.250,-85.5,-2.760,2.230,0.250,-85.5
2025-09-04T15:59:15.682364,-2.760,2.230,0.250,-85.5,-2.760,2.230,0.250,-85.5
2025-09-04T15:59:15.684366,-2.760,2.230,0.250,-85.5,-2.760,2.230,0.250,-85.5
2025-09-04T15:59:15.686366,-2.760,2.230,0.250,-85.5,-2.760,2.230,0.250,-85.5
2025-09-04T15:59:15.688365,-2.760,2.230,0.250,-85.5,-2.760,2.230,0.250,-85.5
2025-09-04T15:59:15.689364,-2.760,2.230,0.250,-85.5,-2.760,2.230,0.250,-85.5
2025-09-04T15:59:16.237651,-2.760,2.230,0.250,-85.5,-2.760,2.230,0.250,-85.5
2025-09-04T15:59:16.238651,-2.760,2.230,0.250,-85.5,-2.760,2.230,0.250,-85.5
2025-09-04T15:59:16.239653,-2.760,2.230,0.250,-85.5,-2.760,2.230,0.250,-85.5
2025-09-04T15:59:16.241655,-2.760,2.230,0.250,-85.5,-2.760,2.230,0.250,-85.5
2025-09-04T15:59:16.242652,-2.760,2.230,0.250,-85.5,-2.760,2.230,0.250,-85.5
2025-09-04T15:59:16.796960,-2.760,2.230,0.250,-85.5,-2.760,2.230,0.250,-85.5
2025-09-04T15:59:16.798956,-2.760,2.230,0.250,-85.5,-2.760,2.230,0.250,-85.5
2025-09-04T15:59:16.799957,-2.760,2.230,0.250,-85.5,-2.760,2.230,0.250,-85.5
2025-09-04T15:59:16.800957,-2.760,2.230,0.250,-85.5,-2.760,2.230,0.250,-85.5
2025-09-04T15:59:16.801957,-2.760,2.230,0.250,-85.5,-2.760,2.230,0.250,-85.5
2025-09-04T15:59:17.350532,-2.760,2.230,0.250,-85.5,-2.760,2.230,0.250,-85.5
2025-09-04T15:59:17.351521,-2.760,2.230,0.250,-85.5,-2.760,2.230,0.250,-85.5
2025-09-04T15:59:17.352530,-2.760,2.230,0.250,-85.5,-2.760,2.230,0.250,-85.5
2025-09-04T15:59:17.354521,-2.760,2.230,0.250,-85.5,-2.760,2.230,0.250,-85.5
2025-09-04T15:59:17.355521,-2.760,2.230,0.250,-85.5,-2.760,2.230,0.250,-85.5
2025-09-04T15:59:17.893897,-2.760,2.230,0.250,-85.5,-2.760,2.230,0.250,-85.5
2025-09-04T15:59:17.895895,-2.760,2.230,0.250,-85.5,-2.760,2.230,0.250,-85.5
2025-09-04T15:59:17.896895,-2.760,2.230,0.250,-85.5,-2.760,2.230,0.250,-85.5
2025-09-04T15:59:17.897895,-2.760,2.230,0.250,-85.5,-2.760,2.230,0.250,-85.5
2025-09-04T15:59:17.898895,-2.760,2.230,0.250,-85.5,-2.760,2.230,0.250,-85.5
2025-09-04T15:59:18.454058,-2.760,2.230,0.250,-85.5,-2.760,2.230,0.250,-85.5
2025-09-04T15:59:18.455058,-2.760,2.220,0.250,-85.5,-2.760,2.220,0.250,-85.5
2025-09-04T15:59:18.456057,-2.760,2.220,0.250,-85.5,-2.760,2.220,0.250,-85.5
2025-09-04T15:59:18.458062,-2.760,2.210,0.250,-85.5,-2.760,2.210,0.250,-85.5
2025-09-04T15:59:18.459062,-2.760,2.210,0.250,-85.5,-2.760,2.210,0.250,-85.5
2025-09-04T15:59:19.013115,-2.760,2.210,0.250,-85.5,-2.760,2.210,0.250,-85.5
2025-09-04T15:59:19.015116,-2.760,2.210,0.250,-85.5,-2.760,2.210,0.250,-85.5
2025-09-04T15:59:19.017115,-2.760,2.210,0.250,-85.5,-2.760,2.210,0.250,-85.5
2025-09-04T15:59:19.019115,-2.760,2.210,0.250,-85.5,-2.760,2.210,0.250,-85.5
2025-09-04T15:59:19.020113,-2.770,2.200,0.250,-85.5,-2.770,2.200,0.250,-85.5
2025-09-04T15:59:19.568321,-2.770,2.200,0.250,-85.5,-2.770,2.200,0.250,-85.5
2025-09-04T15:59:19.569326,-2.770,2.200,0.250,-85.5,-2.770,2.200,0.250,-85.5
2025-09-04T15:59:19.615324,-2.760,2.230,0.240,-85.5,-2.760,2.230,0.240,-85.5
2025-09-04T15:59:20.150864,-2.760,2.230,0.240,-85.5,-2.760,2.230,0.240,-85.5
2025-09-04T15:59:20.153861,-2.760,2.230,0.240,-85.5,-2.760,2.230,0.240,-85.5
2025-09-04T15:59:20.154864,-2.760,2.230,0.240,-85.5,-2.760,2.230,0.240,-85.5
2025-09-04T15:59:20.156862,-2.760,2.230,0.240,-85.5,-2.760,2.230,0.240,-85.5
2025-09-04T15:59:20.157861,-2.760,2.230,0.240,-85.5,-2.760,2.230,0.240,-85.5
2025-09-04T15:59:20.708382,-2.760,2.230,0.240,-85.5,-2.760,2.230,0.240,-85.5
2025-09-04T15:59:20.709381,-2.760,2.230,0.240,-85.5,-2.760,2.230,0.240,-85.5
2025-09-04T15:59:20.711385,-2.760,2.230,0.240,-85.5,-2.760,2.230,0.240,-85.5
2025-09-04T15:59:20.713385,-2.760,2.230,0.240,-85.5,-2.760,2.230,0.240,-85.5
2025-09-04T15:59:20.714381,-2.760,2.230,0.240,-85.5,-2.760,2.230,0.240,-85.5
2025-09-04T15:59:21.266068,-2.760,2.230,0.240,-85.6,-2.760,2.230,0.240,-85.6
2025-09-04T15:59:21.267082,-2.760,2.230,0.240,-85.6,-2.760,2.230,0.240,-85.6
2025-09-04T15:59:21.268072,-2.760,2.230,0.240,-85.6,-2.760,2.230,0.240,-85.6
2025-09-04T15:59:21.270072,-2.760,2.230,0.240,-85.6,-2.760,2.230,0.240,-85.6
2025-09-04T15:59:21.271073,-2.760,2.230,0.240,-85.6,-2.760,2.230,0.240,-85.6
2025-09-04T15:59:21.811491,-2.760,2.230,0.240,-85.6,-2.760,2.230,0.240,-85.6
2025-09-04T15:59:21.812492,-2.760,2.230,0.240,-85.6,-2.760,2.230,0.240,-85.6
2025-09-04T15:59:21.814503,-2.760,2.230,0.240,-85.6,-2.760,2.230,0.240,-85.6
2025-09-04T15:59:21.815490,-2.760,2.230,0.240,-85.6,-2.760,2.230,0.240,-85.6
2025-09-04T15:59:21.816500,-2.760,2.230,0.240,-85.6,-2.760,2.230,0.240,-85.6
2025-09-04T15:59:22.371448,-2.760,2.230,0.240,-85.6,-2.760,2.230,0.240,-85.6
2025-09-04T15:59:22.373082,-2.760,2.230,0.240,-85.6,-2.760,2.230,0.240,-85.6
2025-09-04T15:59:22.375085,-2.760,2.230,0.240,-85.6,-2.760,2.230,0.240,-85.6
2025-09-04T15:59:22.399082,-2.770,2.210,0.210,-85.5,-2.770,2.210,0.210,-85.5
2025-09-04T15:59:22.401081,-2.770,2.210,0.210,-85.5,-2.770,2.210,0.210,-85.5
2025-09-04T15:59:22.728352,-2.770,2.210,0.210,-85.5,-2.770,2.210,0.210,-85.5
2025-09-04T15:59:22.731354,-2.770,2.210,0.210,-85.5,-2.770,2.210,0.210,-85.5
2025-09-04T15:59:22.733351,-2.770,2.210,0.210,-85.5,-2.770,2.210,0.210,-85.5
2025-09-04T15:59:22.735350,-2.770,2.210,0.210,-85.5,-2.770,2.210,0.210,-85.5
2025-09-04T15:59:22.736350,-2.760,2.210,0.210,-85.5,-2.760,2.210,0.210,-85.5
2025-09-04T15:59:22.737351,-2.760,2.210,0.210,-85.5,-2.760,2.210,0.210,-85.5
2025-09-04T15:59:22.739359,-2.760,2.210,0.210,-85.5,-2.760,2.210,0.210,-85.5
2025-09-04T15:59:22.741352,-2.760,2.210,0.210,-85.5,-2.760,2.210,0.210,-85.5
2025-09-04T15:59:23.069152,-2.760,2.210,0.210,-85.5,-2.760,2.210,0.210,-85.5
2025-09-04T15:59:23.070151,-2.760,2.210,0.210,-85.5,-2.760,2.210,0.210,-85.5
2025-09-04T15:59:23.071151,-2.760,2.210,0.210,-85.5,-2.760,2.210,0.210,-85.5
2025-09-04T15:59:23.072151,-2.760,2.210,0.210,-85.5,-2.760,2.210,0.210,-85.5
2025-09-04T15:59:23.073152,-2.760,2.220,0.210,-85.5,-2.760,2.220,0.210,-85.5
2025-09-04T15:59:23.408283,-2.760,2.220,0.210,-85.5,-2.760,2.220,0.210,-85.5
2025-09-04T15:59:23.410284,-2.760,2.220,0.210,-85.5,-2.760,2.220,0.210,-85.5
2025-09-04T15:59:23.412286,-2.760,2.220,0.210,-85.5,-2.760,2.220,0.210,-85.5
2025-09-04T15:59:23.413304,-2.760,2.220,0.210,-85.5,-2.760,2.220,0.210,-85.5
2025-09-04T15:59:23.415284,-2.760,2.220,0.210,-85.5,-2.760,2.220,0.210,-85.5
2025-09-04T15:59:23.747619,-2.760,2.220,0.210,-85.5,-2.760,2.220,0.210,-85.5
2025-09-04T15:59:23.749626,-2.760,2.220,0.210,-85.5,-2.760,2.220,0.210,-85.5
2025-09-04T15:59:23.750617,-2.760,2.220,5.330,1722.2,-2.760,2.220,5.330,1722.2
2025-09-04T15:59:23.775619,-2.750,2.230,0.210,-85.6,0.200,-0.300,180.360,1000.0
2025-09-04T15:59:23.777623,-2.750,2.230,0.210,-85.6,0.200,-0.300,180.360,1000.0
2025-09-04T15:59:23.779623,-2.750,2.230,0.210,-85.6,0.200,-0.300,180.360,1000.0
2025-09-04T15:59:23.780621,-2.750,2.230,0.210,-85.6,0.200,-0.300,180.360,1000.0
2025-09-04T15:59:23.886619,-2.750,2.230,0.210,-85.6,0.200,-0.300,180.360,1000.0
2025-09-04T15:59:23.888631,-2.750,2.230,0.210,-85.6,0.200,-0.300,180.360,1000.0
2025-09-04T15:59:23.892618,-2.750,2.230,0.210,-85.6,0.200,-0.300,180.360,1000.0
2025-09-04T15:59:23.893619,-2.750,2.230,0.210,-85.6,0.200,-0.300,180.360,1000.0
2025-09-04T15:59:23.895625,-2.750,2.230,0.210,-85.6,0.200,-0.300,180.360,1000.0
2025-09-04T15:59:24.011405,-2.750,2.230,0.210,-85.6,0.200,-0.300,180.360,1000.0
