Timestamp,Roll_Angle,Pitch_Angle,Yaw_Angle,Altitude,Roll_Setpoint,Pitch_Setpoint,Yaw_Setpoint,Altitude_Setpoint
2025-09-03T18:00:15.735857,-2.480,-57.070,350.590,-57.4,-2.480,-57.070,350.590,-57.4
2025-09-03T18:00:19.531818,-0.620,-2.400,350.580,-57.8,-0.620,-2.400,350.580,-57.8
2025-09-03T18:00:19.563900,-0.580,-2.470,350.590,-57.8,-0.580,-2.470,350.590,-57.8
2025-09-03T18:00:19.564899,-0.610,-2.550,350.590,-57.8,-0.610,-2.550,350.590,-57.8
2025-09-03T18:00:20.324178,-0.600,-2.550,350.590,-57.8,-0.600,-2.550,350.590,-57.8
2025-09-03T18:00:20.326178,-0.640,-2.600,350.580,-57.8,-0.640,-2.600,350.580,-57.8
2025-09-03T18:00:20.327178,-0.660,-2.580,350.570,-57.8,-0.660,-2.580,350.570,-57.8
2025-09-03T18:00:20.339194,-0.680,-2.590,350.570,-57.8,-0.680,-2.590,350.570,-57.8
2025-09-03T18:00:20.341178,-0.720,-2.550,350.550,-57.8,-0.720,-2.550,350.550,-57.8
2025-09-03T18:00:21.106949,-0.750,-2.510,350.550,-57.8,-0.750,-2.510,350.550,-57.8
2025-09-03T18:00:21.107954,-0.800,-2.450,350.550,-57.8,-0.800,-2.450,350.550,-57.8
2025-09-03T18:00:21.108954,-0.830,-2.350,350.550,-57.8,-0.830,-2.350,350.550,-57.8
2025-09-03T18:00:21.110955,-0.820,-2.370,350.550,-57.8,-0.820,-2.370,350.550,-57.8
2025-09-03T18:00:21.111954,-0.800,-2.390,350.560,-57.8,-0.800,-2.390,350.560,-57.8
2025-09-03T18:00:21.864779,-0.760,-2.450,350.570,-57.8,-0.760,-2.450,350.570,-57.8
2025-09-03T18:00:21.866784,-0.760,-2.530,350.550,-57.8,-0.760,-2.530,350.550,-57.8
2025-09-03T18:00:21.867785,-0.700,-2.540,350.570,-57.8,-0.700,-2.540,350.570,-57.8
2025-09-03T18:00:21.868783,-0.740,-2.590,350.560,-57.8,-0.740,-2.590,350.560,-57.8
2025-09-03T18:00:21.871578,-0.760,-2.570,350.570,-57.8,-0.760,-2.570,350.570,-57.8
2025-09-03T18:00:22.647471,-0.810,-2.560,350.550,-57.8,-0.810,-2.560,350.550,-57.8
2025-09-03T18:00:22.649471,-0.850,-2.510,350.560,-57.8,-0.850,-2.510,350.560,-57.8
2025-09-03T18:00:22.650472,-0.870,-2.410,350.560,-57.8,-0.870,-2.410,350.560,-57.8
2025-09-03T18:00:22.652471,-0.900,-2.360,350.570,-57.8,-0.900,-2.360,350.570,-57.8
2025-09-03T18:00:22.653471,-0.860,-2.260,350.570,-57.8,-0.860,-2.260,350.570,-57.8
2025-09-03T18:00:23.422941,-0.810,-2.230,350.570,-57.8,-0.810,-2.230,350.570,-57.8
2025-09-03T18:00:23.424944,-0.790,-2.170,350.550,-57.8,-0.790,-2.170,350.550,-57.8
2025-09-03T18:00:23.425943,-0.720,-2.080,350.560,-57.8,-0.720,-2.080,350.560,-57.8
2025-09-03T18:00:23.426943,-0.750,-2.030,350.540,-57.8,-0.750,-2.030,350.540,-57.8
2025-09-03T18:00:23.428942,-0.790,-1.940,350.540,-57.8,-0.790,-1.940,350.540,-57.8
2025-09-03T18:00:24.183470,-0.800,-1.890,350.540,-57.8,-0.800,-1.890,350.540,-57.8
2025-09-03T18:00:24.185470,-0.840,-1.860,350.530,-57.8,-0.840,-1.860,350.530,-57.8
2025-09-03T18:00:24.187474,-0.870,-1.790,350.530,-57.8,-0.870,-1.790,350.530,-57.8
2025-09-03T18:00:24.189478,-0.860,-1.800,350.520,-57.8,-0.860,-1.800,350.520,-57.8
2025-09-03T18:00:24.190468,-0.860,-1.810,350.520,-57.8,-0.860,-1.810,350.520,-57.8
2025-09-03T18:00:24.959068,-0.810,-1.800,350.520,-57.8,-0.810,-1.800,350.520,-57.8
2025-09-03T18:00:24.960074,-0.770,-1.880,350.520,-57.8,-0.770,-1.880,350.520,-57.8
2025-09-03T18:00:24.961068,-0.750,-1.920,350.490,-57.8,-0.750,-1.920,350.490,-57.8
2025-09-03T18:00:24.963068,-0.720,-1.940,350.490,-57.8,-0.720,-1.940,350.490,-57.8
2025-09-03T18:00:24.964067,-0.740,-1.990,350.470,-57.8,-0.740,-1.990,350.470,-57.8
2025-09-03T18:00:25.719105,-0.770,-1.930,350.480,-57.8,-0.770,-1.930,350.480,-57.8
2025-09-03T18:00:25.720113,-0.760,-1.940,350.460,-57.8,-0.760,-1.940,350.460,-57.8
2025-09-03T18:00:25.722102,-0.760,-1.950,350.470,-57.8,-0.760,-1.950,350.470,-57.8
2025-09-03T18:00:25.723102,-0.720,-1.950,350.460,-57.8,-0.720,-1.950,350.460,-57.8
2025-09-03T18:00:25.725103,-0.670,-2.020,350.460,-57.8,-0.670,-2.020,350.460,-57.8
2025-09-03T18:00:26.493418,-0.610,-2.020,350.460,-57.8,-0.610,-2.020,350.460,-57.8
2025-09-03T18:00:26.494416,-0.560,-2.060,350.460,-57.8,-0.560,-2.060,350.460,-57.8
2025-09-03T18:00:26.496416,-0.570,-2.090,350.440,-57.8,-0.570,-2.090,350.440,-57.8
2025-09-03T18:00:26.497416,-0.530,-2.080,350.450,-57.8,-0.530,-2.080,350.450,-57.8
2025-09-03T18:00:26.499416,-0.560,-2.070,350.440,-57.9,-0.560,-2.070,350.440,-57.9
2025-09-03T18:00:27.267572,-0.550,-2.000,350.440,-57.9,-0.550,-2.000,350.440,-57.9
2025-09-03T18:00:27.268577,-0.550,-2.000,350.450,-57.8,-0.550,-2.000,350.450,-57.8
2025-09-03T18:00:27.270579,-0.470,-2.000,350.430,-57.9,-0.470,-2.000,350.430,-57.9
2025-09-03T18:00:27.271578,-0.430,-2.040,350.450,-57.9,-0.430,-2.040,350.450,-57.9
2025-09-03T18:00:27.273577,-0.400,-2.200,350.450,-57.8,-0.400,-2.200,350.450,-57.8
2025-09-03T18:00:28.038854,-0.350,-2.290,350.470,-57.8,-0.350,-2.290,350.470,-57.8
2025-09-03T18:00:28.040852,-0.320,-2.430,350.460,-57.8,-0.320,-2.430,350.460,-57.8
2025-09-03T18:00:28.041853,-0.330,-2.560,350.460,-57.8,-0.330,-2.560,350.460,-57.8
2025-09-03T18:00:28.043854,-0.330,-2.640,350.470,-57.8,-0.330,-2.640,350.470,-57.8
2025-09-03T18:00:28.044854,-0.350,-2.730,350.450,-57.8,-0.350,-2.730,350.450,-57.8
2025-09-03T18:00:28.805434,-0.320,-2.730,350.450,-57.8,-0.320,-2.730,350.450,-57.8
2025-09-03T18:00:28.806437,-0.330,-2.770,350.450,-57.8,-0.330,-2.770,350.450,-57.8
2025-09-03T18:00:28.807438,-0.280,-2.760,350.460,-57.8,-0.280,-2.760,350.460,-57.8
2025-09-03T18:00:28.809440,-0.290,-2.830,350.450,-57.9,-0.290,-2.830,350.450,-57.9
2025-09-03T18:00:28.810436,-0.290,-2.820,350.470,-57.9,-0.290,-2.820,350.470,-57.9
2025-09-03T18:00:29.564697,-0.310,-2.880,350.450,-57.9,-0.310,-2.880,350.450,-57.9
2025-09-03T18:00:29.565699,-0.300,-2.870,350.480,-57.9,-0.300,-2.870,350.480,-57.9
2025-09-03T18:00:29.567699,-0.300,-2.940,350.470,-57.9,-0.300,-2.940,350.470,-57.9
2025-09-03T18:00:29.569699,-0.270,-2.970,350.490,-57.9,-0.270,-2.970,350.490,-57.9
2025-09-03T18:00:29.571700,-0.210,-2.930,350.500,-57.9,-0.210,-2.930,350.500,-57.9
2025-09-03T18:00:30.336652,-0.190,-2.950,350.500,-57.9,-0.190,-2.950,350.500,-57.9
2025-09-03T18:00:30.338652,-0.130,-2.910,350.500,-57.9,-0.130,-2.910,350.500,-57.9
2025-09-03T18:00:30.339652,-0.120,-2.890,350.510,-57.9,-0.120,-2.890,350.510,-57.9
2025-09-03T18:00:30.341651,-0.110,-2.860,350.510,-57.9,-0.110,-2.860,350.510,-57.9
2025-09-03T18:00:30.342652,-0.100,-2.830,350.510,-57.9,-0.100,-2.830,350.510,-57.9
2025-09-03T18:00:31.112520,-0.120,-2.800,350.500,-57.8,-0.120,-2.800,350.500,-57.8
2025-09-03T18:00:31.113522,-0.090,-2.780,350.520,-57.8,-0.090,-2.780,350.520,-57.8
2025-09-03T18:00:31.114522,-0.110,-2.760,350.500,-57.9,-0.110,-2.760,350.500,-57.9
2025-09-03T18:00:31.116522,-0.110,-2.690,350.510,-57.9,-0.110,-2.690,350.510,-57.9
2025-09-03T18:00:31.117522,-0.120,-2.680,350.500,-57.9,-0.120,-2.680,350.500,-57.9
2025-09-03T18:00:31.875867,-0.140,-2.640,350.520,-57.9,-0.140,-2.640,350.520,-57.9
2025-09-03T18:00:31.877871,-0.130,-2.640,350.510,-57.9,-0.130,-2.640,350.510,-57.9
2025-09-03T18:00:31.879870,-0.120,-2.690,350.530,-57.9,-0.120,-2.690,350.530,-57.9
2025-09-03T18:00:31.880870,-0.050,-2.710,350.530,-57.9,-0.050,-2.710,350.530,-57.9
2025-09-03T18:00:31.882869,0.000,-2.840,350.530,-57.9,0.000,-2.840,350.530,-57.9
2025-09-03T18:00:32.644593,0.090,-2.920,350.530,-57.9,0.090,-2.920,350.530,-57.9
2025-09-03T18:00:32.645587,0.160,-3.020,350.530,-57.9,0.160,-3.020,350.530,-57.9
2025-09-03T18:00:32.647579,0.180,-3.170,350.510,-57.9,0.180,-3.170,350.510,-57.9
2025-09-03T18:00:32.648580,0.190,-3.220,350.520,-57.9,0.190,-3.220,350.520,-57.9
2025-09-03T18:00:32.650579,0.210,-3.270,350.490,-57.9,0.210,-3.270,350.490,-57.9
2025-09-03T18:00:33.410900,0.230,-3.240,350.500,-57.8,0.230,-3.240,350.500,-57.8
2025-09-03T18:00:33.411904,0.270,-3.200,350.470,-57.8,0.270,-3.200,350.470,-57.8
2025-09-03T18:00:33.412904,0.280,-3.190,350.460,-57.8,0.280,-3.190,350.460,-57.8
2025-09-03T18:00:33.414906,0.320,-3.090,350.440,-57.8,0.320,-3.090,350.440,-57.8
2025-09-03T18:00:33.415904,0.330,-3.050,350.430,-57.8,0.330,-3.050,350.430,-57.8
2025-09-03T18:00:34.170729,0.330,-2.960,350.390,1811.0,0.330,-2.960,350.390,1811.0
2025-09-03T18:00:34.220728,0.870,-1.970,349.820,-57.9,0.870,-1.970,349.820,-57.9
2025-09-03T18:00:34.221727,0.880,-1.960,349.790,-57.9,0.880,-1.960,349.790,-57.9
2025-09-03T18:00:34.774441,0.920,-1.960,349.810,-57.9,0.920,-1.960,349.810,-57.9
2025-09-03T18:00:34.777446,0.930,-1.930,349.800,-57.9,0.930,-1.930,349.800,-57.9
2025-09-03T18:00:34.778446,0.980,-1.930,349.810,-57.9,0.980,-1.930,349.810,-57.9
2025-09-03T18:00:34.780447,1.000,-1.960,349.790,-57.9,1.000,-1.960,349.790,-57.9
2025-09-03T18:00:34.781446,1.070,-1.930,349.780,-57.9,1.070,-1.930,349.780,-57.9
2025-09-03T18:00:35.333773,1.100,-1.910,349.760,-57.9,1.100,-1.910,349.760,-57.9
2025-09-03T18:00:35.334773,1.110,-1.830,349.770,-57.9,1.110,-1.830,349.770,-57.9
2025-09-03T18:00:35.336772,1.110,-1.820,349.760,-57.9,1.110,-1.820,349.760,-57.9
2025-09-03T18:00:35.338774,1.130,-1.850,349.760,-57.9,1.130,-1.850,349.760,-57.9
2025-09-03T18:00:35.339774,1.130,-1.800,349.760,-57.9,1.130,-1.800,349.760,-57.9
2025-09-03T18:00:35.890561,1.150,-1.820,349.740,-57.9,1.150,-1.820,349.740,-57.9
2025-09-03T18:00:35.892561,1.140,-1.780,349.740,-57.9,1.140,-1.780,349.740,-57.9
2025-09-03T18:00:35.893563,1.160,-1.810,349.730,-57.9,1.160,-1.810,349.730,-57.9
2025-09-03T18:00:35.894564,1.190,-1.780,349.730,-57.9,1.190,-1.780,349.730,-57.9
2025-09-03T18:00:35.896563,1.220,-1.810,349.730,-57.9,1.220,-1.810,349.730,-57.9
2025-09-03T18:00:36.436260,1.230,-1.790,349.710,-57.9,1.230,-1.790,349.710,-57.9
2025-09-03T18:00:36.438260,1.270,-1.780,349.700,-57.9,1.270,-1.780,349.700,-57.9
2025-09-03T18:00:36.440268,1.250,-1.780,349.700,-57.9,1.250,-1.780,349.700,-57.9
2025-09-03T18:00:36.441258,1.260,-1.720,349.690,-57.9,1.260,-1.720,349.690,-57.9
2025-09-03T18:00:36.442258,1.280,-1.650,349.670,-57.9,1.280,-1.650,349.670,-57.9
2025-09-03T18:00:36.991821,1.340,-1.610,349.680,-57.9,1.340,-1.610,349.680,-57.9
2025-09-03T18:00:36.993820,1.310,-1.580,349.670,-57.9,1.310,-1.580,349.670,-57.9
2025-09-03T18:00:36.994821,1.330,-1.590,349.640,-57.9,1.330,-1.590,349.640,-57.9
2025-09-03T18:00:36.995821,1.350,-1.590,349.650,-57.9,1.350,-1.590,349.650,-57.9
2025-09-03T18:00:36.997821,1.330,-1.620,349.640,-57.9,1.330,-1.620,349.640,-57.9
2025-09-03T18:00:37.536292,1.340,-1.620,349.620,-57.8,1.340,-1.620,349.620,-57.8
2025-09-03T18:00:37.537293,1.380,-1.670,349.610,-57.9,1.380,-1.670,349.610,-57.9
2025-09-03T18:00:37.539294,1.400,-1.600,349.620,-57.9,1.400,-1.600,349.620,-57.9
2025-09-03T18:00:37.540292,1.450,-1.580,349.600,-57.9,1.450,-1.580,349.600,-57.9
2025-09-03T18:00:37.541292,1.490,-1.520,349.600,-57.9,1.490,-1.520,349.600,-57.9
2025-09-03T18:00:38.081864,1.500,-1.540,349.590,-57.9,1.500,-1.540,349.590,-57.9
2025-09-03T18:00:38.084862,1.450,-1.610,349.590,-57.9,1.450,-1.610,349.590,-57.9
2025-09-03T18:00:38.086862,1.470,-1.650,349.570,-57.9,1.470,-1.650,349.570,-57.9
2025-09-03T18:00:38.088863,1.500,-1.700,349.590,-57.9,1.500,-1.700,349.590,-57.9
2025-09-03T18:00:38.089862,1.460,-1.750,349.590,-57.9,1.460,-1.750,349.590,-57.9
2025-09-03T18:00:38.638027,1.470,-1.770,349.600,-57.9,1.470,-1.770,349.600,-57.9
2025-09-03T18:00:38.640026,1.490,-1.820,349.600,-57.9,1.490,-1.820,349.600,-57.9
2025-09-03T18:00:38.641025,1.560,-1.770,349.630,-57.9,1.560,-1.770,349.630,-57.9
2025-09-03T18:00:38.643024,1.580,-1.750,349.620,-57.9,1.580,-1.750,349.620,-57.9
2025-09-03T18:00:38.644025,1.640,-1.700,349.620,-57.9,1.640,-1.700,349.620,-57.9
2025-09-03T18:00:39.196832,1.670,-1.700,349.640,-57.9,1.670,-1.700,349.640,-57.9
2025-09-03T18:00:39.198831,1.620,-1.730,349.640,-57.9,1.620,-1.730,349.640,-57.9
2025-09-03T18:00:39.199832,1.620,-1.780,349.620,-57.9,1.620,-1.780,349.620,-57.9
2025-09-03T18:00:39.201831,1.660,-1.900,349.630,-57.9,1.660,-1.900,349.630,-57.9
2025-09-03T18:00:39.202831,1.630,-1.950,349.630,-57.9,1.630,-1.950,349.630,-57.9
2025-09-03T18:00:39.759023,1.690,-2.030,349.620,-57.9,1.690,-2.030,349.620,-57.9
2025-09-03T18:00:39.761022,1.700,-2.070,349.620,-57.9,1.700,-2.070,349.620,-57.9
2025-09-03T18:00:39.763026,1.700,-2.080,349.620,-57.9,1.700,-2.080,349.620,-57.9
2025-09-03T18:00:39.764024,1.700,-2.100,349.610,-57.8,1.700,-2.100,349.610,-57.8
2025-09-03T18:00:39.765024,1.710,-2.040,349.640,-57.8,1.710,-2.040,349.640,-57.8
2025-09-03T18:00:40.301829,1.720,-2.040,349.620,-57.8,1.720,-2.040,349.620,-57.8
2025-09-03T18:00:40.302826,1.770,-2.000,349.620,-57.8,1.770,-2.000,349.620,-57.8
2025-09-03T18:00:40.303826,1.810,-2.000,349.620,-57.8,1.810,-2.000,349.620,-57.8
2025-09-03T18:00:40.305825,1.810,-1.930,349.610,-57.8,1.810,-1.930,349.610,-57.8
2025-09-03T18:00:40.306828,1.890,-1.920,349.610,-57.8,1.890,-1.920,349.610,-57.8
2025-09-03T18:00:40.335826,2.880,-1.930,349.000,-57.8,2.240,0.000,180.000,1118.0
2025-09-03T18:00:40.336826,2.920,-1.880,348.990,-57.8,2.250,0.000,180.360,1118.0
2025-09-03T18:00:40.337831,4.470,-1.700,349.000,-57.9,4.470,-1.700,349.000,-57.9
2025-09-03T18:00:40.338826,4.470,-1.680,348.980,-57.9,4.470,-1.680,348.980,-57.9
2025-09-03T18:00:40.340827,4.470,-1.610,348.980,-57.9,4.470,-1.610,348.980,-57.9
2025-09-03T18:00:40.341828,4.450,-1.630,348.960,-57.9,4.450,-1.630,348.960,-57.9
2025-09-03T18:00:40.671241,4.480,-1.550,348.960,-57.9,4.480,-1.550,348.960,-57.9
2025-09-03T18:00:40.674247,4.480,-1.560,348.960,-57.9,4.480,-1.560,348.960,-57.9
2025-09-03T18:00:40.676246,4.460,-1.520,348.930,-57.9,4.460,-1.520,348.930,-57.9
2025-09-03T18:00:40.678245,4.460,-1.470,348.910,-57.9,4.460,-1.470,348.910,-57.9
2025-09-03T18:00:40.679245,4.460,-1.450,348.890,-57.9,4.460,-1.450,348.890,-57.9
2025-09-03T18:00:41.011698,4.460,-1.360,348.880,-57.9,4.460,-1.360,348.880,-57.9
2025-09-03T18:00:41.012704,4.460,-1.370,348.880,-57.9,4.460,-1.370,348.880,-57.9
2025-09-03T18:00:41.014704,4.450,-1.410,348.850,-57.9,4.450,-1.410,348.850,-57.9
2025-09-03T18:00:41.015703,4.490,-1.460,348.850,-57.9,4.490,-1.460,348.850,-57.9
2025-09-03T18:00:41.017703,4.460,-1.560,348.820,-57.9,4.460,-1.560,348.820,-57.9
2025-09-03T18:00:41.351073,4.460,-1.580,348.800,-57.9,4.460,-1.580,348.800,-57.9
2025-09-03T18:00:41.352074,4.490,-1.630,348.780,-57.9,4.490,-1.630,348.780,-57.9
2025-09-03T18:00:41.353073,4.530,-1.590,348.780,-57.9,4.530,-1.590,348.780,-57.9
2025-09-03T18:00:41.355075,4.550,-1.600,348.780,-57.9,4.550,-1.600,348.780,-57.9
2025-09-03T18:00:41.356073,4.540,-1.570,348.750,-57.9,4.540,-1.570,348.750,-57.9
2025-09-03T18:00:41.692679,4.550,-1.600,348.740,-57.9,4.550,-1.600,348.740,-57.9
2025-09-03T18:00:41.694689,4.580,-1.630,348.720,-57.9,4.580,-1.630,348.720,-57.9
2025-09-03T18:00:41.695679,4.620,-1.630,348.710,-57.9,4.620,-1.630,348.710,-57.9
2025-09-03T18:00:41.723680,5.870,-1.560,347.880,-58.1,4.460,0.000,180.360,1118.0
2025-09-03T18:00:41.725685,5.870,-1.580,347.880,-58.1,4.450,0.000,180.360,1118.0
2025-09-03T18:00:41.727680,5.840,-1.590,347.880,-58.1,4.440,0.000,180.360,1118.0
2025-09-03T18:00:41.728682,5.850,-1.630,347.880,-58.1,4.430,172.220,189.600,2432.2
2025-09-03T18:00:41.740680,5.920,-1.760,347.900,-58.0,5.920,-1.760,347.900,-58.0
2025-09-03T18:00:41.744680,5.920,-1.790,347.890,-58.0,5.920,-1.790,347.890,-58.0
2025-09-03T18:00:41.745680,5.860,-1.780,347.900,-58.0,5.860,-1.780,347.900,-58.0
2025-09-03T18:00:41.747681,5.830,-1.770,347.900,-58.0,5.830,-1.770,347.900,-58.0
2025-09-03T18:00:41.748680,5.810,-1.760,347.900,-58.0,5.810,-1.760,347.900,-58.0
2025-09-03T18:00:42.189218,5.800,-1.740,347.890,-58.0,5.800,-1.740,347.890,-58.0
2025-09-03T18:00:42.191220,5.760,-1.720,347.890,-58.0,5.760,-1.720,347.890,-58.0
2025-09-03T18:00:42.192221,5.750,-1.680,347.880,-58.0,5.750,-1.680,347.880,-58.0
2025-09-03T18:00:42.194221,5.740,-1.670,347.880,-58.0,5.740,-1.670,347.880,-58.0
2025-09-03T18:00:42.195221,5.770,-1.640,347.880,-58.0,5.770,-1.640,347.880,-58.0
2025-09-03T18:00:42.623792,5.740,-1.650,347.870,-58.0,5.740,-1.650,347.870,-58.0
2025-09-03T18:00:42.625791,5.720,-1.620,347.860,-58.0,5.720,-1.620,347.860,-58.0
2025-09-03T18:00:42.627790,5.680,-1.630,347.850,-58.0,5.680,-1.630,347.850,-58.0
2025-09-03T18:00:42.628792,5.670,-1.630,347.840,-58.0,5.670,-1.630,347.840,-58.0
2025-09-03T18:00:42.630789,5.650,-1.650,347.840,-58.0,5.650,-1.650,347.840,-58.0
2025-09-03T18:00:43.070048,5.650,-1.630,347.830,-58.0,5.650,-1.630,347.830,-58.0
2025-09-03T18:00:43.073048,5.650,-1.590,347.830,-58.0,5.650,-1.590,347.830,-58.0
2025-09-03T18:00:43.075050,5.620,-1.560,347.830,-58.0,5.620,-1.560,347.830,-58.0
2025-09-03T18:00:43.077049,5.580,-1.550,347.820,-58.0,5.580,-1.550,347.820,-58.0
2025-09-03T18:00:43.078047,5.590,-1.490,347.830,-58.1,5.590,-1.490,347.830,-58.1
2025-09-03T18:00:43.520774,5.580,-1.510,347.820,-58.1,5.580,-1.510,347.820,-58.1
2025-09-03T18:00:43.522764,5.570,-1.460,347.810,-58.1,5.570,-1.460,347.810,-58.1
2025-09-03T18:00:43.523766,5.530,-1.460,347.800,-58.1,5.530,-1.460,347.800,-58.1
2025-09-03T18:00:43.525769,5.530,-1.390,347.800,-58.1,5.530,-1.390,347.800,-58.1
2025-09-03T18:00:43.526766,5.480,-1.400,347.790,-58.1,5.480,-1.400,347.790,-58.1
2025-09-03T18:00:43.965894,5.460,-1.370,347.780,-58.1,5.460,-1.370,347.780,-58.1
2025-09-03T18:00:43.967896,5.450,-1.340,347.790,-58.1,5.450,-1.340,347.790,-58.1
2025-09-03T18:00:43.968895,5.430,-1.330,347.800,-58.1,5.430,-1.330,347.800,-58.1
2025-09-03T18:00:43.970896,5.390,-1.350,347.800,-58.1,5.390,-1.350,347.800,-58.1
2025-09-03T18:00:43.974896,5.360,-1.340,347.800,-58.1,5.360,-1.340,347.800,-58.1
2025-09-03T18:00:44.414927,5.320,-1.340,347.810,-58.1,5.320,-1.340,347.810,-58.1
2025-09-03T18:00:44.415925,5.290,-1.330,347.800,-58.1,5.290,-1.330,347.800,-58.1
2025-09-03T18:00:44.417925,5.260,-1.300,347.810,-58.1,5.260,-1.300,347.810,-58.1
2025-09-03T18:00:44.418925,5.220,-1.320,347.810,-58.1,5.220,-1.320,347.810,-58.1
2025-09-03T18:00:44.419924,5.220,-1.330,347.820,-58.1,5.220,-1.330,347.820,-58.1
2025-09-03T18:00:44.848506,5.180,-1.390,347.820,-58.1,5.180,-1.390,347.820,-58.1
2025-09-03T18:00:44.849506,5.150,-1.400,347.850,-58.1,5.150,-1.400,347.850,-58.1
2025-09-03T18:00:44.851507,5.130,-1.360,347.850,-58.1,5.130,-1.360,347.850,-58.1
2025-09-03T18:00:44.852509,5.120,-1.420,347.860,-58.1,5.120,-1.420,347.860,-58.1
2025-09-03T18:00:44.853520,5.130,-1.370,347.870,-58.1,5.130,-1.370,347.870,-58.1
2025-09-03T18:00:45.296485,5.130,-1.380,347.890,-58.1,5.130,-1.380,347.890,-58.1
2025-09-03T18:00:45.297486,5.100,-1.330,347.910,-58.1,5.100,-1.330,347.910,-58.1
2025-09-03T18:00:45.298486,5.100,-1.340,347.900,-58.1,5.100,-1.340,347.900,-58.1
2025-09-03T18:00:45.300486,5.080,-1.310,347.910,-58.1,5.080,-1.310,347.910,-58.1
2025-09-03T18:00:45.301485,5.080,-1.330,347.910,-58.1,5.080,-1.330,347.910,-58.1
2025-09-03T18:00:45.727936,5.030,-1.320,347.930,-58.1,5.030,-1.320,347.930,-58.1
2025-09-03T18:00:45.728968,5.050,-1.300,347.950,-58.1,5.050,-1.300,347.950,-58.1
2025-09-03T18:00:45.730939,5.010,-1.330,347.950,-58.1,5.010,-1.330,347.950,-58.1
2025-09-03T18:00:45.731934,5.000,-1.300,347.970,-58.1,5.000,-1.300,347.970,-58.1
2025-09-03T18:00:45.733934,4.990,-1.340,347.980,-58.1,4.990,-1.340,347.980,-58.1
2025-09-03T18:00:46.162737,5.020,-1.320,347.990,-58.1,5.020,-1.320,347.990,-58.1
2025-09-03T18:00:46.164737,5.010,-1.330,348.010,-58.1,5.010,-1.330,348.010,-58.1
2025-09-03T18:00:46.165739,5.000,-1.310,348.020,-58.1,5.000,-1.310,348.020,-58.1
2025-09-03T18:00:46.166738,5.010,-1.350,348.030,-58.1,5.010,-1.350,348.030,-58.1
2025-09-03T18:00:46.168737,5.000,-1.340,348.020,-58.1,5.000,-1.340,348.020,-58.1
2025-09-03T18:00:46.611533,5.020,-1.370,348.040,-58.1,5.020,-1.370,348.040,-58.1
2025-09-03T18:00:46.613531,4.970,-1.350,348.050,-58.1,4.970,-1.350,348.050,-58.1
2025-09-03T18:00:46.614529,4.970,-1.340,348.070,-58.1,4.970,-1.340,348.070,-58.1
2025-09-03T18:00:46.615532,4.920,-1.330,348.080,-58.1,4.920,-1.330,348.080,-58.1
2025-09-03T18:00:46.616530,4.940,-1.350,348.100,-58.1,4.940,-1.350,348.100,-58.1
2025-09-03T18:00:47.058718,4.900,-1.310,348.130,-58.1,4.900,-1.310,348.130,-58.1
2025-09-03T18:00:47.060721,4.900,-1.320,348.140,-58.1,4.900,-1.320,348.140,-58.1
2025-09-03T18:00:47.062717,4.840,-1.360,348.140,-58.1,4.840,-1.360,348.140,-58.1
2025-09-03T18:00:47.063718,4.830,-1.310,348.160,-58.1,4.830,-1.310,348.160,-58.1
2025-09-03T18:00:47.064717,4.790,-1.330,348.160,-58.1,4.790,-1.330,348.160,-58.1
2025-09-03T18:00:47.505325,4.790,-1.280,348.170,-58.1,4.790,-1.280,348.170,-58.1
2025-09-03T18:00:47.506326,4.770,-1.320,348.170,-58.1,4.770,-1.320,348.170,-58.1
2025-09-03T18:00:47.508326,4.780,-1.280,107.550,1722.2,4.780,-1.280,107.550,1722.2
2025-09-03T18:00:47.521326,3.540,-1.170,348.570,-57.6,3.540,-1.170,348.570,-57.6
2025-09-03T18:00:47.522325,3.510,-1.170,348.590,-57.6,3.510,-1.170,348.590,-57.6
2025-09-03T18:00:47.524325,3.500,-1.140,348.600,-57.6,3.500,-1.140,348.600,-57.6
2025-09-03T18:00:47.525326,3.490,-1.120,348.620,-57.6,3.490,-1.120,348.620,-57.6
2025-09-03T18:00:48.172536,3.460,-1.130,348.620,-57.6,3.460,-1.130,348.620,-57.6
2025-09-03T18:00:48.175535,3.450,-1.050,348.630,-57.6,3.450,-1.050,348.630,-57.6
2025-09-03T18:00:48.177535,3.440,-1.090,348.640,-57.6,3.440,-1.090,348.640,-57.6
2025-09-03T18:00:48.179536,3.420,-1.020,348.660,-57.6,3.420,-1.020,348.660,-57.6
2025-09-03T18:00:48.180534,3.420,-1.020,348.660,-57.6,3.420,-1.020,348.660,-57.6
2025-09-03T18:00:48.181533,-5.940,-56.020,354.840,-57.5,1.670,0.000,180.000,1000.0
2025-09-03T18:00:48.182533,-5.880,-53.730,355.000,-57.5,1.660,0.000,180.000,1000.0
2025-09-03T18:00:48.183533,-5.830,-53.530,355.210,-57.5,1.650,0.000,180.000,1000.0
2025-09-03T18:00:48.184533,-6.090,-55.230,355.860,-57.5,1.640,0.000,180.000,1000.0
2025-09-03T18:00:48.186545,-6.350,-56.300,356.640,-57.5,1.630,0.000,180.000,1000.0
2025-09-03T18:00:48.404873,-6.160,-55.250,356.520,-57.5,1.620,0.000,180.000,1000.0
2025-09-03T18:00:48.406872,-5.830,-55.080,356.090,-57.5,1.610,0.000,180.000,1000.0
2025-09-03T18:00:48.407870,-5.720,-55.740,355.960,-57.5,1.600,0.000,180.000,1000.0
2025-09-03T18:00:48.408873,-5.760,-55.640,356.350,-57.5,1.590,0.000,180.000,1000.0
2025-09-03T18:00:48.410871,-5.610,-55.720,356.190,-57.5,0.000,0.000,180.000,1000.0
2025-09-03T18:00:48.634607,-5.630,-55.620,356.160,-57.5,0.000,0.000,180.000,1000.0
2025-09-03T18:00:48.635608,-5.700,-55.750,356.270,-57.5,0.000,0.000,180.000,1000.0
2025-09-03T18:00:48.636607,-5.650,-55.720,356.230,-57.5,0.000,0.000,180.000,1000.0
2025-09-03T18:00:48.638608,-5.630,-55.700,356.140,-57.5,0.000,0.000,180.000,1000.0
2025-09-03T18:00:48.639608,-5.640,-55.750,356.210,-57.5,0.000,0.000,180.000,1000.0
2025-09-03T18:00:48.864655,-5.640,-55.720,356.220,-57.5,0.000,0.000,180.000,1000.0
2025-09-03T18:00:48.865655,-5.650,-55.760,356.210,-57.5,0.000,0.000,180.000,1000.0
2025-09-03T18:00:48.867656,-5.650,-55.730,356.180,-57.5,0.000,0.000,180.000,1000.0
2025-09-03T18:00:48.868656,-5.640,-55.760,356.210,-57.5,0.000,0.000,180.000,1000.0
2025-09-03T18:00:48.870656,-5.660,-55.750,356.220,-57.5,0.000,0.000,180.000,1000.0
2025-09-03T18:00:49.096203,-5.650,-55.780,356.210,-57.5,0.000,0.000,180.000,1000.0
2025-09-03T18:00:49.098205,-5.650,-55.760,356.200,-57.4,0.000,0.000,180.000,1000.0
2025-09-03T18:00:49.099204,-5.660,-55.790,356.220,-57.4,0.000,0.000,180.000,1000.0
2025-09-03T18:00:49.100204,-5.660,-55.790,182.150,1722.2,-138.080,127.970,97.060,-1573.3
2025-09-03T18:00:49.201210,-5.600,-56.830,356.370,-57.5,-5.600,-56.830,356.370,-57.5
2025-09-03T18:00:49.202248,-5.600,-56.830,356.370,-57.6,-5.600,-56.830,356.370,-57.6
2025-09-03T18:00:49.203255,-5.590,-56.870,356.370,-57.6,-5.590,-56.870,356.370,-57.6
2025-09-03T18:00:49.204277,-5.580,-56.870,356.380,-57.6,-5.580,-56.870,356.380,-57.6
2025-09-03T18:00:49.205206,-5.580,-56.870,356.370,-57.6,-5.580,-56.870,356.370,-57.6
2025-09-03T18:00:49.206203,-5.580,-56.870,356.370,-57.6,-5.580,-56.870,356.370,-57.6
2025-09-03T18:00:49.207204,-5.570,-56.880,356.380,-57.6,-5.570,-56.880,356.380,-57.6
2025-09-03T18:00:49.636044,-5.570,-56.880,356.380,-57.6,-5.570,-56.880,356.380,-57.6
2025-09-03T18:00:49.637047,-5.560,-56.890,356.370,-57.6,-5.560,-56.890,356.370,-57.6
2025-09-03T18:00:49.639011,-5.560,-56.900,356.370,-57.6,-5.560,-56.900,356.370,-57.6
2025-09-03T18:00:49.640010,-5.550,-56.900,356.370,-57.6,-5.550,-56.900,356.370,-57.6
2025-09-03T18:00:49.641010,-5.550,-56.900,356.370,-57.6,-5.550,-56.900,356.370,-57.6
2025-09-03T18:00:49.642019,-5.550,-56.910,356.370,-57.6,-5.550,-56.910,356.370,-57.6
2025-09-03T18:00:49.643019,-5.550,-56.910,356.370,-57.6,-5.550,-56.910,356.370,-57.6
2025-09-03T18:00:49.645011,-5.540,-56.910,356.370,-57.6,-5.540,-56.910,356.370,-57.6
2025-09-03T18:00:49.646012,-5.540,-56.920,356.370,-57.6,-5.540,-56.920,356.370,-57.6
2025-09-03T18:00:49.648011,-5.540,-56.920,356.380,-57.6,-5.540,-56.920,356.380,-57.6
2025-09-03T18:00:50.196820,-5.530,-56.920,356.370,-57.6,-5.530,-56.920,356.370,-57.6
2025-09-03T18:00:50.197820,-5.540,-56.920,356.380,-57.6,-5.540,-56.920,356.380,-57.6
2025-09-03T18:00:50.199821,-5.540,-56.920,356.380,-57.6,-5.540,-56.920,356.380,-57.6
2025-09-03T18:00:50.200821,-5.540,-56.920,356.370,-57.6,-5.540,-56.920,356.370,-57.6
2025-09-03T18:00:50.202819,-5.530,-56.920,356.370,-57.6,-5.530,-56.920,356.370,-57.6
2025-09-03T18:00:50.754883,-5.540,-56.910,356.380,-57.6,-5.540,-56.910,356.380,-57.6
2025-09-03T18:00:50.755884,-5.540,-56.910,356.380,-57.6,-5.540,-56.910,356.380,-57.6
2025-09-03T18:00:50.757884,-5.540,-56.920,356.380,-57.6,-5.540,-56.920,356.380,-57.6
2025-09-03T18:00:50.758886,-5.540,-56.920,356.380,-57.6,-5.540,-56.920,356.380,-57.6
2025-09-03T18:00:50.759885,-5.540,-56.910,181.720,416.3,-5.540,-56.910,181.720,416.3
2025-09-03T18:00:50.782887,-5.520,-56.890,356.410,-57.5,0.000,0.000,180.000,1000.0
2025-09-03T18:00:51.003162,-5.520,-56.890,356.410,-57.5,0.000,0.000,180.000,1000.0
2025-09-03T18:00:51.004161,-5.520,-56.890,356.410,-57.5,0.000,0.000,180.000,1000.0
2025-09-03T18:00:51.006160,-5.520,-56.890,356.410,-57.5,0.000,0.000,180.000,1000.0
2025-09-03T18:00:51.007161,-5.520,-56.890,356.410,-57.5,0.000,0.000,180.000,1000.0
2025-09-03T18:00:51.009160,-5.520,-56.880,356.410,-57.5,0.000,0.000,180.000,1000.0
2025-09-03T18:00:51.221425,-5.520,-56.880,356.410,-57.6,0.000,0.000,180.000,1000.0
2025-09-03T18:00:51.223427,-5.520,-56.880,356.410,-57.6,0.000,0.000,180.000,1000.0
2025-09-03T18:00:51.224426,-5.520,-56.880,356.410,-57.6,0.000,0.000,180.000,1000.0
2025-09-03T18:00:51.225427,-5.520,-56.880,356.410,-57.6,0.000,0.000,180.000,1000.0
2025-09-03T18:00:51.226426,-5.520,-56.880,356.410,-57.6,0.000,0.000,180.000,1000.0
2025-09-03T18:00:51.450102,-5.520,-56.880,356.410,-57.6,0.000,0.000,180.000,1000.0
2025-09-03T18:00:51.452104,-5.520,-56.880,356.410,-57.6,0.000,0.000,180.000,1000.0
2025-09-03T18:00:51.453104,-5.520,-56.880,356.410,-57.6,0.000,0.000,180.000,1000.0
2025-09-03T18:00:51.455106,-5.520,-56.890,356.410,-57.6,0.000,0.000,180.000,1000.0
2025-09-03T18:00:51.456104,-5.520,-56.880,356.410,-57.6,0.000,0.000,180.000,1000.0
2025-09-03T18:00:51.666787,-5.520,-56.880,356.410,-57.6,0.000,179.200,41.630,-55.1
2025-09-03T18:00:51.730787,-5.540,-56.890,356.400,-57.5,-5.540,-56.890,356.400,-57.5
2025-09-03T18:00:51.731791,-5.540,-56.890,356.400,-57.5,-5.540,-56.890,356.400,-57.5
2025-09-03T18:00:51.733786,-5.540,-56.890,356.400,-57.5,-5.540,-56.890,356.400,-57.5
2025-09-03T18:00:51.734786,-5.540,-56.890,356.400,-57.5,-5.540,-56.890,356.400,-57.5
2025-09-03T18:00:51.735785,-5.540,-56.890,356.400,-57.5,-5.540,-56.890,356.400,-57.5
2025-09-03T18:00:52.176411,-5.550,-56.900,356.410,-57.5,-5.550,-56.900,356.410,-57.5
2025-09-03T18:00:52.179412,-5.550,-56.900,356.410,-57.5,-5.550,-56.900,356.410,-57.5
2025-09-03T18:00:52.180413,-5.550,-56.900,356.410,-57.5,-5.550,-56.900,356.410,-57.5
2025-09-03T18:00:52.182414,-5.550,-56.900,356.410,-57.5,-5.550,-56.900,356.410,-57.5
2025-09-03T18:00:52.183412,-5.550,-56.900,356.410,-57.5,-5.550,-56.900,356.410,-57.5
2025-09-03T18:00:53.207667,-5.420,-56.900,356.480,-57.6,-5.420,-56.900,356.480,-57.6
2025-09-03T18:00:53.238223,-5.430,-56.900,356.500,-57.6,-5.430,-56.900,356.500,-57.6
2025-09-03T18:00:53.239222,-5.460,-56.910,356.530,-57.6,-5.460,-56.910,356.530,-57.6
2025-09-03T18:00:53.269090,-5.480,-56.900,356.580,-57.6,-5.480,-56.900,356.580,-57.6
2025-09-03T18:00:54.243118,-5.490,-56.900,356.590,-57.6,-5.490,-56.900,356.590,-57.6
2025-09-03T18:00:54.244117,-5.490,-56.910,356.590,-57.6,-5.490,-56.910,356.590,-57.6
2025-09-03T18:00:54.245119,-5.490,-56.910,356.600,-57.6,-5.490,-56.910,356.600,-57.6
2025-09-03T18:00:54.247119,-5.500,-56.920,356.600,-57.6,-5.500,-56.920,356.600,-57.6
2025-09-03T18:00:54.249120,-5.510,-56.930,356.610,-57.6,-5.510,-56.930,356.610,-57.6
2025-09-03T18:00:55.234667,-5.520,-56.930,356.620,-57.6,-5.520,-56.930,356.620,-57.6
2025-09-03T18:00:55.235379,-5.520,-56.930,356.630,-57.6,-5.520,-56.930,356.630,-57.6
2025-09-03T18:00:55.237385,-5.510,-56.930,356.630,-57.6,-5.510,-56.930,356.630,-57.6
2025-09-03T18:00:55.238383,-5.520,-56.940,356.620,-57.6,-5.520,-56.940,356.620,-57.6
2025-09-03T18:00:55.240384,-5.520,-56.940,356.640,-57.6,-5.520,-56.940,356.640,-57.6
2025-09-03T18:00:56.228224,-5.510,-56.940,356.630,-57.6,-5.510,-56.940,356.630,-57.6
2025-09-03T18:00:56.229216,-5.510,-56.940,356.620,-57.6,-5.510,-56.940,356.620,-57.6
2025-09-03T18:00:56.231219,-5.510,-56.940,356.620,-57.6,-5.510,-56.940,356.620,-57.6
2025-09-03T18:00:56.233219,-5.500,-56.940,356.610,-57.6,-5.500,-56.940,356.610,-57.6
2025-09-03T18:00:56.234218,-5.490,-56.940,356.600,-57.6,-5.490,-56.940,356.600,-57.6
2025-09-03T18:00:57.215072,-5.490,-56.940,356.600,-57.6,-5.490,-56.940,356.600,-57.6
2025-09-03T18:00:57.217072,-5.490,-56.940,356.600,-57.6,-5.490,-56.940,356.600,-57.6
2025-09-03T18:00:57.219073,-5.490,-56.940,356.610,-57.6,-5.490,-56.940,356.610,-57.6
2025-09-03T18:00:57.220073,-5.490,-56.940,356.610,-57.6,-5.490,-56.940,356.610,-57.6
2025-09-03T18:00:57.221071,-5.500,-56.950,356.600,-57.6,-5.500,-56.950,356.600,-57.6
2025-09-03T18:00:58.207057,-5.500,-56.950,356.600,-57.6,-5.500,-56.950,356.600,-57.6
2025-09-03T18:00:58.208065,-5.500,-56.950,356.600,-57.6,-5.500,-56.950,356.600,-57.6
2025-09-03T18:00:58.209055,-5.500,-56.960,356.610,-57.6,-5.500,-56.960,356.610,-57.6
2025-09-03T18:00:58.211069,-5.500,-56.960,356.610,-57.6,-5.500,-56.960,356.610,-57.6
2025-09-03T18:00:58.212056,-5.500,-56.960,356.610,-57.6,-5.500,-56.960,356.610,-57.6
2025-09-03T18:00:59.196290,-5.510,-56.960,356.610,-57.6,-5.510,-56.960,356.610,-57.6
2025-09-03T18:00:59.198287,-5.510,-56.970,356.610,-57.6,-5.510,-56.970,356.610,-57.6
2025-09-03T18:00:59.199288,-5.510,-56.970,356.610,-57.6,-5.510,-56.970,356.610,-57.6
2025-09-03T18:00:59.201289,-5.510,-56.960,356.610,-57.6,-5.510,-56.960,356.610,-57.6
2025-09-03T18:00:59.202288,-5.510,-56.970,356.610,-57.6,-5.510,-56.970,356.610,-57.6
2025-09-03T18:01:00.190182,-5.510,-56.970,356.610,-57.6,-5.510,-56.970,356.610,-57.6
2025-09-03T18:01:00.192221,-5.510,-56.970,356.610,-57.6,-5.510,-56.970,356.610,-57.6
2025-09-03T18:01:00.193180,-5.520,-56.970,356.620,-57.6,-5.520,-56.970,356.620,-57.6
2025-09-03T18:01:00.195181,-5.510,-56.960,356.620,-57.6,-5.510,-56.960,356.620,-57.6
2025-09-03T18:01:00.196186,-5.510,-56.970,356.620,-57.6,-5.510,-56.970,356.620,-57.6
2025-09-03T18:01:01.184506,-5.510,-56.980,356.620,-57.6,-5.510,-56.980,356.620,-57.6
2025-09-03T18:01:01.187507,-5.520,-56.980,356.620,-57.6,-5.520,-56.980,356.620,-57.6
2025-09-03T18:01:01.189505,-5.520,-56.980,356.620,-57.6,-5.520,-56.980,356.620,-57.6
2025-09-03T18:01:01.190515,-5.520,-56.980,356.630,-57.6,-5.520,-56.980,356.630,-57.6
2025-09-03T18:01:01.192511,-5.520,-56.990,356.630,-57.6,-5.520,-56.990,356.630,-57.6
2025-09-03T18:01:02.174257,-5.520,-56.980,356.630,-57.6,-5.520,-56.980,356.630,-57.6
2025-09-03T18:01:02.177257,-5.530,-56.990,356.640,-57.6,-5.530,-56.990,356.640,-57.6
2025-09-03T18:01:02.178257,-5.530,-56.990,356.640,1722.2,-5.530,-56.990,356.640,1722.2
2025-09-03T18:01:02.229463,-5.430,-57.000,356.450,-57.6,-5.430,-57.000,356.450,-57.6
2025-09-03T18:01:02.230464,-5.430,-57.010,356.450,-57.6,-5.430,-57.010,356.450,-57.6
2025-09-03T18:01:02.231464,-5.430,-57.010,356.460,-57.6,-5.430,-57.010,356.460,-57.6
2025-09-03T18:01:02.232463,-5.440,-57.010,356.470,-57.6,-5.440,-57.010,356.470,-57.6
2025-09-03T18:01:02.233465,-5.440,-57.000,356.480,-57.6,-5.440,-57.000,356.480,-57.6
2025-09-03T18:01:02.779910,-5.450,-57.000,356.480,-57.6,-5.450,-57.000,356.480,-57.6
2025-09-03T18:01:02.782908,-5.450,-57.000,356.490,-57.6,-5.450,-57.000,356.490,-57.6
2025-09-03T18:01:02.783910,-5.470,-57.000,356.500,-57.6,-5.470,-57.000,356.500,-57.6
2025-09-03T18:01:02.786909,-5.470,-57.000,356.510,-57.6,-5.470,-57.000,356.510,-57.6
2025-09-03T18:01:02.787913,-5.480,-57.000,356.510,-57.6,-5.480,-57.000,356.510,-57.6
2025-09-03T18:01:03.340078,-5.490,-57.000,356.520,-57.6,-5.490,-57.000,356.520,-57.6
2025-09-03T18:01:03.342072,-5.500,-57.010,356.540,-57.6,-5.500,-57.010,356.540,-57.6
2025-09-03T18:01:03.343073,-5.510,-57.010,356.550,-57.6,-5.510,-57.010,356.550,-57.6
2025-09-03T18:01:03.345074,-5.520,-57.010,356.570,-57.6,-5.520,-57.010,356.570,-57.6
2025-09-03T18:01:03.346073,-5.530,-57.010,356.580,-57.6,-5.530,-57.010,356.580,-57.6
2025-09-03T18:01:04.320089,-5.530,-57.000,356.590,-57.6,-5.530,-57.000,356.590,-57.6
2025-09-03T18:01:04.322090,-5.540,-57.000,356.610,-57.6,-5.540,-57.000,356.610,-57.6
2025-09-03T18:01:04.324090,-5.540,-57.000,356.610,-57.6,-5.540,-57.000,356.610,-57.6
2025-09-03T18:01:04.325089,-5.540,-57.000,356.610,-57.6,-5.540,-57.000,356.610,-57.6
2025-09-03T18:01:04.326089,-5.550,-57.000,356.610,-57.6,-5.550,-57.000,356.610,-57.6
2025-09-03T18:01:05.305707,-5.550,-57.000,356.610,-57.6,-5.550,-57.000,356.610,-57.6
2025-09-03T18:01:05.306707,-5.550,-56.990,356.610,-57.6,-5.550,-56.990,356.610,-57.6
2025-09-03T18:01:05.308706,-5.550,-56.990,356.620,-57.6,-5.550,-56.990,356.620,-57.6
2025-09-03T18:01:05.309705,-5.550,-56.990,356.610,-57.6,-5.550,-56.990,356.610,-57.6
2025-09-03T18:01:05.310707,-5.530,-56.990,356.610,-57.6,-5.530,-56.990,356.610,-57.6
2025-09-03T18:01:06.289783,-5.530,-56.990,356.610,-57.6,-5.530,-56.990,356.610,-57.6
2025-09-03T18:01:06.291783,-5.530,-56.990,356.600,-57.6,-5.530,-56.990,356.600,-57.6
2025-09-03T18:01:06.292784,-5.520,-56.990,356.580,-57.6,-5.520,-56.990,356.580,-57.6
2025-09-03T18:01:06.293784,-5.520,-56.980,356.580,-57.6,-5.520,-56.980,356.580,-57.6
2025-09-03T18:01:06.295784,-5.510,-56.980,356.590,-57.6,-5.510,-56.980,356.590,-57.6
2025-09-03T18:01:06.489304,1.110,-58.730,353.380,-57.6,0.000,0.000,180.000,1000.0
2025-09-03T18:01:06.490305,2.370,-58.890,352.850,-57.6,0.000,0.000,180.000,1000.0
2025-09-03T18:01:06.492305,3.330,-59.190,352.190,-57.7,0.000,0.000,180.000,1000.0
2025-09-03T18:01:06.598821,3.720,-59.330,351.590,1722.2,284.320,-107.510,102.160,-1650.3
2025-09-03T18:01:06.599820,3.580,-59.280,350.460,-57.7,3.580,-59.280,350.460,-57.7
2025-09-03T18:01:06.600821,3.480,-59.130,349.810,-57.7,3.480,-59.130,349.810,-57.7
2025-09-03T18:01:06.602821,3.370,-58.910,349.430,-57.7,3.370,-58.910,349.430,-57.7
2025-09-03T18:01:07.683946,3.470,-58.560,349.170,-57.7,3.470,-58.560,349.170,-57.7
2025-09-03T18:01:07.685963,3.750,-58.130,349.010,-57.7,3.750,-58.130,349.010,-57.7
2025-09-03T18:01:07.687964,3.840,-57.560,348.870,-57.7,3.840,-57.560,348.870,-57.7
2025-09-03T18:01:07.690967,3.680,-56.800,348.600,-57.7,3.680,-56.800,348.600,-57.7
2025-09-03T18:01:07.691964,3.420,-56.040,348.210,-57.7,3.420,-56.040,348.210,-57.7
2025-09-03T18:01:08.776470,3.240,-55.360,347.750,-57.7,3.240,-55.360,347.750,-57.7
2025-09-03T18:01:08.779429,3.180,-54.720,347.190,-57.7,3.180,-54.720,347.190,-57.7
2025-09-03T18:01:08.780485,3.020,-53.980,346.690,-57.7,3.020,-53.980,346.690,-57.7
2025-09-03T18:01:08.782465,2.860,-53.150,346.240,-57.7,2.860,-53.150,346.240,-57.7
2025-09-03T18:01:08.783434,2.940,-52.180,345.700,-57.7,2.940,-52.180,345.700,-57.7
2025-09-03T18:01:09.880972,3.120,-51.250,345.200,-57.7,3.120,-51.250,345.200,-57.7
2025-09-03T18:01:09.883972,3.240,-50.520,344.950,-57.7,3.240,-50.520,344.950,-57.7
# Logging stopped at 2025-09-03 18:04:13
# Total duration: 237.4 seconds
# Total data points: 2186
