Timestamp,Roll_Angle,Pitch_Angle,Yaw_Angle,Altitude,Roll_Setpoint,Pitch_Setpoint,Yaw_Setpoint,Altitude_Setpoint
2025-09-08T18:32:10.273317,0.450,9.290,55.950,-55.0,0.400,-0.500,181.080,1000.0
2025-09-08T18:32:10.288318,0.450,9.290,55.950,-55.0,0.400,-0.500,181.080,1000.0
2025-09-08T18:32:10.303315,0.450,9.290,55.950,-55.0,0.400,-0.500,181.080,1000.0
2025-09-08T18:32:10.349102,0.450,9.290,55.950,-55.0,0.400,-0.500,181.080,1000.0
2025-09-08T18:32:10.351106,0.450,9.290,55.950,-55.0,0.400,-0.500,181.080,1000.0
2025-09-08T18:32:10.379651,0.450,9.290,55.950,-55.0,0.400,-0.500,181.080,1000.0
2025-09-08T18:32:10.382639,0.450,9.290,55.950,-55.0,0.400,-0.500,181.080,1000.0
2025-09-08T18:32:10.409456,0.450,9.290,55.950,-55.0,0.400,-0.500,181.080,1000.0
2025-09-08T18:32:10.439338,0.450,9.290,55.950,-55.0,0.400,-0.500,181.080,1000.0
2025-09-08T18:32:10.440335,0.450,9.290,55.950,-55.0,0.400,-0.500,181.080,1000.0
2025-09-08T18:32:10.484121,0.450,9.290,55.950,-55.0,0.400,-0.500,181.080,1000.0
2025-09-08T18:32:10.486124,0.450,9.290,55.950,-55.0,0.400,-0.500,181.080,1000.0
2025-09-08T18:32:10.514050,0.450,9.290,55.950,-55.0,0.400,-0.500,181.080,1000.0
2025-09-08T18:32:10.544136,0.450,9.290,55.950,-55.0,0.400,-0.500,181.080,1000.0
2025-09-08T18:32:10.546137,0.450,9.290,55.950,-55.0,0.400,-0.500,181.080,1000.0
2025-09-08T18:32:10.574150,0.450,9.290,55.950,-55.0,0.400,-0.500,181.080,1000.0
2025-09-08T18:32:10.576136,0.450,9.290,55.950,-55.0,0.400,-0.500,181.080,1000.0
2025-09-08T18:32:10.604137,0.450,9.290,55.950,-55.0,0.400,-0.500,181.080,1000.0
2025-09-08T18:32:10.634775,0.450,9.290,55.950,-55.0,0.400,-0.500,181.080,1000.0
2025-09-08T18:32:10.650090,0.440,9.300,55.950,-55.0,0.400,-0.500,181.080,1000.0
2025-09-08T18:32:10.679986,0.440,9.300,55.950,-55.0,0.400,-0.500,181.080,1000.0
2025-09-08T18:32:10.682985,0.440,9.300,55.950,-55.0,0.400,-0.500,181.080,1000.0
2025-09-08T18:32:10.725431,0.440,9.300,55.950,-55.0,0.400,-0.500,181.080,1000.0
2025-09-08T18:32:10.754699,0.440,9.300,55.950,-55.0,0.400,-0.500,181.080,1000.0
2025-09-08T18:32:10.755699,0.440,9.300,55.950,-55.0,0.400,-0.500,181.080,1000.0
2025-09-08T18:32:10.783768,0.440,9.300,55.950,-55.0,0.400,-0.500,181.080,1000.0
2025-09-08T18:32:10.785761,0.440,9.300,55.950,-55.0,0.400,-0.500,181.080,1000.0
2025-09-08T18:32:10.814887,0.440,9.300,55.950,-55.0,0.400,-0.500,181.080,1000.0
2025-09-08T18:32:10.844911,0.440,9.300,55.950,-55.0,0.400,-0.500,181.080,1000.0
2025-09-08T18:32:10.846910,0.440,9.300,55.950,-55.0,0.400,-0.500,181.080,1000.0
2025-09-08T18:32:10.874907,0.440,9.300,55.950,-55.0,0.400,-0.500,181.080,1000.0
2025-09-08T18:32:10.876908,0.440,9.300,55.950,-55.0,0.400,-0.500,181.080,1000.0
2025-09-08T18:32:10.905457,0.440,9.300,55.950,-55.0,0.400,-0.500,181.080,1000.0
2025-09-08T18:32:10.935902,0.440,9.300,55.950,-55.0,0.400,-0.500,181.080,1000.0
2025-09-08T18:32:10.965917,0.440,9.300,55.950,-55.0,0.400,-0.500,181.080,1000.0
2025-09-08T18:32:10.968917,0.440,9.300,55.950,-55.0,0.400,-0.500,181.080,1000.0
2025-09-08T18:32:10.969917,0.440,9.300,55.950,-55.0,0.400,-0.500,181.080,1000.0
2025-09-08T18:32:11.026474,0.440,9.300,55.950,-55.0,0.400,-0.500,181.080,1000.0
2025-09-08T18:32:11.028799,0.440,9.300,55.950,-55.0,0.400,-0.500,181.080,1000.0
2025-09-08T18:32:11.056954,0.440,9.300,55.950,-55.0,0.400,-0.500,181.080,1000.0
2025-09-08T18:32:11.086586,0.440,9.300,55.950,-55.0,0.400,-0.500,181.080,1000.0
2025-09-08T18:32:11.088586,0.440,9.300,55.950,-55.0,0.400,-0.500,181.080,1000.0
2025-09-08T18:32:11.116587,0.440,9.300,55.950,-55.0,0.400,-0.500,181.080,1000.0
2025-09-08T18:32:11.146799,0.440,9.300,55.950,-55.0,0.400,-0.500,181.080,1000.0
2025-09-08T18:32:11.148796,0.440,9.300,55.950,-55.0,0.400,-0.500,181.080,1000.0
2025-09-08T18:32:11.176613,0.440,9.300,55.950,-55.0,0.400,-0.500,181.080,1000.0
2025-09-08T18:32:11.179617,0.440,9.300,55.950,-55.0,0.400,-0.500,181.080,1000.0
2025-09-08T18:32:11.221578,0.440,9.300,55.950,-55.0,0.400,-0.500,181.080,1000.0
2025-09-08T18:32:11.223577,0.440,9.300,55.950,-55.0,0.400,-0.500,181.080,1000.0
2025-09-08T18:32:11.251577,0.440,9.300,55.950,-55.0,0.400,-0.500,181.080,1000.0
2025-09-08T18:32:11.282577,0.440,9.300,55.950,-55.0,0.400,-0.500,181.080,1000.0
2025-09-08T18:32:11.284578,0.440,9.300,55.950,-55.0,0.400,-0.500,181.080,1000.0
2025-09-08T18:32:11.311577,0.440,9.300,55.950,-54.9,0.400,-0.500,181.080,1000.0
2025-09-08T18:32:11.313579,0.440,9.300,55.950,-54.9,0.400,-0.500,181.080,1000.0
2025-09-08T18:32:11.355575,0.440,9.300,55.950,-54.9,0.400,-0.500,181.080,1000.0
2025-09-08T18:32:11.385575,0.440,9.300,55.950,-54.9,0.400,-0.500,181.080,1000.0
2025-09-08T18:32:11.387577,0.440,9.300,55.950,-54.9,0.400,-0.500,181.080,1000.0
2025-09-08T18:32:11.416577,0.440,9.300,55.950,-54.9,0.400,-0.500,181.080,1000.0
2025-09-08T18:32:11.418576,0.440,9.300,55.950,-54.9,0.400,-0.500,181.080,1000.0
2025-09-08T18:32:11.461576,0.440,9.300,55.950,-54.9,0.400,-0.500,181.080,1000.0
2025-09-08T18:32:11.491576,0.440,9.300,55.950,-54.9,0.400,-0.500,181.080,1000.0
2025-09-08T18:32:11.492576,0.440,9.300,55.950,-54.9,0.400,-0.500,181.080,1000.0
2025-09-08T18:32:11.520577,0.440,9.300,55.950,-54.9,0.400,-0.500,181.080,1000.0
2025-09-08T18:32:11.522575,0.440,9.300,55.950,-54.9,0.400,-0.500,181.080,1000.0
2025-09-08T18:32:11.551609,0.440,9.300,55.950,-54.9,0.400,-0.500,181.080,1000.0
2025-09-08T18:32:11.582526,0.440,9.300,55.950,-54.9,0.400,-0.500,181.080,1000.0
2025-09-08T18:32:11.584525,0.440,9.300,55.950,-55.0,0.400,-0.500,181.080,1000.0
2025-09-08T18:32:11.611581,0.440,9.300,55.950,-55.0,0.400,-0.500,181.080,1000.0
2025-09-08T18:32:11.613527,0.440,9.300,55.950,-55.0,0.400,-0.500,181.080,1000.0
2025-09-08T18:32:11.641528,0.440,9.300,55.950,-55.0,0.400,-0.500,181.080,1000.0
2025-09-08T18:32:11.671644,0.440,9.300,55.950,-55.0,0.400,-0.500,181.080,1000.0
2025-09-08T18:32:11.701702,0.440,9.300,55.950,-55.0,0.400,-0.500,181.080,1000.0
2025-09-08T18:32:11.716700,0.440,9.300,55.950,-55.0,0.400,-0.500,181.080,1000.0
2025-09-08T18:32:11.731703,0.450,9.300,55.950,-55.0,0.400,-0.500,181.080,1000.0
2025-09-08T18:32:11.761700,0.450,9.290,55.950,-55.0,0.400,-0.500,181.080,1000.0
2025-09-08T18:32:11.791700,0.450,9.290,55.950,-55.0,0.400,-0.500,181.080,1000.0
2025-09-08T18:32:11.792698,0.460,9.300,55.950,-55.0,0.400,-0.500,181.080,1000.0
2025-09-08T18:32:11.821702,0.460,9.300,55.950,-55.0,0.400,-0.500,181.080,1000.0
2025-09-08T18:32:11.823698,0.460,9.300,55.950,-55.0,0.400,-0.500,181.080,1000.0
2025-09-08T18:32:11.851699,0.470,9.290,55.950,-55.0,0.400,-0.500,181.080,1000.0
2025-09-08T18:32:11.881709,0.470,9.290,55.950,-55.0,0.400,-0.500,181.080,1000.0
2025-09-08T18:32:11.884700,0.470,9.290,55.950,-55.0,0.400,-0.500,181.080,1000.0
2025-09-08T18:32:11.912178,0.470,9.290,55.950,-55.0,0.400,-0.500,181.080,1000.0
2025-09-08T18:32:11.913180,0.470,9.290,55.950,-55.0,0.400,-0.500,181.080,1000.0
2025-09-08T18:32:11.957572,0.480,9.300,55.950,-55.0,0.400,-0.500,181.080,1000.0
2025-09-08T18:32:11.961573,0.480,9.300,55.950,-55.0,0.400,-0.500,181.080,1000.0
2025-09-08T18:32:11.987642,0.480,9.300,55.950,-55.0,0.400,-0.500,181.080,1000.0
2025-09-08T18:32:12.017769,0.480,9.300,55.950,-55.0,0.400,-0.500,181.080,1000.0
2025-09-08T18:32:12.032773,0.480,9.290,55.950,-55.0,0.400,-0.500,181.080,1000.0
2025-09-08T18:32:12.047768,0.480,9.290,55.950,-55.0,0.400,-0.500,181.080,1000.0
2025-09-08T18:32:12.092807,0.480,9.290,55.950,-55.0,0.400,-0.500,181.080,1000.0
2025-09-08T18:32:12.093809,0.490,9.290,55.950,-55.0,0.400,-0.500,181.080,1000.0
2025-09-08T18:32:12.122809,0.490,9.290,55.950,-55.0,0.400,-0.500,181.080,1000.0
2025-09-08T18:32:12.123806,0.490,9.290,55.950,-55.0,0.400,-0.500,181.080,1000.0
2025-09-08T18:32:12.152810,0.480,9.280,55.950,-55.0,0.400,-0.500,181.080,1000.0
2025-09-08T18:32:12.156809,0.480,9.280,55.950,-55.0,0.400,-0.500,181.080,1000.0
2025-09-08T18:32:12.198029,0.480,9.280,55.950,-55.0,0.400,-0.500,181.080,1000.0
2025-09-08T18:32:12.228336,0.480,9.280,55.950,-55.0,0.400,-0.500,181.080,1000.0
2025-09-08T18:32:12.229339,0.480,9.280,55.950,-55.0,0.400,-0.500,181.080,1000.0
2025-09-08T18:32:12.258420,0.470,9.270,55.950,-55.0,0.400,-0.500,181.080,1000.0
2025-09-08T18:32:12.261425,0.470,9.270,55.950,-55.0,0.400,-0.500,181.080,1000.0
2025-09-08T18:32:12.288445,0.470,9.270,55.950,-55.0,0.400,-0.500,181.080,1000.0
2025-09-08T18:32:12.318813,0.470,9.270,55.950,-55.0,0.400,-0.500,181.080,1000.0
2025-09-08T18:32:12.320806,0.470,9.270,55.950,-55.0,0.400,-0.500,181.080,1000.0
2025-09-08T18:32:12.348818,0.470,9.270,55.950,-55.0,0.400,-0.500,181.080,1000.0
2025-09-08T18:32:12.363822,0.470,9.270,55.950,-55.0,0.400,-0.500,181.080,1000.0
2025-09-08T18:32:12.379821,0.460,9.280,55.950,-55.0,0.400,-0.500,181.080,1000.0
2025-09-08T18:32:12.438880,0.460,9.280,55.950,-55.0,0.400,-0.500,181.080,1000.0
2025-09-08T18:32:12.440893,0.460,9.280,55.950,-55.0,0.400,-0.500,181.080,1000.0
2025-09-08T18:32:12.468883,0.460,9.270,55.950,-55.0,0.400,-0.500,181.080,1000.0
2025-09-08T18:32:12.472882,0.460,9.270,55.950,-55.0,0.400,-0.500,181.080,1000.0
2025-09-08T18:32:12.498892,0.460,9.270,55.950,-55.0,0.400,-0.500,181.080,1000.0
2025-09-08T18:32:12.528881,0.460,9.270,55.950,-55.0,0.400,-0.500,181.080,1000.0
2025-09-08T18:32:12.530224,0.460,9.270,55.950,-55.0,0.400,-0.500,181.080,1000.0
2025-09-08T18:32:12.559221,0.460,9.260,55.950,-55.0,0.400,-0.500,181.080,1000.0
2025-09-08T18:32:12.563222,0.450,9.270,55.950,-55.0,0.400,-0.500,181.080,1000.0
2025-09-08T18:32:12.589262,0.460,9.270,55.950,-55.0,0.400,-0.500,181.080,1000.0
2025-09-08T18:32:12.619731,0.460,9.270,55.950,-55.0,0.400,-0.500,181.080,1000.0
2025-09-08T18:32:12.621731,0.460,9.270,55.950,-55.0,0.400,-0.500,181.080,1000.0
2025-09-08T18:32:12.649731,0.450,9.280,55.950,-55.0,0.400,-0.500,181.080,1000.0
2025-09-08T18:32:12.652729,0.450,9.280,55.950,-55.0,0.400,-0.500,181.080,1000.0
2025-09-08T18:32:12.694922,0.450,9.280,55.950,-55.0,0.400,-0.500,181.080,1000.0
2025-09-08T18:32:12.723928,0.450,9.280,55.950,-55.0,0.400,-0.500,181.080,1000.0
2025-09-08T18:32:12.725920,0.450,9.280,55.950,-55.0,0.400,-0.500,181.080,1000.0
2025-09-08T18:32:12.771108,0.450,9.280,55.950,-55.0,0.400,-0.500,181.080,1000.0
2025-09-08T18:32:12.775109,0.450,9.280,55.950,-55.0,0.400,-0.500,181.080,1000.0
2025-09-08T18:32:12.776110,0.450,9.280,55.950,-55.0,0.400,-0.500,181.080,1000.0
2025-09-08T18:32:12.831546,0.450,9.280,55.950,-55.0,0.400,-0.500,181.080,1000.0
2025-09-08T18:32:12.833547,0.450,9.280,55.950,-55.0,0.400,-0.500,181.080,1000.0
2025-09-08T18:32:12.861770,0.450,9.280,55.950,-55.0,0.400,-0.500,181.080,1000.0
2025-09-08T18:32:12.865774,0.450,9.290,55.950,-55.0,0.400,-0.500,181.080,1000.0
2025-09-08T18:32:12.890771,0.450,9.290,55.950,-55.0,0.400,-0.500,181.080,1000.0
2025-09-08T18:32:12.921599,0.450,9.290,55.950,-55.0,0.400,-0.500,181.080,1000.0
2025-09-08T18:32:12.923601,0.450,9.290,55.950,-55.0,0.400,-0.500,181.080,1000.0
2025-09-08T18:32:12.967025,0.450,9.290,55.950,-55.0,0.400,-0.500,181.080,1000.0
2025-09-08T18:32:12.971028,0.450,9.290,55.950,-55.0,0.400,-0.500,181.080,1000.0
2025-09-08T18:32:12.997085,0.450,9.290,55.950,-55.0,0.400,-0.500,181.080,1000.0
2025-09-08T18:32:13.027296,0.450,9.290,55.950,-55.0,0.400,-0.500,181.080,1000.0
2025-09-08T18:32:13.030299,0.450,9.290,55.950,-55.0,0.400,-0.500,181.080,1000.0
2025-09-08T18:32:13.057298,0.450,9.290,55.950,-55.0,0.400,-0.500,181.080,1000.0
2025-09-08T18:32:13.072300,0.440,9.300,55.950,-54.9,0.400,-0.500,181.080,1000.0
2025-09-08T18:32:13.087254,0.440,9.300,55.950,-54.9,0.400,-0.500,181.080,1000.0
2025-09-08T18:32:13.117503,0.440,9.300,55.950,-54.9,0.400,-0.500,181.080,1000.0
2025-09-08T18:32:13.132475,0.440,9.300,55.950,-54.9,0.400,-0.500,181.080,1000.0
2025-09-08T18:32:13.162471,0.440,9.300,55.950,-54.9,0.400,-0.500,181.080,1000.0
2025-09-08T18:32:13.167471,0.440,9.300,55.950,-54.9,0.400,-0.500,181.080,1000.0
2025-09-08T18:32:13.192605,0.440,9.300,55.950,-54.9,0.400,-0.500,181.080,1000.0
2025-09-08T18:32:13.237788,0.440,9.300,55.950,-54.9,0.400,-0.500,181.080,1000.0
2025-09-08T18:32:13.239786,0.450,9.300,55.950,-54.9,0.400,-0.500,181.080,1000.0
2025-09-08T18:32:13.267788,0.450,9.300,55.950,-54.9,0.400,-0.500,181.080,1000.0
2025-09-08T18:32:13.271788,0.450,9.300,55.950,-54.9,0.400,-0.500,181.080,1000.0
2025-09-08T18:32:13.297623,0.450,9.300,55.950,-54.9,0.400,-0.500,181.080,1000.0
2025-09-08T18:32:13.299625,0.440,9.300,55.950,-54.9,0.400,-0.500,181.080,1000.0
2025-09-08T18:32:13.327822,0.440,9.300,55.950,-54.9,0.400,-0.500,181.080,1000.0
2025-09-08T18:32:13.358313,0.440,9.300,55.950,-54.9,0.400,-0.500,181.080,1000.0
2025-09-08T18:32:13.362314,0.440,9.300,55.950,-54.9,0.400,-0.500,181.080,1000.0
2025-09-08T18:32:13.388316,0.440,9.300,55.950,-54.9,0.400,-0.500,181.080,1000.0
2025-09-08T18:32:13.390315,0.440,9.300,55.950,-54.9,0.400,-0.500,181.080,1000.0
2025-09-08T18:32:13.417961,0.440,9.300,55.950,-54.9,0.400,-0.500,181.080,1000.0
2025-09-08T18:32:13.462597,0.440,9.300,55.950,-54.9,0.400,-0.500,181.080,1000.0
2025-09-08T18:32:13.467598,0.440,9.300,55.950,-54.9,0.400,-0.500,181.080,1000.0
2025-09-08T18:32:13.507618,0.440,9.300,55.950,-54.9,0.400,-0.500,181.080,1000.0
2025-09-08T18:32:13.508625,0.440,9.300,55.950,-54.9,0.400,-0.500,181.080,1000.0
2025-09-08T18:32:13.537644,0.440,9.300,55.950,-54.9,0.400,-0.500,181.080,1000.0
2025-09-08T18:32:13.568024,0.440,9.300,55.950,-54.9,0.400,-0.500,181.080,1000.0
2025-09-08T18:32:13.572024,0.440,9.300,55.950,-54.9,0.400,-0.500,181.080,1000.0
2025-09-08T18:32:13.598083,0.440,9.300,55.950,-54.9,0.400,-0.500,181.080,1000.0
2025-09-08T18:32:13.600085,0.440,9.300,55.950,-54.9,0.400,-0.500,181.080,1000.0
2025-09-08T18:32:13.627959,0.440,9.300,55.950,-54.9,0.400,-0.500,181.080,1000.0
2025-09-08T18:32:13.658236,0.440,9.300,55.950,-54.9,0.400,-0.500,181.080,1000.0
2025-09-08T18:32:13.662201,0.440,9.300,55.950,-54.9,0.400,-0.500,181.080,1000.0
2025-09-08T18:32:13.702955,0.450,9.290,55.950,-54.9,0.400,-0.500,181.080,1000.0
2025-09-08T18:32:13.704942,0.450,9.310,55.950,-54.9,0.400,-0.500,181.080,1000.0
2025-09-08T18:32:13.732941,0.470,9.300,55.960,-54.9,0.400,-0.500,181.080,1000.0
2025-09-08T18:32:13.762637,0.450,9.310,55.960,-54.9,0.400,-0.500,181.080,1000.0
2025-09-08T18:32:13.781637,0.460,9.300,55.960,-54.9,0.400,-0.500,181.080,1000.0
2025-09-08T18:32:13.791823,0.440,9.280,55.950,-54.9,0.400,-0.500,181.080,1000.0
2025-09-08T18:32:13.793696,0.460,9.300,55.960,-54.9,0.400,-0.500,181.080,1000.0
2025-09-08T18:32:13.822857,0.440,9.300,55.960,-54.9,0.400,-0.500,181.080,1000.0
2025-09-08T18:32:13.868617,0.460,9.300,55.960,-55.0,0.400,-0.500,181.080,1000.0
2025-09-08T18:32:13.871616,0.460,9.310,55.970,-55.0,0.400,-0.500,181.080,1000.0
2025-09-08T18:32:13.899208,0.450,9.290,55.970,-55.0,0.400,-0.500,181.080,1000.0
2025-09-08T18:32:13.901205,0.450,9.310,55.960,-55.0,0.400,-0.500,181.080,1000.0
2025-09-08T18:32:13.929338,0.460,9.300,55.970,-55.0,0.400,-0.500,181.080,1000.0
2025-09-08T18:32:13.975299,0.440,9.300,55.960,-55.0,0.400,-0.500,181.080,1000.0
2025-09-08T18:32:13.983300,0.460,9.310,55.970,-55.0,0.400,-0.500,181.080,1000.0
2025-09-08T18:32:14.005300,0.460,9.300,55.970,-55.0,0.400,-0.500,181.080,1000.0
2025-09-08T18:32:14.007300,0.450,9.290,55.970,-55.0,0.400,-0.500,181.080,1000.0
2025-09-08T18:32:14.035299,0.450,9.300,55.960,-55.0,0.400,-0.500,181.080,1000.0
2025-09-08T18:32:14.065300,0.450,9.290,55.960,-55.0,0.400,-0.500,181.080,1000.0
2025-09-08T18:32:14.069298,0.450,9.300,55.960,-55.0,0.400,-0.500,181.080,1000.0
2025-09-08T18:32:14.095299,0.450,9.310,55.970,-55.0,0.400,-0.500,181.080,1000.0
2025-09-08T18:32:14.097301,0.450,9.300,55.960,-55.0,0.400,-0.500,181.080,1000.0
2025-09-08T18:32:14.125300,0.460,9.300,55.970,-55.0,0.400,-0.500,181.080,1000.0
2025-09-08T18:32:14.170032,0.450,9.290,55.970,-55.0,0.400,-0.500,181.080,1000.0
2025-09-08T18:32:14.173032,0.450,9.280,55.960,-55.0,0.400,-0.500,181.080,1000.0
2025-09-08T18:32:14.216074,0.460,9.290,55.960,-55.0,0.400,-0.500,181.080,1000.0
2025-09-08T18:32:14.217074,0.450,9.290,55.960,-55.0,0.400,-0.500,181.080,1000.0
2025-09-08T18:32:14.246078,0.450,9.290,55.960,-55.0,0.400,-0.500,181.080,1000.0
2025-09-08T18:32:14.248077,0.450,9.300,55.960,-55.0,0.400,-0.500,181.080,1000.0
2025-09-08T18:32:14.275971,0.450,9.300,55.960,-55.0,0.400,-0.500,181.080,1000.0
2025-09-08T18:32:14.306030,0.450,9.300,55.960,-55.0,0.400,-0.500,181.080,1000.0
2025-09-08T18:32:14.308034,0.440,9.300,55.960,-55.0,0.400,-0.500,181.080,1000.0
2025-09-08T18:32:14.336160,0.450,9.310,55.960,-55.0,0.400,-0.500,181.080,1000.0
2025-09-08T18:32:14.365909,0.450,9.310,55.960,-55.0,0.400,-0.500,181.080,1000.0
2025-09-08T18:32:14.368910,0.450,9.300,55.960,-55.0,0.400,-0.500,181.080,1000.0
2025-09-08T18:32:14.396061,0.450,9.310,55.960,-55.0,0.400,-0.500,181.080,1000.0
2025-09-08T18:32:14.398062,0.450,9.310,55.960,-55.0,0.400,-0.500,181.080,1000.0
2025-09-08T18:32:14.426071,0.450,9.310,55.960,-55.0,0.400,-0.500,181.080,1000.0
2025-09-08T18:32:14.427062,0.450,9.310,55.960,-55.0,0.400,-0.500,181.080,1000.0
2025-09-08T18:32:14.470837,0.450,9.310,55.960,-55.0,0.400,-0.500,181.080,1000.0
2025-09-08T18:32:14.500803,0.450,9.310,55.960,-55.0,0.400,-0.500,181.080,1000.0
2025-09-08T18:32:14.514802,0.450,9.310,55.960,-55.0,0.400,-0.500,181.080,1000.0
2025-09-08T18:32:14.531015,0.450,9.310,55.960,-55.0,0.400,-0.500,181.080,1000.0
2025-09-08T18:32:14.546078,0.450,9.310,55.960,-55.0,0.400,-0.500,181.080,1000.0
2025-09-08T18:32:14.576598,0.450,9.300,55.950,-55.0,0.400,-0.500,181.080,1000.0
2025-09-08T18:32:14.607329,0.450,9.300,55.950,-55.0,0.400,-0.500,181.080,1000.0
2025-09-08T18:32:14.609329,0.450,9.300,55.940,-55.0,0.400,-0.500,181.080,1000.0
2025-09-08T18:32:14.637392,0.450,9.300,55.940,-55.0,0.400,-0.500,181.080,1000.0
2025-09-08T18:32:14.638389,0.450,9.310,55.940,-55.0,0.400,-0.500,181.080,1000.0
2025-09-08T18:32:14.667462,0.450,9.310,55.940,-55.0,0.400,-0.500,181.080,1000.0
2025-09-08T18:32:14.697462,0.450,9.310,55.940,-55.0,0.400,-0.500,181.080,1000.0
2025-09-08T18:32:14.698466,0.450,9.310,55.940,-55.0,0.400,-0.500,181.080,1000.0
2025-09-08T18:32:14.741319,0.450,9.310,55.940,-55.0,0.400,-0.500,181.080,1000.0
2025-09-08T18:32:14.743321,0.450,9.310,55.940,-55.0,0.400,-0.500,181.080,1000.0
2025-09-08T18:32:14.772320,0.450,9.310,55.940,-55.0,0.400,-0.500,181.080,1000.0
2025-09-08T18:32:14.801319,0.450,9.310,55.940,-55.0,0.400,-0.500,181.080,1000.0
2025-09-08T18:32:14.803319,0.450,9.310,55.940,-55.0,0.400,-0.500,181.080,1000.0
2025-09-08T18:32:14.832320,0.460,9.300,55.930,-55.0,0.400,-0.500,181.080,1000.0
2025-09-08T18:32:14.847335,0.450,9.300,55.930,-55.0,0.400,-0.500,181.080,1000.0
2025-09-08T18:32:14.861327,0.460,9.300,55.940,-55.0,0.400,-0.500,181.080,1000.0
2025-09-08T18:32:14.907322,0.450,9.300,55.940,-55.0,0.400,-0.500,181.080,1000.0
2025-09-08T18:32:14.908320,0.450,9.300,55.930,-55.0,0.400,-0.500,181.080,1000.0
2025-09-08T18:32:14.951319,0.460,9.290,55.930,-55.0,0.400,-0.500,181.080,1000.0
2025-09-08T18:32:14.953319,0.450,9.290,55.930,-55.0,0.400,-0.500,181.080,1000.0
2025-09-08T18:32:14.982319,0.450,9.290,55.940,-55.0,0.400,-0.500,181.080,1000.0
2025-09-08T18:32:15.012319,0.450,9.300,55.940,-55.0,0.400,-0.500,181.080,1000.0
2025-09-08T18:32:15.013320,0.450,9.300,55.940,-55.0,0.400,-0.500,181.080,1000.0
2025-09-08T18:32:15.042323,0.450,9.300,55.940,-55.0,0.400,-0.500,181.080,1000.0
2025-09-08T18:32:15.043319,0.450,9.300,55.940,-55.0,0.400,-0.500,181.080,1000.0
2025-09-08T18:32:15.072320,0.450,9.300,55.940,-55.0,0.400,-0.500,181.080,1000.0
2025-09-08T18:32:15.102320,0.450,9.300,55.940,-55.0,0.400,-0.500,181.080,1000.0
2025-09-08T18:32:15.104321,0.450,9.300,55.930,-55.0,0.400,-0.500,181.080,1000.0
2025-09-08T18:32:15.132938,0.450,9.300,55.940,-55.0,0.400,-0.500,181.080,1000.0
2025-09-08T18:32:15.134939,0.450,9.300,55.940,-55.0,0.400,-0.500,181.080,1000.0
2025-09-08T18:32:15.161667,0.440,9.300,55.940,-55.0,0.400,-0.500,181.080,1000.0
2025-09-08T18:32:15.207754,0.440,9.300,55.940,-55.0,0.400,-0.500,181.080,1000.0
2025-09-08T18:32:15.209754,0.450,9.310,55.940,-55.0,0.400,-0.500,181.080,1000.0
2025-09-08T18:32:15.253064,0.450,9.310,55.940,-55.0,0.400,-0.500,181.080,1000.0
2025-09-08T18:32:15.255066,0.450,9.310,55.940,-55.0,0.400,-0.500,181.080,1000.0
2025-09-08T18:32:15.258065,0.450,9.310,55.940,-55.0,0.400,-0.500,181.080,1000.0
2025-09-08T18:32:15.313054,0.450,9.310,55.940,-55.0,0.400,-0.500,181.080,1000.0
2025-09-08T18:32:15.315056,0.450,9.310,55.940,-55.0,0.400,-0.500,181.080,1000.0
2025-09-08T18:32:15.343055,0.440,9.300,55.940,-55.0,0.400,-0.500,181.080,1000.0
2025-09-08T18:32:15.344054,0.450,9.310,55.940,-55.0,0.400,-0.500,181.080,1000.0
2025-09-08T18:32:15.373584,0.440,9.300,55.940,-55.0,0.400,-0.500,181.080,1000.0
2025-09-08T18:32:15.375572,0.440,9.310,55.940,-55.0,0.400,-0.500,181.080,1000.0
2025-09-08T18:32:15.403940,0.440,9.310,55.940,-55.0,0.400,-0.500,181.080,1000.0
2025-09-08T18:32:15.433894,0.440,9.310,55.940,-55.0,0.400,-0.500,181.080,1000.0
2025-09-08T18:32:15.435893,0.440,9.320,55.940,-55.0,0.400,-0.500,181.080,1000.0
2025-09-08T18:32:15.479224,0.430,9.310,55.940,-55.0,0.400,-0.500,181.080,1000.0
2025-09-08T18:32:15.484225,0.430,9.310,55.940,-55.0,0.400,-0.500,181.080,1000.0
2025-09-08T18:32:15.509225,0.430,9.310,55.940,-55.0,0.400,-0.500,181.080,1000.0
2025-09-08T18:32:15.539386,0.430,9.310,55.940,-55.0,0.400,-0.500,181.080,1000.0
2025-09-08T18:32:15.540386,0.420,9.310,55.940,-55.0,0.400,-0.500,181.080,1000.0
2025-09-08T18:32:15.569968,0.420,9.310,55.940,-55.0,0.400,-0.500,181.080,1000.0
2025-09-08T18:32:15.583975,0.420,9.310,55.940,-55.0,0.400,-0.500,181.080,1000.0
2025-09-08T18:32:15.599966,0.420,9.310,55.940,-55.0,0.400,-0.500,181.080,1000.0
2025-09-08T18:32:15.645155,0.420,9.310,55.940,-55.0,0.400,-0.500,181.080,1000.0
2025-09-08T18:32:15.647158,0.420,9.310,55.940,-55.0,0.400,-0.500,181.080,1000.0
2025-09-08T18:32:15.675157,0.420,9.310,55.940,-55.0,0.400,-0.500,181.080,1000.0
2025-09-08T18:32:15.677156,0.430,9.310,55.940,-55.0,0.400,-0.500,181.080,1000.0
2025-09-08T18:32:15.720325,0.430,9.310,55.940,-55.0,0.400,-0.500,181.080,1000.0
2025-09-08T18:32:15.751301,0.430,9.310,55.940,-55.0,0.400,-0.500,181.080,1000.0
2025-09-08T18:32:15.753301,0.430,9.310,55.940,-55.0,0.400,-0.500,181.080,1000.0
2025-09-08T18:32:15.781847,0.430,9.310,55.940,-55.0,0.400,-0.500,181.080,1000.0
2025-09-08T18:32:15.785845,0.430,9.310,55.940,-55.0,0.400,-0.500,181.080,1000.0
2025-09-08T18:32:15.811934,0.430,9.310,55.940,-55.0,0.400,-0.500,181.080,1000.0
2025-09-08T18:32:15.842307,0.430,9.310,55.940,-55.0,0.400,-0.500,181.080,1000.0
2025-09-08T18:32:15.843305,0.430,9.300,55.940,-55.0,0.400,-0.500,181.080,1000.0
2025-09-08T18:32:15.872306,0.430,9.300,55.940,-55.0,0.400,-0.500,181.080,1000.0
2025-09-08T18:32:15.873305,0.430,9.300,55.940,-55.0,0.400,-0.500,181.080,1000.0
2025-09-08T18:32:15.902309,0.430,9.300,55.940,-55.0,0.400,-0.500,181.080,1000.0
2025-09-08T18:32:15.932979,0.420,9.300,55.940,-55.0,0.400,-0.500,181.080,1000.0
2025-09-08T18:32:15.948350,0.420,9.310,55.940,-55.0,0.400,-0.500,181.080,1000.0
2025-09-08T18:32:15.978131,0.420,9.310,55.940,-55.0,0.400,-0.500,181.080,1000.0
2025-09-08T18:32:15.981132,0.420,9.310,55.940,-55.0,0.400,-0.500,181.080,1000.0
2025-09-08T18:32:16.023607,0.420,9.300,55.940,-55.0,0.400,-0.500,181.080,1000.0
2025-09-08T18:32:16.053727,0.430,9.300,55.940,-55.0,0.400,-0.500,181.080,1000.0
2025-09-08T18:32:16.055725,0.430,9.300,55.940,-55.0,0.400,-0.500,181.080,1000.0
2025-09-08T18:32:16.084815,0.430,9.300,55.940,-55.0,0.400,-0.500,181.080,1000.0
2025-09-08T18:32:16.085814,0.430,9.300,55.940,-55.0,0.400,-0.500,181.080,1000.0
2025-09-08T18:32:16.113450,0.430,9.300,55.940,-55.0,0.400,-0.500,181.080,1000.0
2025-09-08T18:32:16.143460,0.430,9.300,55.940,-55.0,0.400,-0.500,181.080,1000.0
2025-09-08T18:32:16.145465,0.430,9.310,55.940,-55.0,0.400,-0.500,181.080,1000.0
2025-09-08T18:32:16.173964,0.430,9.310,55.940,-55.0,0.400,-0.500,181.080,1000.0
2025-09-08T18:32:16.174964,0.430,9.310,55.940,-55.0,0.400,-0.500,181.080,1000.0
2025-09-08T18:32:16.203969,0.430,9.310,55.940,-55.0,0.400,-0.500,181.080,1000.0
2025-09-08T18:32:16.234306,0.430,9.310,55.940,-55.0,0.400,-0.500,181.080,1000.0
2025-09-08T18:32:16.264570,0.430,9.310,55.940,-55.0,0.400,-0.500,181.080,1000.0
2025-09-08T18:32:16.269571,0.440,9.300,55.940,-55.0,0.400,-0.500,181.080,1000.0
2025-09-08T18:32:16.270571,0.440,9.300,55.940,-55.0,0.400,-0.500,181.080,1000.0
2025-09-08T18:32:16.309576,0.440,9.300,55.940,-55.0,0.400,-0.500,181.080,1000.0
2025-09-08T18:32:16.354852,0.440,9.300,55.940,-55.0,0.400,-0.500,181.080,1000.0
2025-09-08T18:32:16.355861,0.440,9.300,55.940,-55.0,0.400,-0.500,181.080,1000.0
2025-09-08T18:32:16.385174,0.440,9.300,55.940,-55.0,0.400,-0.500,181.080,1000.0
2025-09-08T18:32:16.387174,0.440,9.300,55.940,-55.0,0.400,-0.500,181.080,1000.0
2025-09-08T18:32:16.414913,0.440,9.300,55.940,-55.0,0.400,-0.500,181.080,1000.0
2025-09-08T18:32:16.444572,0.440,9.300,55.940,-55.0,0.400,-0.500,181.080,1000.0
2025-09-08T18:32:16.446580,0.440,9.300,55.940,-55.0,0.400,-0.500,181.080,1000.0
2025-09-08T18:32:16.474571,0.440,9.300,55.940,-55.0,0.400,-0.500,181.080,1000.0
2025-09-08T18:32:16.475572,0.440,9.300,55.940,-55.0,0.400,-0.500,181.080,1000.0
2025-09-08T18:32:16.519488,0.440,9.300,55.940,-55.0,0.400,-0.500,181.080,1000.0
2025-09-08T18:32:16.521488,0.440,9.300,55.940,-55.0,0.400,-0.500,181.080,1000.0
2025-09-08T18:32:16.550150,0.450,9.310,55.940,-55.0,0.400,-0.500,181.080,1000.0
2025-09-08T18:32:16.580215,0.450,9.310,55.940,-55.0,0.400,-0.500,181.080,1000.0
2025-09-08T18:32:16.583213,0.450,9.310,55.940,-55.0,0.400,-0.500,181.080,1000.0
2025-09-08T18:32:16.610374,0.450,9.310,55.940,-55.0,0.400,-0.500,181.080,1000.0
2025-09-08T18:32:16.612375,0.450,9.310,55.940,-55.0,0.400,-0.500,181.080,1000.0
2025-09-08T18:32:16.655925,0.450,9.310,55.940,-55.0,0.400,-0.500,181.080,1000.0
2025-09-08T18:32:16.685915,0.450,9.310,55.940,-55.0,0.400,-0.500,181.080,1000.0
2025-09-08T18:32:16.687913,0.450,9.310,55.940,-55.0,0.400,-0.500,181.080,1000.0
2025-09-08T18:32:16.715915,0.450,9.310,55.940,-54.9,0.400,-0.500,181.080,1000.0
2025-09-08T18:32:16.717917,0.450,9.310,55.940,-55.0,0.400,-0.500,181.080,1000.0
2025-09-08T18:32:16.760916,0.450,9.310,55.940,-54.9,0.400,-0.500,181.080,1000.0
2025-09-08T18:32:16.790916,0.450,9.310,55.940,-54.9,0.400,-0.500,181.080,1000.0
2025-09-08T18:32:16.791914,0.450,9.310,55.940,-54.9,0.400,-0.500,181.080,1000.0
2025-09-08T18:32:16.820914,0.450,9.310,55.940,-54.9,0.400,-0.500,181.080,1000.0
2025-09-08T18:32:16.822915,0.450,9.310,55.940,-54.9,0.400,-0.500,181.080,1000.0
2025-09-08T18:32:16.850915,0.450,9.310,55.940,-54.9,0.400,-0.500,181.080,1000.0
2025-09-08T18:32:16.881473,0.450,9.310,55.940,-54.9,0.400,-0.500,181.080,1000.0
2025-09-08T18:32:16.884475,0.450,9.310,55.940,-54.9,0.400,-0.500,181.080,1000.0
2025-09-08T18:32:16.911473,0.450,9.310,55.940,-55.0,0.400,-0.500,181.080,1000.0
2025-09-08T18:32:16.912474,0.450,9.310,55.940,-55.0,0.400,-0.500,181.080,1000.0
2025-09-08T18:32:16.941474,0.450,9.310,55.940,-55.0,0.400,-0.500,181.080,1000.0
2025-09-08T18:32:16.971474,0.450,9.310,55.940,-55.0,0.400,-0.500,181.080,1000.0
2025-09-08T18:32:17.000471,0.450,9.310,55.940,-55.0,0.400,-0.500,181.080,1000.0
2025-09-08T18:32:17.002473,0.450,9.310,55.940,-55.0,0.400,-0.500,181.080,1000.0
2025-09-08T18:32:17.031373,0.450,9.310,55.940,-55.0,0.400,-0.500,181.080,1000.0
2025-09-08T18:32:17.061035,0.450,9.310,55.940,-55.0,0.400,-0.500,181.080,1000.0
2025-09-08T18:32:17.091835,0.440,9.310,55.940,-55.0,0.400,-0.500,181.080,1000.0
2025-09-08T18:32:17.093833,0.440,9.310,55.940,-55.0,0.400,-0.500,181.080,1000.0
2025-09-08T18:32:17.121834,0.440,9.310,55.940,-55.0,0.400,-0.500,181.080,1000.0
2025-09-08T18:32:17.123835,0.440,9.310,55.940,-55.0,0.400,-0.500,181.080,1000.0
2025-09-08T18:32:17.152283,0.440,9.300,55.940,-55.0,0.400,-0.500,181.080,1000.0
2025-09-08T18:32:17.182468,0.440,9.300,55.940,-55.0,0.400,-0.500,181.080,1000.0
2025-09-08T18:32:17.185460,0.440,9.300,55.940,-55.0,0.400,-0.500,181.080,1000.0
2025-09-08T18:32:17.212076,0.440,9.300,55.940,-55.0,0.400,-0.500,181.080,1000.0
2025-09-08T18:32:17.213075,0.440,9.300,55.940,-55.0,0.400,-0.500,181.080,1000.0
2025-09-08T18:32:17.256784,0.440,9.300,55.940,-55.0,0.400,-0.500,181.080,1000.0
2025-09-08T18:32:17.287369,0.440,9.300,55.940,-55.0,0.400,-0.500,181.080,1000.0
2025-09-08T18:32:17.288368,0.440,9.300,55.940,-55.0,0.400,-0.500,181.080,1000.0
2025-09-08T18:32:17.317913,0.440,9.300,55.940,-55.0,0.400,-0.500,181.080,1000.0
2025-09-08T18:32:17.332922,0.440,9.300,55.940,-55.0,0.400,-0.500,181.080,1000.0
2025-09-08T18:32:17.347951,0.440,9.300,55.940,-55.0,0.400,-0.500,181.080,1000.0
2025-09-08T18:32:17.393272,0.440,9.300,55.940,-55.0,0.400,-0.500,181.080,1000.0
2025-09-08T18:32:17.395271,0.450,9.310,55.940,-55.0,0.400,-0.500,181.080,1000.0
2025-09-08T18:32:17.423450,0.450,9.310,55.940,-55.0,0.400,-0.500,181.080,1000.0
2025-09-08T18:32:17.424451,0.450,9.310,55.940,-55.0,0.400,-0.500,181.080,1000.0
2025-09-08T18:32:17.454121,0.450,9.310,55.940,-55.0,0.400,-0.500,181.080,1000.0
2025-09-08T18:32:17.458122,0.450,9.310,55.940,-55.0,0.400,-0.500,181.080,1000.0
2025-09-08T18:32:17.484928,0.450,9.310,55.940,-55.0,0.400,-0.500,181.080,1000.0
2025-09-08T18:32:17.528928,0.450,9.310,55.940,-55.0,0.400,-0.500,181.080,1000.0
2025-09-08T18:32:17.530929,0.450,9.310,55.940,-55.0,0.400,-0.500,181.080,1000.0
2025-09-08T18:32:17.558930,0.450,9.310,55.940,-55.0,0.400,-0.500,181.080,1000.0
2025-09-08T18:32:17.562928,0.450,9.310,55.940,-55.0,0.400,-0.500,181.080,1000.0
2025-09-08T18:32:17.588932,0.450,9.310,55.940,-55.0,0.400,-0.500,181.080,1000.0
2025-09-08T18:32:17.618998,0.450,9.310,55.940,-55.0,0.400,-0.500,181.080,1000.0
2025-09-08T18:32:17.621002,0.450,9.310,55.940,-55.0,0.400,-0.500,181.080,1000.0
2025-09-08T18:32:17.649131,0.450,9.310,55.940,-55.0,0.400,-0.500,181.080,1000.0
2025-09-08T18:32:17.668128,0.450,9.310,55.940,-55.0,0.400,-0.500,181.080,1000.0
2025-09-08T18:32:17.679140,0.450,9.310,55.940,-55.0,0.400,-0.500,181.080,1000.0
2025-09-08T18:32:17.724519,0.450,9.310,55.940,-55.0,0.400,-0.500,181.080,1000.0
2025-09-08T18:32:17.726530,0.450,9.310,55.940,-55.0,0.400,-0.500,181.080,1000.0
2025-09-08T18:32:17.768911,0.450,9.310,55.940,-55.0,0.400,-0.500,181.080,1000.0
2025-09-08T18:32:17.772916,0.450,9.310,55.940,-55.0,0.400,-0.500,181.080,1000.0
2025-09-08T18:32:17.800053,0.440,9.300,55.940,-55.0,0.400,-0.500,181.080,1000.0
2025-09-08T18:32:17.829682,0.450,9.300,55.940,-55.0,0.400,-0.500,181.080,1000.0
2025-09-08T18:32:17.832684,0.440,9.290,55.940,-55.0,0.400,-0.500,181.080,1000.0
2025-09-08T18:32:17.859683,0.440,9.280,55.940,-54.9,0.400,-0.500,181.080,1000.0
2025-09-08T18:32:17.862683,0.440,9.280,55.940,-55.0,0.400,-0.500,181.080,1000.0
2025-09-08T18:32:17.889052,0.430,9.280,55.940,-55.0,0.400,-0.500,181.080,1000.0
2025-09-08T18:32:17.920664,0.430,9.280,55.940,-55.0,0.400,-0.500,181.080,1000.0
2025-09-08T18:32:17.922667,0.430,9.290,55.940,-55.0,0.400,-0.500,181.080,1000.0
2025-09-08T18:32:17.950547,0.430,9.290,55.940,-55.0,0.400,-0.500,181.080,1000.0
2025-09-08T18:32:17.954544,0.420,9.290,55.940,-55.0,0.400,-0.500,181.080,1000.0
2025-09-08T18:32:17.980376,0.420,9.290,55.940,-55.0,0.400,-0.500,181.080,1000.0
2025-09-08T18:32:18.025840,0.420,9.300,55.940,-55.0,0.400,-0.500,181.080,1000.0
2025-09-08T18:32:18.026840,0.420,9.300,55.940,-55.0,0.400,-0.500,181.080,1000.0
2025-09-08T18:32:18.071431,0.420,9.300,55.940,-55.0,0.400,-0.500,181.080,1000.0
2025-09-08T18:32:18.075433,0.420,9.300,55.940,-54.9,0.400,-0.500,181.080,1000.0
2025-09-08T18:32:18.077434,0.420,9.310,55.940,-55.0,0.400,-0.500,181.080,1000.0
2025-09-08T18:32:18.132170,0.420,9.300,55.940,-54.9,0.400,-0.500,181.080,1000.0
2025-09-08T18:32:18.134170,0.410,9.250,55.940,-55.0,0.400,-0.500,181.080,1000.0
2025-09-08T18:32:18.161167,0.420,9.220,55.940,-55.0,0.400,-0.500,181.080,1000.0
2025-09-08T18:32:18.166169,0.430,9.220,55.930,-54.9,0.400,-0.500,181.080,1000.0
2025-09-08T18:32:18.192171,0.460,9.250,55.940,-54.9,0.400,-0.500,181.080,1000.0
2025-09-08T18:32:18.222172,0.450,9.290,55.940,-54.9,0.400,-0.500,181.080,1000.0
2025-09-08T18:32:18.223172,0.430,9.330,55.950,-54.9,0.400,-0.500,181.080,1000.0
2025-09-08T18:32:18.252171,0.430,9.340,55.950,-54.9,0.400,-0.500,181.080,1000.0
2025-09-08T18:32:18.256171,0.420,9.310,55.950,-54.9,0.400,-0.500,181.080,1000.0
2025-09-08T18:32:18.297171,0.440,9.300,55.950,-54.9,0.400,-0.500,181.080,1000.0
2025-09-08T18:32:18.326171,0.450,9.270,55.950,-54.9,0.400,-0.500,181.080,1000.0
2025-09-08T18:32:18.328172,0.460,9.250,55.940,-54.9,0.400,-0.500,181.080,1000.0
2025-09-08T18:32:18.356171,0.450,9.270,55.940,-54.9,0.400,-0.500,181.080,1000.0
2025-09-08T18:32:18.372171,0.450,9.280,55.950,-54.9,0.400,-0.500,181.080,1000.0
2025-09-08T18:32:18.386172,0.450,9.290,55.930,-54.9,0.400,-0.500,181.080,1000.0
2025-09-08T18:32:18.417172,0.460,9.320,55.930,-54.9,0.400,-0.500,181.080,1000.0
2025-09-08T18:32:18.432175,0.450,9.320,55.930,-54.9,0.400,-0.500,181.080,1000.0
2025-09-08T18:32:18.461171,0.450,9.320,55.930,-54.9,0.400,-0.500,181.080,1000.0
2025-09-08T18:32:18.465174,0.440,9.310,55.940,-54.9,0.400,-0.500,181.080,1000.0
2025-09-08T18:32:18.492171,0.440,9.280,55.940,-54.9,0.400,-0.500,181.080,1000.0
2025-09-08T18:32:18.537171,0.450,9.280,55.950,-54.9,0.400,-0.500,181.080,1000.0
2025-09-08T18:32:18.539171,0.420,9.260,55.930,-54.9,0.400,-0.500,181.080,1000.0
2025-09-08T18:32:18.567172,0.440,9.200,55.900,-54.9,0.400,-0.500,181.080,1000.0
2025-09-08T18:32:18.573173,0.430,9.130,55.910,-54.9,0.400,-0.500,181.080,1000.0
2025-09-08T18:32:18.597171,0.380,9.030,55.880,-54.9,0.400,-0.500,181.080,1000.0
2025-09-08T18:32:18.598172,0.260,8.760,55.660,-55.0,0.400,-0.500,181.080,1000.0
2025-09-08T18:32:18.627172,0.110,8.500,55.320,-55.0,0.400,-0.500,181.080,1000.0
2025-09-08T18:32:18.657170,-0.110,8.140,54.770,-55.0,0.400,-0.500,181.080,1000.0
2025-09-08T18:32:18.672171,-0.340,7.660,54.010,-55.0,0.400,-0.500,181.080,1000.0
2025-09-08T18:32:18.687170,-0.350,7.140,53.390,-55.0,0.400,-0.500,181.080,1000.0
2025-09-08T18:32:18.688172,-0.210,6.580,52.920,-55.0,0.400,-0.500,181.080,1000.0
2025-09-08T18:32:18.717458,-0.010,5.950,52.540,-55.0,0.400,-0.500,181.080,1000.0
2025-09-08T18:32:18.747757,0.280,5.240,52.240,-54.9,0.400,-0.500,181.080,1000.0
2025-09-08T18:32:18.783107,0.790,4.320,51.850,-54.9,0.400,-0.500,181.080,1000.0
2025-09-08T18:32:18.808854,1.370,3.540,51.500,-54.9,0.400,-0.500,181.080,1000.0
2025-09-08T18:32:18.809842,1.930,2.880,51.170,-54.9,0.400,-0.500,181.080,1000.0
2025-09-08T18:32:18.837959,2.560,2.250,50.750,-54.9,0.400,-0.500,181.080,1000.0
2025-09-08T18:32:18.868837,3.190,1.680,50.190,-54.9,0.400,-0.500,181.080,1000.0
2025-09-08T18:32:18.872837,3.770,1.310,49.660,-54.9,0.400,-0.500,181.080,1000.0
2025-09-08T18:32:18.898839,4.360,1.110,49.090,-54.9,0.400,-0.500,181.080,1000.0
2025-09-08T18:32:18.900838,4.850,0.990,48.420,-54.9,0.400,-0.500,181.080,1000.0
2025-09-08T18:32:18.928921,5.230,0.950,47.630,-54.9,0.400,-0.500,181.080,1000.0
2025-09-08T18:32:18.959443,5.560,0.990,46.880,-54.9,0.400,-0.500,181.080,1000.0
2025-09-08T18:32:18.963444,5.940,1.110,45.860,-54.9,0.400,-0.500,181.080,1000.0
2025-09-08T18:32:18.990445,6.130,1.200,44.860,-54.9,0.400,-0.500,181.080,1000.0
2025-09-08T18:32:18.992446,6.240,1.250,43.720,-54.9,0.400,-0.500,181.080,1000.0
2025-09-08T18:32:19.034740,6.370,1.290,42.440,-55.0,0.400,-0.500,181.080,1000.0
2025-09-08T18:32:19.065179,6.500,1.290,41.100,-55.0,0.400,-0.500,181.080,1000.0
2025-09-08T18:32:19.070178,6.650,1.270,39.680,-55.0,0.400,-0.500,181.080,1000.0
2025-09-08T18:32:19.095166,6.850,1.180,38.170,-55.0,0.400,-0.500,181.080,1000.0
2025-09-08T18:32:19.096171,7.110,1.040,36.530,-55.0,0.400,-0.500,181.080,1000.0
2025-09-08T18:32:19.124871,7.380,0.870,34.760,-55.0,0.400,-0.500,181.080,1000.0
2025-09-08T18:32:19.171129,7.680,0.680,32.900,-55.0,0.400,-0.500,181.080,1000.0
2025-09-08T18:32:19.174127,8.060,0.510,31.010,-55.0,0.400,-0.500,181.080,1000.0
2025-09-08T18:32:19.201455,8.500,0.320,29.010,-55.0,0.400,-0.500,181.080,1000.0
2025-09-08T18:32:19.202455,8.920,0.080,26.790,-55.0,0.400,-0.500,181.080,1000.0
2025-09-08T18:32:19.232052,9.250,-0.200,24.310,-55.0,0.400,-0.500,181.080,1000.0
2025-09-08T18:32:19.262413,9.490,-0.610,21.610,-55.0,0.400,-0.500,181.080,1000.0
2025-09-08T18:32:19.267412,9.730,-1.110,18.930,-55.0,0.400,-0.500,181.080,1000.0
2025-09-08T18:32:19.292413,9.990,-1.670,16.310,-55.0,0.400,-0.500,181.080,1000.0
2025-09-08T18:32:19.294412,10.210,-2.220,14.080,-55.0,0.400,-0.500,181.080,1000.0
2025-09-08T18:32:19.337901,10.430,-2.870,11.630,-55.0,0.400,-0.500,181.080,1000.0
2025-09-08T18:32:19.368096,10.590,-3.470,9.110,-55.0,0.400,-0.500,181.080,1000.0
2025-09-08T18:32:19.372094,10.660,-3.870,7.150,-55.0,0.400,-0.500,181.080,1000.0
2025-09-08T18:32:19.398407,10.630,-4.140,5.470,-55.0,0.400,-0.500,181.080,1000.0
2025-09-08T18:32:19.400414,10.450,-4.280,4.000,-55.0,0.400,-0.500,181.080,1000.0
2025-09-08T18:32:19.428213,10.110,-4.340,2.690,-55.0,0.400,-0.500,181.080,1000.0
2025-09-08T18:32:19.473583,9.800,-4.310,1.800,-55.0,0.400,-0.500,181.080,1000.0
2025-09-08T18:32:19.478483,9.320,-4.170,0.550,-55.0,0.400,-0.500,181.080,1000.0
2025-09-08T18:32:19.503484,8.780,-3.930,359.330,-55.0,0.400,-0.500,181.080,1000.0
2025-09-08T18:32:19.505485,8.200,-3.630,358.130,-55.0,0.400,-0.500,181.080,1000.0
2025-09-08T18:32:19.535046,7.590,-3.280,356.730,-55.0,0.400,-0.500,181.080,1000.0
2025-09-08T18:32:19.565752,7.020,-2.850,355.150,-55.1,0.400,-0.500,181.080,1000.0
2025-09-08T18:32:19.570754,6.490,-2.380,353.420,-55.1,0.400,-0.500,181.080,1000.0
2025-09-08T18:32:19.610961,6.070,-1.980,351.810,-55.1,0.400,-0.500,181.080,1000.0
2025-09-08T18:32:19.611961,5.700,-1.530,349.610,-55.1,0.400,-0.500,181.080,1000.0
2025-09-08T18:32:19.640762,5.590,-1.190,347.640,-55.1,0.400,-0.500,181.080,1000.0
2025-09-08T18:32:19.671129,5.700,-0.890,345.740,-55.1,0.400,-0.500,181.080,1000.0
2025-09-08T18:32:19.674129,5.950,-0.590,343.910,-55.1,0.400,-0.500,181.080,1000.0
2025-09-08T18:32:19.701131,6.180,-0.280,342.120,-55.1,0.400,-0.500,181.080,1000.0
2025-09-08T18:32:19.703134,6.360,0.030,340.380,-55.1,0.400,-0.500,181.080,1000.0
2025-09-08T18:32:19.731621,6.490,0.340,338.940,-55.1,0.400,-0.500,181.080,1000.0
2025-09-08T18:32:19.733623,6.590,0.760,337.270,-55.1,0.400,-0.500,181.080,1000.0
2025-09-08T18:32:19.761566,6.530,1.170,335.920,-55.1,0.400,-0.500,181.080,1000.0
2025-09-08T18:32:19.792842,6.270,1.560,334.630,-55.1,0.400,-0.500,181.080,1000.0
2025-09-08T18:32:19.807843,5.870,1.940,333.410,-55.1,0.400,-0.500,181.080,1000.0
2025-09-08T18:32:19.822842,5.490,2.310,332.320,-55.1,0.400,-0.500,181.080,1000.0
2025-09-08T18:32:19.836842,5.210,2.690,331.390,-55.1,0.400,-0.500,181.080,1000.0
2025-09-08T18:32:19.882843,5.030,3.110,312.770,-55.1,0.400,-0.500,181.080,1000.0
2025-09-08T18:32:19.915842,5.000,3.490,299.690,-55.1,0.400,-0.500,181.080,1000.0
2025-09-08T18:32:19.917842,5.150,3.860,298.820,-55.1,0.400,-0.500,181.080,1000.0
2025-09-08T18:32:19.942843,5.360,4.190,298.000,-55.2,0.400,-0.500,181.080,1000.0
2025-09-08T18:32:19.944842,5.630,4.620,296.920,-55.2,0.400,-0.500,181.080,1000.0
2025-09-08T18:32:19.972842,5.830,5.000,295.980,-55.2,0.400,-0.500,181.080,1000.0
2025-09-08T18:32:20.002844,6.010,5.330,295.270,-55.2,0.400,-0.500,181.080,1000.0
2025-09-08T18:32:20.003842,6.160,5.670,294.790,-55.2,0.400,-0.500,181.080,1000.0
2025-09-08T18:32:20.032843,6.220,5.970,294.510,-55.2,0.400,-0.500,181.080,1000.0
2025-09-08T18:32:20.034843,6.280,6.210,294.420,-55.2,0.400,-0.500,181.080,1000.0
2025-09-08T18:32:20.062843,6.340,6.410,294.520,-55.2,0.400,-0.500,181.080,1000.0
2025-09-08T18:32:20.092843,6.390,6.570,294.770,-55.2,0.400,-0.500,181.080,1000.0
2025-09-08T18:32:20.093841,6.390,6.680,295.210,-55.2,0.400,-0.500,181.080,1000.0
2025-09-08T18:32:20.137841,6.370,6.760,295.870,-55.2,0.400,-0.500,181.080,1000.0
2025-09-08T18:32:20.152842,6.370,6.870,296.800,-55.2,0.400,-0.500,181.080,1000.0
2025-09-08T18:32:20.156842,6.370,6.990,297.970,-55.1,0.400,-0.500,181.080,1000.0
2025-09-08T18:32:20.212841,6.360,7.090,299.330,-55.1,0.400,-0.500,181.080,1000.0
2025-09-08T18:32:20.214851,6.340,7.140,300.920,-55.1,0.400,-0.500,181.080,1000.0
2025-09-08T18:32:20.243346,6.290,7.120,302.640,-55.1,0.400,-0.500,181.080,1000.0
2025-09-08T18:32:20.244347,6.190,7.030,304.500,-55.1,0.400,-0.500,181.080,1000.0
2025-09-08T18:32:20.273359,6.100,6.880,306.520,-55.1,0.400,-0.500,181.080,1000.0
2025-09-08T18:32:20.303805,6.010,6.690,308.700,-55.1,0.400,-0.500,181.080,1000.0
2025-09-08T18:32:20.304805,5.880,6.480,310.970,-55.1,0.400,-0.500,181.080,1000.0
2025-09-08T18:32:20.333831,5.730,6.250,313.330,-55.2,0.400,-0.500,181.080,1000.0
2025-09-08T18:32:20.334831,5.600,6.010,315.780,-55.2,0.400,-0.500,181.080,1000.0
2025-09-08T18:32:20.379141,5.480,5.680,318.320,-55.2,0.400,-0.500,181.080,1000.0
2025-09-08T18:32:20.409555,5.370,5.230,320.920,-55.2,0.400,-0.500,181.080,1000.0
2025-09-08T18:32:20.411557,5.450,4.720,323.580,-55.2,0.400,-0.500,181.080,1000.0
2025-09-08T18:32:20.439555,5.820,4.170,326.370,-55.2,0.400,-0.500,181.080,1000.0
2025-09-08T18:32:20.440565,6.180,3.580,329.160,-55.2,0.400,-0.500,181.080,1000.0
2025-09-08T18:32:20.469422,6.400,3.010,331.440,-55.2,0.400,-0.500,181.080,1000.0
2025-09-08T18:32:20.499443,6.700,2.370,333.870,-55.2,0.400,-0.500,181.080,1000.0
2025-09-08T18:32:20.501429,7.170,1.740,336.310,-55.2,0.400,-0.500,181.080,1000.0
2025-09-08T18:32:20.544212,7.590,1.250,338.240,-55.2,0.400,-0.500,181.080,1000.0
2025-09-08T18:32:20.546219,8.150,0.750,340.250,-55.2,0.400,-0.500,181.080,1000.0
2025-09-08T18:32:20.560216,8.660,0.440,341.740,-55.2,0.400,-0.500,181.080,1000.0
2025-09-08T18:32:20.605659,9.250,0.320,343.340,-55.2,0.400,-0.500,181.080,1000.0
2025-09-08T18:32:20.606657,9.870,0.420,344.950,-55.2,0.400,-0.500,181.080,1000.0
2025-09-08T18:32:20.651255,10.290,0.650,346.250,-55.2,0.400,-0.500,181.080,1000.0
2025-09-08T18:32:20.653268,10.520,0.870,347.380,-55.2,0.400,-0.500,181.080,1000.0
2025-09-08T18:32:20.681256,10.710,1.190,348.760,-55.2,0.400,-0.500,181.080,1000.0
2025-09-08T18:32:20.684256,10.900,1.540,350.530,-55.2,0.400,-0.500,181.080,1000.0
2025-09-08T18:32:20.711254,11.000,1.800,352.270,-55.2,0.400,-0.500,181.080,1000.0
2025-09-08T18:32:20.740253,11.060,2.020,354.170,-55.2,0.400,-0.500,181.080,1000.0
2025-09-08T18:32:20.742256,11.100,2.170,355.900,-55.2,0.400,-0.500,181.080,1000.0
2025-09-08T18:32:20.770254,11.110,2.360,357.900,-55.2,0.400,-0.500,181.080,1000.0
2025-09-08T18:32:20.801253,11.090,2.610,359.840,-55.2,0.400,-0.500,181.080,1000.0
2025-09-08T18:32:20.803257,11.070,2.930,1.740,-55.2,0.400,-0.500,181.080,1000.0
2025-09-08T18:32:20.831255,11.050,3.270,3.620,-55.1,0.400,-0.500,181.080,1000.0
2025-09-08T18:32:20.834256,11.030,3.680,5.710,-55.1,0.400,-0.500,181.080,1000.0
2025-09-08T18:32:20.876256,10.870,4.120,7.420,-55.1,0.400,-0.500,181.080,1000.0
2025-09-08T18:32:20.879254,10.500,4.600,8.920,-55.1,0.400,-0.500,181.080,1000.0
2025-09-08T18:32:20.906258,10.010,5.040,10.130,-55.1,0.400,-0.500,181.080,1000.0
2025-09-08T18:32:20.951256,9.240,5.650,11.690,-55.1,0.400,-0.500,181.080,1000.0
2025-09-08T18:32:20.952254,8.460,6.200,13.270,-55.1,0.400,-0.500,181.080,1000.0
2025-09-08T18:32:20.981266,7.650,6.690,15.060,-55.1,0.400,-0.500,181.080,1000.0
2025-09-08T18:32:20.984256,6.820,7.140,17.130,-55.1,0.400,-0.500,181.080,1000.0
2025-09-08T18:32:21.011255,6.010,7.510,19.280,-55.1,0.400,-0.500,181.080,1000.0
2025-09-08T18:32:21.041255,5.290,7.740,21.270,-55.1,0.400,-0.500,181.080,1000.0
2025-09-08T18:32:21.043256,4.460,7.850,23.690,-55.1,0.400,-0.500,181.080,1000.0
2025-09-08T18:32:21.071360,3.540,7.750,26.440,-55.1,0.400,-0.500,181.080,1000.0
2025-09-08T18:32:21.072308,2.710,7.470,28.780,-55.1,0.400,-0.500,181.080,1000.0
2025-09-08T18:32:21.101307,1.870,7.000,31.000,-55.1,0.400,-0.500,181.080,1000.0
2025-09-08T18:32:21.146001,1.020,6.340,33.110,-55.1,0.400,-0.500,181.080,1000.0
2025-09-08T18:32:21.147977,0.310,5.670,34.810,-55.1,0.400,-0.500,181.080,1000.0
2025-09-08T18:32:21.175977,-0.520,4.720,36.790,-55.2,0.400,-0.500,181.080,1000.0
2025-09-08T18:32:21.178978,-1.240,3.800,38.300,-55.2,0.400,-0.500,181.080,1000.0
2025-09-08T18:32:21.205977,-1.910,2.890,43.920,-55.2,0.400,-0.500,181.080,1000.0
2025-09-08T18:32:21.251324,-2.440,2.120,48.430,-55.2,0.400,-0.500,181.080,1000.0
2025-09-08T18:32:21.253326,-2.810,1.410,49.080,-55.2,0.400,-0.500,181.080,1000.0
2025-09-08T18:32:21.281343,-3.040,0.780,49.580,-55.2,0.400,-0.500,181.080,1000.0
2025-09-08T18:32:21.284344,-3.180,0.270,49.940,-55.2,0.400,-0.500,181.080,1000.0
2025-09-08T18:32:21.311369,-3.180,-0.140,52.660,-55.2,0.400,-0.500,181.080,1000.0
2025-09-08T18:32:21.341977,-3.060,-0.400,54.980,-55.1,0.400,-0.500,181.080,1000.0
2025-09-08T18:32:21.343976,-2.750,-0.650,55.360,-55.1,0.400,-0.500,181.080,1000.0
2025-09-08T18:32:21.386760,-2.370,-0.860,55.770,-55.1,0.400,-0.500,181.080,1000.0
2025-09-08T18:32:21.388749,-1.890,-1.050,56.210,-55.1,0.400,-0.500,181.080,1000.0
2025-09-08T18:32:21.416849,-1.340,-1.220,57.740,-55.1,0.400,-0.500,181.080,1000.0
2025-09-08T18:32:21.447199,-0.730,-1.410,59.640,-55.1,0.400,-0.500,181.080,1000.0
2025-09-08T18:32:21.449217,-0.130,-1.570,61.020,-55.1,0.400,-0.500,181.080,1000.0
2025-09-08T18:32:21.477197,0.450,-1.680,61.360,-55.1,0.400,-0.500,181.080,1000.0
2025-09-08T18:32:21.478199,0.980,-1.640,61.430,-55.1,0.400,-0.500,181.080,1000.0
2025-09-08T18:32:21.507198,1.390,-1.420,61.580,-55.1,0.400,-0.500,181.080,1000.0
2025-09-08T18:32:21.537758,1.670,-1.020,61.590,-55.1,0.400,-0.500,181.080,1000.0
2025-09-08T18:32:21.552759,1.840,-0.460,61.370,-55.1,0.400,-0.500,181.080,1000.0
2025-09-08T18:32:21.568259,1.890,0.180,61.150,-55.1,0.400,-0.500,181.080,1000.0
2025-09-08T18:32:21.582398,1.860,1.050,60.840,-55.1,0.400,-0.500,181.080,1000.0
2025-09-08T18:32:21.628399,1.800,2.120,60.820,-55.1,0.400,-0.500,181.080,1000.0
2025-09-08T18:32:21.657949,1.650,3.430,60.790,-55.1,0.400,-0.500,181.080,1000.0
2025-09-08T18:32:21.659950,1.390,4.940,60.660,-55.1,0.400,-0.500,181.080,1000.0
2025-09-08T18:32:21.689550,1.070,6.630,60.410,-55.1,0.400,-0.500,181.080,1000.0
2025-09-08T18:32:21.690551,0.750,8.590,59.910,-55.1,0.400,-0.500,181.080,1000.0
2025-09-08T18:32:21.719554,0.470,10.770,59.310,-55.1,0.400,-0.500,181.080,1000.0
2025-09-08T18:32:21.748550,0.210,12.990,58.860,-55.1,0.400,-0.500,181.080,1000.0
2025-09-08T18:32:21.750554,-0.120,15.360,58.560,-55.1,0.400,-0.500,181.080,1000.0
2025-09-08T18:32:21.779554,-0.430,17.970,58.320,-55.1,0.400,-0.500,181.080,1000.0
2025-09-08T18:32:21.781552,-0.640,20.660,58.220,-55.1,0.400,-0.500,181.080,1000.0
2025-09-08T18:32:21.809555,-0.770,23.140,58.090,-55.1,0.400,-0.500,181.080,1000.0
2025-09-08T18:32:21.811552,-0.990,26.270,57.880,-55.1,0.400,-0.500,181.080,1000.0
2025-09-08T18:32:21.839552,-1.190,28.960,57.910,-55.2,0.400,-0.500,181.080,1000.0
2025-09-08T18:32:21.884552,-1.320,31.800,57.740,-55.2,0.400,-0.500,181.080,1000.0
2025-09-08T18:32:21.886553,-1.310,34.870,57.480,-55.2,0.400,-0.500,181.080,1000.0
2025-09-08T18:32:21.913559,-1.270,37.940,57.310,-55.2,0.400,-0.500,181.080,1000.0
2025-09-08T18:32:21.915551,-1.330,40.500,57.270,-55.2,0.400,-0.500,181.080,1000.0
2025-09-08T18:32:21.959603,-1.560,43.940,57.320,-55.2,0.400,-0.500,181.080,1000.0
2025-09-08T18:32:21.989552,-1.770,47.260,57.350,-55.2,0.400,-0.500,181.080,1000.0
2025-09-08T18:32:21.991565,-1.920,50.690,57.190,-55.2,0.400,-0.500,181.080,1000.0
2025-09-08T18:32:22.019552,-2.090,53.940,56.930,-55.2,0.400,-0.500,181.080,1000.0
2025-09-08T18:32:22.020552,-2.370,57.030,56.700,-55.2,0.400,-0.500,181.080,1000.0
2025-09-08T18:32:22.049565,-2.780,60.220,56.510,-55.2,0.400,-0.500,181.080,1000.0
2025-09-08T18:32:22.080204,-3.280,63.380,56.390,-55.2,0.400,-0.500,181.080,1000.0
2025-09-08T18:32:22.082215,-3.830,66.330,56.100,-55.2,0.400,-0.500,181.080,1000.0
2025-09-08T18:32:22.110203,-4.370,69.070,55.600,-55.2,0.400,-0.500,181.080,1000.0
2025-09-08T18:32:22.112204,-4.790,71.440,55.000,-55.2,0.400,-0.500,181.080,1000.0
2025-09-08T18:32:22.153915,-5.210,74.380,54.150,-55.3,0.400,-0.500,181.080,1000.0
2025-09-08T18:32:22.184858,-5.490,76.980,53.500,-55.3,0.400,-0.500,181.080,1000.0
2025-09-08T18:32:22.187855,-5.750,79.340,52.950,-55.3,0.400,-0.500,181.080,1000.0
2025-09-08T18:32:22.214853,-6.030,81.760,52.490,-55.3,0.400,-0.500,181.080,1000.0
2025-09-08T18:32:22.216853,-6.270,84.090,52.140,-55.3,0.400,-0.500,181.080,1000.0
2025-09-08T18:32:22.244923,-6.410,86.290,51.800,-55.3,0.400,-0.500,181.080,1000.0
2025-09-08T18:32:22.290554,-6.430,88.170,51.460,-55.3,0.400,-0.500,181.080,1000.0
2025-09-08T18:32:22.291565,-6.360,90.570,51.040,-55.3,0.400,-0.500,181.080,1000.0
2025-09-08T18:32:22.320412,-6.320,92.650,50.800,-55.3,0.400,-0.500,181.080,1000.0
2025-09-08T18:32:22.321412,-6.360,94.850,50.570,-55.3,0.400,-0.500,181.080,1000.0
2025-09-08T18:32:22.350578,-6.480,97.040,50.420,-55.3,0.400,-0.500,181.080,1000.0
2025-09-08T18:32:22.395792,-6.630,99.200,50.290,-55.3,0.400,-0.500,181.080,1000.0
2025-09-08T18:32:22.396797,-6.830,101.350,50.010,-55.3,0.400,-0.500,181.080,1000.0
2025-09-08T18:32:22.425497,-7.120,103.620,49.670,-55.3,0.400,-0.500,181.080,1000.0
2025-09-08T18:32:22.426497,-7.530,105.860,49.400,-55.3,0.400,-0.500,181.080,1000.0
2025-09-08T18:32:22.455762,-8.050,108.070,49.060,-55.3,0.400,-0.500,181.080,1000.0
2025-09-08T18:32:22.485348,-8.680,110.240,48.620,-55.3,0.400,-0.500,181.080,1000.0
2025-09-08T18:32:22.487347,-9.400,112.300,48.100,-55.3,0.400,-0.500,181.080,1000.0
2025-09-08T18:32:22.515257,-10.030,113.990,47.460,-55.3,0.400,-0.500,181.080,1000.0
2025-09-08T18:32:22.517265,-10.720,115.980,46.420,-55.3,0.400,-0.500,181.080,1000.0
2025-09-08T18:32:22.544968,-11.130,117.430,45.530,-55.3,0.400,-0.500,181.080,1000.0
2025-09-08T18:32:22.574967,-11.390,118.660,44.670,-55.3,0.400,-0.500,181.080,1000.0
2025-09-08T18:32:22.575967,-11.530,119.780,43.710,-55.3,0.400,-0.500,181.080,1000.0
2025-09-08T18:32:22.619961,-11.540,120.460,43.080,-55.3,0.400,-0.500,181.080,1000.0
2025-09-08T18:32:22.621965,-11.480,121.050,42.500,-55.3,0.400,-0.500,181.080,1000.0
2025-09-08T18:32:22.650140,-11.290,121.490,42.110,-55.3,0.400,-0.500,181.080,1000.0
2025-09-08T18:32:22.667532,-11.040,121.780,42.020,-55.3,0.400,-0.500,181.080,1000.0
2025-09-08T18:32:22.696150,-10.740,122.030,42.170,-55.3,0.400,-0.500,181.080,1000.0
2025-09-08T18:32:22.726350,-10.370,122.260,42.520,-55.3,0.400,-0.500,181.080,1000.0
2025-09-08T18:32:22.727357,-9.890,122.420,43.010,-55.3,0.400,-0.500,181.080,1000.0
2025-09-08T18:32:22.755983,-9.380,122.490,43.520,-55.3,0.400,-0.500,181.080,1000.0
2025-09-08T18:32:22.759985,-8.710,122.580,44.250,-55.3,0.400,-0.500,181.080,1000.0
2025-09-08T18:32:22.786996,-8.080,122.650,44.960,-55.3,0.400,-0.500,181.080,1000.0
2025-09-08T18:32:22.815898,-7.490,122.650,45.670,-55.3,0.400,-0.500,181.080,1000.0
2025-09-08T18:32:22.817899,-7.190,122.620,46.070,-55.3,0.400,-0.500,181.080,1000.0
2025-09-08T18:32:22.861088,-6.740,122.340,46.850,-55.3,0.400,-0.500,181.080,1000.0
2025-09-08T18:32:22.865088,-6.460,121.740,47.560,-55.3,0.400,-0.500,181.080,1000.0
2025-09-08T18:32:22.891089,-6.320,120.940,48.220,-55.3,0.400,-0.500,181.080,1000.0
2025-09-08T18:32:22.920832,-6.290,119.900,48.920,-55.3,0.400,-0.500,181.080,1000.0
2025-09-08T18:32:22.921832,-6.330,118.670,49.630,-55.3,0.400,-0.500,181.080,1000.0
2025-09-08T18:32:22.950772,-6.430,117.330,50.340,-55.3,0.400,-0.500,181.080,1000.0
2025-09-08T18:32:22.968787,-6.590,115.870,51.040,-55.3,0.400,-0.500,181.080,1000.0
2025-09-08T18:32:22.980776,-6.800,114.250,51.750,-55.3,0.400,-0.500,181.080,1000.0
2025-09-08T18:32:23.026470,-6.990,112.870,52.340,-55.3,0.400,-0.500,181.080,1000.0
2025-09-08T18:32:23.028457,-7.250,111.180,52.990,-55.3,0.400,-0.500,181.080,1000.0
2025-09-08T18:32:23.056145,-7.580,109.230,53.680,-55.3,0.400,-0.500,181.080,1000.0
2025-09-08T18:32:23.060140,-7.900,107.470,54.240,-55.3,0.400,-0.500,181.080,1000.0
2025-09-08T18:32:23.101274,-8.230,105.610,54.770,-55.3,0.400,-0.500,181.080,1000.0
2025-09-08T18:32:23.131725,-8.530,103.700,55.210,-55.3,0.400,-0.500,181.080,1000.0
2025-09-08T18:32:23.134719,-8.760,101.810,55.680,-55.3,0.400,-0.500,181.080,1000.0
2025-09-08T18:32:23.161388,-8.860,99.940,56.140,-55.3,0.400,-0.500,181.080,1000.0
2025-09-08T18:32:23.164387,-8.780,98.060,56.540,-55.4,0.400,-0.500,181.080,1000.0
2025-09-08T18:32:23.191957,-8.460,96.130,56.830,-55.4,0.400,-0.500,181.080,1000.0
2025-09-08T18:32:23.222015,-7.990,94.230,57.040,-55.4,0.400,-0.500,181.080,1000.0
2025-09-08T18:32:23.224025,-7.510,92.280,57.290,-55.4,0.400,-0.500,181.080,1000.0
2025-09-08T18:32:23.252266,-7.010,90.040,57.650,-55.4,0.400,-0.500,181.080,1000.0
2025-09-08T18:32:23.256259,-6.500,87.670,58.030,-55.4,0.400,-0.500,181.080,1000.0
2025-09-08T18:32:23.282260,-6.150,85.830,58.300,-55.4,0.400,-0.500,181.080,1000.0
2025-09-08T18:32:23.312958,-5.640,82.680,58.910,-55.4,0.400,-0.500,181.080,1000.0
2025-09-08T18:32:23.313965,-5.240,80.030,59.470,-55.4,0.400,-0.500,181.080,1000.0
2025-09-08T18:32:23.372964,-4.750,77.260,59.900,-55.4,0.400,-0.500,181.080,1000.0
2025-09-08T18:32:23.376963,-4.220,74.460,60.180,-55.4,0.400,-0.500,181.080,1000.0
2025-09-08T18:32:23.377962,-3.770,71.650,60.440,-55.4,0.400,-0.500,181.080,1000.0
2025-09-08T18:32:23.432520,-3.480,69.390,60.660,-55.3,0.400,-0.500,181.080,1000.0
2025-09-08T18:32:23.434523,-3.160,66.460,60.890,-55.3,0.400,-0.500,181.080,1000.0
2025-09-08T18:32:23.462145,-2.910,63.930,60.960,-55.3,0.400,-0.500,181.080,1000.0
2025-09-08T18:32:23.466151,-2.770,61.570,60.900,-55.3,0.400,-0.500,181.080,1000.0
2025-09-08T18:32:23.492154,-2.760,59.400,60.910,-55.3,0.400,-0.500,181.080,1000.0
2025-09-08T18:32:23.523449,-2.780,57.610,60.920,-55.3,0.400,-0.500,181.080,1000.0
2025-09-08T18:32:23.525452,-2.700,55.520,60.800,-55.3,0.400,-0.500,181.080,1000.0
2025-09-08T18:32:23.553451,-2.500,53.220,60.450,-55.4,0.400,-0.500,181.080,1000.0
2025-09-08T18:32:23.558450,-2.340,51.350,60.140,-55.4,0.400,-0.500,181.080,1000.0
2025-09-08T18:32:23.583686,-2.230,49.480,59.970,-55.4,0.400,-0.500,181.080,1000.0
2025-09-08T18:32:23.628969,-2.040,47.580,59.810,-55.4,0.400,-0.500,181.080,1000.0
2025-09-08T18:32:23.630973,-1.680,45.300,59.480,-55.3,0.400,-0.500,181.080,1000.0
2025-09-08T18:32:23.657969,-1.280,43.010,59.010,-55.3,0.400,-0.500,181.080,1000.0
2025-09-08T18:32:23.673050,-1.010,41.370,58.720,-55.3,0.400,-0.500,181.080,1000.0
2025-09-08T18:32:23.688051,-0.660,38.720,58.350,-55.3,0.400,-0.500,181.080,1000.0
2025-09-08T18:32:23.734261,-0.330,36.350,57.980,-55.3,0.400,-0.500,181.080,1000.0
2025-09-08T18:32:23.736277,0.090,33.860,57.410,-55.3,0.400,-0.500,181.080,1000.0
2025-09-08T18:32:23.764262,0.510,31.630,56.840,-55.3,0.400,-0.500,181.080,1000.0
2025-09-08T18:32:23.768264,0.900,29.650,56.410,-55.3,0.400,-0.500,181.080,1000.0
2025-09-08T18:32:23.793264,1.280,27.770,56.060,-55.3,0.400,-0.500,181.080,1000.0
2025-09-08T18:32:23.824261,1.530,26.490,55.790,-55.2,0.400,-0.500,181.080,1000.0
2025-09-08T18:32:23.825262,1.940,23.810,54.910,-55.2,0.400,-0.500,181.080,1000.0
2025-09-08T18:32:23.869262,2.200,22.210,54.390,-55.2,0.400,-0.500,181.080,1000.0
2025-09-08T18:32:23.874264,2.440,20.840,54.090,-55.2,0.400,-0.500,181.080,1000.0
2025-09-08T18:32:23.899260,2.590,19.560,53.840,-55.2,0.400,-0.500,181.080,1000.0
2025-09-08T18:32:23.901263,2.620,18.350,53.580,-55.2,0.400,-0.500,181.080,1000.0
2025-09-08T18:32:23.929261,2.560,17.160,53.200,-55.2,0.400,-0.500,181.080,1000.0
2025-09-08T18:32:23.959317,2.460,16.050,52.790,-55.2,0.400,-0.500,181.080,1000.0
2025-09-08T18:32:23.974324,2.280,15.010,52.440,-55.2,0.400,-0.500,181.080,1000.0
2025-09-08T18:32:23.989806,1.950,13.950,52.120,-55.2,0.400,-0.500,181.080,1000.0
2025-09-08T18:32:23.990801,1.630,13.210,51.920,-55.2,0.400,-0.500,181.080,1000.0
2025-09-08T18:32:24.019584,1.110,12.120,51.660,-55.2,0.400,-0.500,181.080,1000.0
2025-09-08T18:32:24.064355,0.760,11.460,51.560,-55.2,0.400,-0.500,181.080,1000.0
2025-09-08T18:32:24.068362,0.440,10.980,51.530,-55.2,0.400,-0.500,181.080,1000.0
2025-09-08T18:32:24.109342,0.140,10.650,51.520,-55.2,0.400,-0.500,181.080,1000.0
2025-09-08T18:32:24.110342,-0.130,10.480,51.560,-55.2,0.400,-0.500,181.080,1000.0
2025-09-08T18:32:24.139899,-0.370,10.540,51.660,-55.2,0.400,-0.500,181.080,1000.0
2025-09-08T18:32:24.170418,-0.520,10.840,51.840,-55.2,0.400,-0.500,181.080,1000.0
2025-09-08T18:32:24.174417,-0.680,11.290,52.110,-55.2,0.400,-0.500,181.080,1000.0
2025-09-08T18:32:24.201050,-0.910,11.720,52.350,-55.2,0.400,-0.500,181.080,1000.0
2025-09-08T18:32:24.203050,-1.230,12.190,52.560,-55.2,0.400,-0.500,181.080,1000.0
2025-09-08T18:32:24.231306,-1.500,12.690,52.740,-55.2,0.400,-0.500,181.080,1000.0
2025-09-08T18:32:24.261616,-1.780,13.140,52.970,-55.2,0.400,-0.500,181.080,1000.0
2025-09-08T18:32:24.266616,-2.140,13.490,53.250,-55.2,0.400,-0.500,181.080,1000.0
2025-09-08T18:32:24.291618,-2.560,13.720,53.620,-55.2,0.400,-0.500,181.080,1000.0
2025-09-08T18:32:24.292618,-2.940,13.790,54.010,-55.2,0.400,-0.500,181.080,1000.0
2025-09-08T18:32:24.321505,-3.300,13.640,54.400,-55.2,0.400,-0.500,181.080,1000.0
2025-09-08T18:32:24.352006,-3.610,13.270,54.810,-55.2,0.400,-0.500,181.080,1000.0
2025-09-08T18:32:24.386281,-3.790,12.620,55.300,-55.2,0.400,-0.500,181.080,1000.0
2025-09-08T18:32:24.388282,-3.790,11.830,55.770,-55.2,0.400,-0.500,181.080,1000.0
2025-09-08T18:32:24.390280,-3.610,10.920,56.260,-55.2,0.400,-0.500,181.080,1000.0
2025-09-08T18:32:24.442728,-3.230,9.980,56.770,-55.2,0.400,-0.500,181.080,1000.0
2025-09-08T18:32:24.472758,-2.650,9.100,57.330,-55.1,0.400,-0.500,181.080,1000.0
2025-09-08T18:32:24.476757,-1.880,8.270,57.940,-55.1,0.400,-0.500,181.080,1000.0
2025-09-08T18:32:24.503233,-1.220,7.720,58.440,-55.1,0.400,-0.500,181.080,1000.0
2025-09-08T18:32:24.505231,0.220,6.800,59.410,-55.1,0.400,-0.500,181.080,1000.0
2025-09-08T18:32:24.533246,1.420,6.230,60.160,-55.1,0.400,-0.500,181.080,1000.0
2025-09-08T18:32:24.563932,2.590,5.780,60.800,-55.1,0.400,-0.500,181.080,1000.0
2025-09-08T18:32:24.568931,3.870,5.290,61.440,-55.1,0.400,-0.500,181.080,1000.0
2025-09-08T18:32:24.593928,5.080,4.790,61.930,-55.1,0.400,-0.500,181.080,1000.0
2025-09-08T18:32:24.594940,6.190,4.260,62.260,-55.1,0.400,-0.500,181.080,1000.0
2025-09-08T18:32:24.624133,7.170,3.790,62.470,-55.1,0.400,-0.500,181.080,1000.0
2025-09-08T18:32:24.668965,7.890,3.450,62.640,-55.1,0.400,-0.500,181.080,1000.0
2025-09-08T18:32:24.673965,8.550,3.100,62.910,-55.1,0.400,-0.500,181.080,1000.0
2025-09-08T18:32:24.698963,8.700,3.020,63.130,-55.1,0.400,-0.500,181.080,1000.0
2025-09-08T18:32:24.699964,8.520,3.150,63.370,-55.1,0.400,-0.500,181.080,1000.0
2025-09-08T18:32:24.728964,8.090,3.410,63.640,-55.1,0.400,-0.500,181.080,1000.0
2025-09-08T18:32:24.773835,7.180,3.870,64.000,-55.1,0.400,-0.500,181.080,1000.0
2025-09-08T18:32:24.777836,6.180,4.300,64.270,-55.1,0.400,-0.500,181.080,1000.0
2025-09-08T18:32:24.804096,4.640,4.870,64.580,-55.1,0.400,-0.500,181.080,1000.0
2025-09-08T18:32:24.805096,3.120,5.410,64.870,-55.1,0.400,-0.500,181.080,1000.0
2025-09-08T18:32:24.834605,1.860,5.810,65.190,-55.1,0.400,-0.500,181.080,1000.0
2025-09-08T18:32:24.836604,0.350,6.250,65.690,-55.1,0.400,-0.500,181.080,1000.0
2025-09-08T18:32:24.864759,-0.730,6.450,66.130,-55.1,0.400,-0.500,181.080,1000.0
2025-09-08T18:32:24.909934,-1.530,6.450,66.470,-55.1,0.400,-0.500,181.080,1000.0
2025-09-08T18:32:24.910933,-1.970,6.350,66.680,-55.1,0.400,-0.500,181.080,1000.0
2025-09-08T18:32:24.938941,-2.120,6.210,66.780,-55.1,0.400,-0.500,181.080,1000.0
2025-09-08T18:32:24.969941,-2.000,5.790,66.820,-55.1,0.400,-0.500,181.080,1000.0
2025-09-08T18:32:24.972935,-1.740,5.310,66.760,-55.1,0.400,-0.500,181.080,1000.0
2025-09-08T18:32:24.998934,-1.350,4.800,66.660,-55.1,0.400,-0.500,181.080,1000.0
2025-09-08T18:32:25.000936,-0.800,4.300,66.500,-55.1,0.400,-0.500,181.080,1000.0
2025-09-08T18:32:25.029935,-0.210,3.940,66.310,-55.1,0.400,-0.500,181.080,1000.0
2025-09-08T18:32:25.030933,0.600,3.650,66.070,-55.1,0.400,-0.500,181.080,1000.0
2025-09-08T18:32:25.059934,1.360,3.450,65.980,-55.1,0.400,-0.500,181.080,1000.0
2025-09-08T18:32:25.088933,2.090,3.310,66.050,-55.0,0.400,-0.500,181.080,1000.0
2025-09-08T18:32:25.104936,2.740,3.300,66.220,-55.0,0.400,-0.500,181.080,1000.0
