Timestamp,Roll_Angle,Pitch_Angle,Yaw_Angle,Altitude,Roll_Setpoint,Pitch_Setpoint,Yaw_Setpoint,Altitude_Setpoint
2025-09-03T16:26:20.537315,-0.640,-0.550,0.000,-59.9,0.200,-0.300,180.360,1000.0
2025-09-03T16:26:20.538314,-0.640,-0.560,0.000,-59.9,0.200,-0.300,180.360,1000.0
2025-09-03T16:26:20.643844,-0.640,-0.560,0.000,-59.9,0.200,-0.300,180.360,1000.0
2025-09-03T16:26:20.644833,-0.650,-0.560,0.000,-59.9,0.200,-0.300,180.360,1000.0
2025-09-03T16:26:20.646833,-0.650,-0.560,0.000,-59.9,0.200,-0.300,180.360,1000.0
2025-09-03T16:26:20.647832,-0.650,-0.570,0.000,-59.9,0.200,-0.300,180.360,1000.0
2025-09-03T16:26:20.648832,-0.660,-0.570,0.000,-59.9,0.200,-0.300,180.360,1000.0
2025-09-03T16:26:20.767242,-0.660,-0.570,0.000,-59.9,0.200,-0.300,180.360,1000.0
2025-09-03T16:26:20.769585,-0.660,-0.570,0.000,-59.9,0.200,-0.300,180.360,1000.0
2025-09-03T16:26:20.771576,-0.660,-0.580,0.000,-59.9,0.200,-0.300,180.360,1000.0
2025-09-03T16:26:20.773578,-0.660,-0.580,0.000,-59.9,0.200,-0.300,180.360,1000.0
2025-09-03T16:26:20.775575,-0.660,-0.580,0.000,-59.9,0.200,-0.300,180.360,1000.0
2025-09-03T16:26:20.889512,-0.660,-0.580,0.000,-59.9,0.200,-0.300,180.360,1000.0
2025-09-03T16:26:20.890511,-0.660,-0.580,0.000,-59.9,0.200,-0.300,180.360,1000.0
2025-09-03T16:26:20.892511,-0.660,-0.580,0.000,-59.9,0.200,-0.300,180.360,1000.0
2025-09-03T16:26:20.893511,-0.660,-0.580,0.000,-59.9,0.200,-0.300,180.360,1000.0
2025-09-03T16:26:20.894510,-0.660,-0.570,0.000,-59.9,0.200,-0.300,180.360,1000.0
2025-09-03T16:26:20.998286,-0.660,-0.570,0.000,-59.9,0.200,-0.300,180.360,1000.0
2025-09-03T16:26:20.999278,-0.660,-0.570,0.000,-59.9,0.200,-0.300,180.360,1000.0
2025-09-03T16:26:21.000278,-0.660,-0.560,0.000,-59.9,0.200,-0.300,180.360,1000.0
2025-09-03T16:26:21.002278,-0.660,-0.560,0.000,-59.9,0.200,-0.300,180.360,1000.0
2025-09-03T16:26:21.003277,-0.660,-0.560,0.000,-59.9,0.200,-0.300,180.360,1000.0
2025-09-03T16:26:21.107359,-0.660,-0.560,0.000,-59.9,0.200,-0.300,180.360,1000.0
2025-09-03T16:26:21.109356,-0.660,-0.560,0.010,-59.9,0.200,-0.300,180.360,1000.0
2025-09-03T16:26:21.110356,-0.670,-0.550,0.010,-59.9,0.200,-0.300,180.360,1000.0
2025-09-03T16:26:21.111355,-0.670,-0.550,0.000,-59.9,0.200,-0.300,180.360,1000.0
2025-09-03T16:26:21.112355,-0.670,-0.550,0.000,-59.9,0.200,-0.300,180.360,1000.0
2025-09-03T16:26:21.229528,-0.670,-0.550,0.000,-59.9,0.200,-0.300,180.360,1000.0
2025-09-03T16:26:21.231510,-0.670,-0.550,0.000,-59.9,0.200,-0.300,180.360,1000.0
2025-09-03T16:26:21.232518,-0.670,-0.550,0.000,-59.9,0.200,-0.300,180.360,1000.0
2025-09-03T16:26:21.233509,-0.670,-0.550,0.000,-59.9,0.200,-0.300,180.360,1000.0
2025-09-03T16:26:21.234510,-0.670,-0.550,0.000,-59.9,0.200,-0.300,180.360,1000.0
2025-09-03T16:26:21.339365,-0.670,-0.550,0.000,-59.9,0.200,-0.300,180.360,1000.0
2025-09-03T16:26:21.341366,-0.670,-0.550,0.000,-59.9,0.200,-0.300,180.360,1000.0
2025-09-03T16:26:21.342365,-0.670,-0.550,0.000,-59.9,0.200,-0.300,180.360,1000.0
2025-09-03T16:26:21.343365,-0.670,-0.550,0.000,-59.9,0.200,-0.300,180.360,1000.0
2025-09-03T16:26:21.344365,-0.670,-0.550,0.000,-59.9,0.200,-0.300,180.360,1000.0
2025-09-03T16:26:21.449367,-0.670,-0.550,0.000,-59.9,0.200,-0.300,180.360,1000.0
2025-09-03T16:26:21.450367,-0.670,-0.560,0.000,-59.9,0.200,-0.300,180.360,1000.0
2025-09-03T16:26:21.452366,-0.670,-0.560,0.000,-59.9,0.200,-0.300,180.360,1000.0
2025-09-03T16:26:21.453366,-0.670,-0.560,0.000,-59.9,0.200,-0.300,180.360,1000.0
2025-09-03T16:26:21.454367,-0.670,-0.570,0.000,-59.9,0.200,-0.300,180.360,1000.0
2025-09-03T16:26:21.559119,-0.670,-0.570,0.000,-59.9,0.200,-0.300,180.360,1000.0
2025-09-03T16:26:21.560120,-0.670,-0.570,0.000,-60.0,0.200,-0.300,180.360,1000.0
2025-09-03T16:26:21.561119,-0.670,-0.570,0.000,-60.0,0.200,-0.300,180.360,1000.0
2025-09-03T16:26:21.562119,-0.670,-0.570,0.000,-60.0,0.200,-0.300,180.360,1000.0
2025-09-03T16:26:21.563119,-0.670,-0.580,0.000,-60.0,0.200,-0.300,180.360,1000.0
2025-09-03T16:26:21.668531,-0.670,-0.580,0.000,-60.0,0.200,-0.300,180.360,1000.0
2025-09-03T16:26:21.670532,-0.670,-0.580,0.000,-60.0,0.200,-0.300,180.360,1000.0
2025-09-03T16:26:21.672520,-0.670,-0.580,0.000,-60.0,0.200,-0.300,180.360,1000.0
2025-09-03T16:26:21.674521,-0.670,-0.580,0.000,-60.0,0.200,-0.300,180.360,1000.0
2025-09-03T16:26:21.676520,-0.670,-0.580,0.000,-60.0,0.200,-0.300,180.360,1000.0
2025-09-03T16:26:21.792911,-0.670,-0.580,0.000,-60.0,0.200,-0.300,180.360,1000.0
2025-09-03T16:26:21.794912,-0.670,-0.580,0.000,-60.0,0.200,-0.300,180.360,1000.0
2025-09-03T16:26:21.796910,-0.670,-0.580,0.000,-60.0,0.200,-0.300,180.360,1000.0
2025-09-03T16:26:21.797912,-0.670,-0.580,0.000,-60.0,0.200,-0.300,180.360,1000.0
2025-09-03T16:26:21.798910,-0.670,-0.580,0.000,-60.0,0.200,-0.300,180.360,1000.0
2025-09-03T16:26:21.914455,-0.670,-0.580,0.000,-60.0,0.200,-0.300,180.360,1000.0
2025-09-03T16:26:21.915456,-0.670,-0.580,0.000,-60.0,0.200,-0.300,180.360,1000.0
2025-09-03T16:26:21.916467,-0.670,-0.580,0.000,-60.0,0.200,-0.300,180.360,1000.0
2025-09-03T16:26:21.918457,-0.680,-0.580,0.000,-60.0,0.200,-0.300,180.360,1000.0
2025-09-03T16:26:21.919456,-0.680,-0.580,0.000,-60.0,0.200,-0.300,180.360,1000.0
2025-09-03T16:26:22.037468,-0.680,-0.580,0.000,-60.0,0.200,-0.300,180.360,1000.0
2025-09-03T16:26:22.039468,-0.680,-0.580,0.000,-60.0,0.200,-0.300,180.360,1000.0
2025-09-03T16:26:22.040466,-0.680,-0.570,0.000,-60.0,0.200,-0.300,180.360,1000.0
2025-09-03T16:26:22.042468,-0.680,-0.570,0.000,-60.0,0.200,-0.300,180.360,1000.0
2025-09-03T16:26:22.043468,-0.680,-0.570,0.000,-60.0,0.200,-0.300,180.360,1000.0
2025-09-03T16:26:22.161057,-0.680,-0.560,0.000,-60.0,0.200,-0.300,180.360,1000.0
2025-09-03T16:26:22.163060,-0.680,-0.560,0.000,-60.0,0.200,-0.300,180.360,1000.0
2025-09-03T16:26:22.164060,-0.680,-0.560,0.000,-60.0,0.200,-0.300,180.360,1000.0
2025-09-03T16:26:22.165060,-0.680,-0.560,0.000,-60.0,0.200,-0.300,180.360,1000.0
2025-09-03T16:26:22.167184,-0.680,-0.550,0.000,-60.0,0.200,-0.300,180.360,1000.0
2025-09-03T16:26:22.271519,-0.680,-0.550,0.000,-60.0,0.200,-0.300,180.360,1000.0
2025-09-03T16:26:22.273519,-0.680,-0.550,0.000,-60.0,0.200,-0.300,180.360,1000.0
2025-09-03T16:26:22.275518,-0.680,-0.550,0.000,-60.0,0.200,-0.300,180.360,1000.0
2025-09-03T16:26:22.276518,-0.680,-0.550,0.000,-60.0,0.200,-0.300,180.360,1000.0
2025-09-03T16:26:22.278519,-0.680,-0.550,0.000,-60.0,0.200,-0.300,180.360,1000.0
2025-09-03T16:26:22.397013,-0.680,-0.560,0.000,-60.0,0.200,-0.300,180.360,1000.0
2025-09-03T16:26:22.398013,-0.680,-0.560,0.000,-60.0,0.200,-0.300,180.360,1000.0
2025-09-03T16:26:22.399012,-0.680,-0.560,0.000,-60.0,0.200,-0.300,180.360,1000.0
2025-09-03T16:26:22.401010,-0.680,-0.560,0.000,-60.0,0.200,-0.300,180.360,1000.0
2025-09-03T16:26:22.402009,-0.680,-0.560,0.000,-59.9,0.200,-0.300,180.360,1000.0
2025-09-03T16:26:22.505716,-0.680,-0.560,0.000,-59.9,0.200,-0.300,180.360,1000.0
2025-09-03T16:26:22.506719,-0.680,-0.570,0.000,-59.9,0.200,-0.300,180.360,1000.0
2025-09-03T16:26:22.508717,-0.680,-0.570,0.000,-59.9,0.200,-0.300,180.360,1000.0
2025-09-03T16:26:22.509717,-0.680,-0.570,0.000,-59.9,0.200,-0.300,180.360,1000.0
2025-09-03T16:26:22.510716,-0.680,-0.570,0.000,-59.9,0.200,-0.300,180.360,1000.0
2025-09-03T16:26:22.613215,-0.680,-0.570,0.000,-59.9,0.200,-0.300,180.360,1000.0
2025-09-03T16:26:22.615216,-0.680,-0.580,0.000,-59.9,0.200,-0.300,180.360,1000.0
2025-09-03T16:26:22.616214,-0.680,-0.580,0.000,-59.9,0.200,-0.300,180.360,1000.0
2025-09-03T16:26:22.617214,-0.680,-0.580,0.000,-59.9,0.200,-0.300,180.360,1000.0
2025-09-03T16:26:22.619215,-0.680,-0.580,0.000,-59.9,0.200,-0.300,180.360,1000.0
2025-09-03T16:26:22.736441,-0.680,-0.580,0.000,-59.9,0.200,-0.300,180.360,1000.0
2025-09-03T16:26:22.737446,-0.680,-0.580,0.000,-59.9,0.200,-0.300,180.360,1000.0
2025-09-03T16:26:22.739449,-0.680,-0.580,0.000,-59.9,0.200,-0.300,180.360,1000.0
2025-09-03T16:26:22.740445,-0.680,-0.580,0.000,-59.9,0.200,-0.300,180.360,1000.0
2025-09-03T16:26:22.741446,-0.680,-0.580,0.000,-59.9,0.200,-0.300,180.360,1000.0
2025-09-03T16:26:22.858518,-0.680,-0.580,0.000,-59.9,0.200,-0.300,180.360,1000.0
2025-09-03T16:26:22.859518,-0.680,-0.580,0.000,-59.9,0.200,-0.300,180.360,1000.0
2025-09-03T16:26:22.860518,-0.680,-0.580,0.000,-59.9,0.200,-0.300,180.360,1000.0
2025-09-03T16:26:22.861518,-0.680,-0.580,0.000,-59.9,0.200,-0.300,180.360,1000.0
2025-09-03T16:26:22.862518,-0.680,-0.580,0.000,-59.9,0.200,-0.300,180.360,1000.0
2025-09-03T16:26:22.967421,-0.680,-0.580,0.000,-59.9,0.200,-0.300,180.360,1000.0
2025-09-03T16:26:22.968421,-0.680,-0.580,0.000,-59.9,0.200,-0.300,180.360,1000.0
2025-09-03T16:26:22.969421,-0.680,-0.580,0.000,-59.9,0.200,-0.300,180.360,1000.0
2025-09-03T16:26:22.973425,-0.680,-0.580,0.000,-59.9,0.200,-0.300,180.360,1000.0
2025-09-03T16:26:22.975422,-0.680,-0.580,0.000,-59.9,0.200,-0.300,180.360,1000.0
2025-09-03T16:26:23.092430,-0.680,-0.580,0.000,-59.9,0.200,-0.300,180.360,1000.0
2025-09-03T16:26:23.094425,-0.680,-0.580,0.000,-60.0,0.200,-0.300,180.360,1000.0
2025-09-03T16:26:23.096460,-0.680,-0.580,0.000,-60.0,0.200,-0.300,180.360,1000.0
2025-09-03T16:26:23.097424,-0.680,-0.580,0.000,-59.9,0.200,-0.300,180.360,1000.0
2025-09-03T16:26:23.098447,-0.680,-0.580,0.000,-59.9,0.200,-0.300,180.360,1000.0
2025-09-03T16:26:23.215165,-0.680,-0.580,0.000,-59.9,0.200,-0.300,180.360,1000.0
2025-09-03T16:26:23.216166,-0.680,-0.580,0.000,-60.0,0.200,-0.300,180.360,1000.0
2025-09-03T16:26:23.217167,-0.680,-0.580,0.000,-60.0,0.200,-0.300,180.360,1000.0
2025-09-03T16:26:23.218165,-0.680,-0.580,0.000,-60.0,0.200,-0.300,180.360,1000.0
2025-09-03T16:26:23.219169,-0.680,-0.580,0.000,-60.0,0.200,-0.300,180.360,1000.0
2025-09-03T16:26:23.337777,-0.680,-0.580,0.000,-60.0,0.200,-0.300,180.360,1000.0
2025-09-03T16:26:23.338813,-0.680,-0.580,0.000,-60.0,0.200,-0.300,180.360,1000.0
2025-09-03T16:26:23.340785,-0.680,-0.580,0.000,-60.0,0.200,-0.300,180.360,1000.0
2025-09-03T16:26:23.341776,-0.680,-0.580,0.000,-60.0,0.200,-0.300,180.360,1000.0
2025-09-03T16:26:23.342777,-0.680,-0.590,0.000,-60.0,0.200,-0.300,180.360,1000.0
2025-09-03T16:26:23.458896,-0.680,-0.590,0.000,-60.0,0.200,-0.300,180.360,1000.0
2025-09-03T16:26:23.459902,-0.680,-0.590,0.000,-60.0,0.200,-0.300,180.360,1000.0
2025-09-03T16:26:23.460911,-0.680,-0.590,0.000,-60.0,0.200,-0.300,180.360,1000.0
2025-09-03T16:26:23.461910,-0.680,-0.590,0.000,-60.0,0.200,-0.300,180.360,1000.0
2025-09-03T16:26:23.462913,-0.680,-0.590,0.000,-60.0,0.200,-0.300,180.360,1000.0
2025-09-03T16:26:23.582526,-0.680,-0.590,0.000,-60.0,0.200,-0.300,180.360,1000.0
2025-09-03T16:26:23.585526,-0.680,-0.590,0.000,-60.0,0.200,-0.300,180.360,1000.0
2025-09-03T16:26:23.587525,-0.680,-0.590,0.000,-60.0,0.200,-0.300,180.360,1000.0
2025-09-03T16:26:23.588525,-0.680,-0.590,0.000,-60.0,0.200,-0.300,180.360,1000.0
2025-09-03T16:26:23.589527,-0.680,-0.590,0.000,-60.0,0.200,-0.300,180.360,1000.0
2025-09-03T16:26:23.705813,-0.680,-0.590,0.000,-60.0,0.200,-0.300,180.360,1000.0
2025-09-03T16:26:23.707819,-0.680,-0.590,0.000,-60.0,0.200,-0.300,180.360,1000.0
2025-09-03T16:26:23.708812,-0.680,-0.590,0.000,-60.0,0.200,-0.300,180.360,1000.0
2025-09-03T16:26:23.710818,-0.680,-0.590,0.000,-60.0,0.200,-0.300,180.360,1000.0
2025-09-03T16:26:23.711822,-0.680,-0.590,0.000,-60.0,0.200,-0.300,180.360,1000.0
2025-09-03T16:26:23.827195,-0.680,-0.590,0.000,-60.0,0.200,-0.300,180.360,1000.0
2025-09-03T16:26:23.828195,-0.680,-0.590,0.000,-60.0,0.200,-0.300,180.360,1000.0
2025-09-03T16:26:23.829196,-0.690,-0.590,0.000,-60.0,0.200,-0.300,180.360,1000.0
2025-09-03T16:26:23.831196,-0.690,-0.590,0.000,-60.0,0.200,-0.300,180.360,1000.0
2025-09-03T16:26:23.832197,-0.680,-0.590,0.000,-60.0,0.200,-0.300,180.360,1000.0
2025-09-03T16:26:23.935364,-0.680,-0.590,0.000,-60.0,0.200,-0.300,180.360,1000.0
2025-09-03T16:26:23.936363,-0.680,-0.590,0.000,-60.0,0.200,-0.300,180.360,1000.0
2025-09-03T16:26:23.938364,-0.680,-0.590,0.000,-60.0,0.200,-0.300,180.360,1000.0
2025-09-03T16:26:23.939365,-0.680,-0.590,0.000,-60.0,0.200,-0.300,180.360,1000.0
2025-09-03T16:26:23.940366,-0.680,-0.590,0.000,-60.0,0.200,-0.300,180.360,1000.0
2025-09-03T16:26:24.056364,-0.680,-0.590,0.000,-60.0,0.200,-0.300,180.360,1000.0
2025-09-03T16:26:24.058377,-0.680,-0.590,0.000,-60.0,0.200,-0.300,180.360,1000.0
2025-09-03T16:26:24.059364,-0.680,-0.590,0.000,-60.0,0.200,-0.300,180.360,1000.0
2025-09-03T16:26:24.060364,-0.680,-0.590,0.000,-60.0,0.200,-0.300,180.360,1000.0
2025-09-03T16:26:24.061378,-0.680,-0.590,0.000,-60.0,0.200,-0.300,180.360,1000.0
2025-09-03T16:26:24.180423,-0.680,-0.590,0.000,-60.0,0.200,-0.300,180.360,1000.0
2025-09-03T16:26:24.182423,-0.680,-0.590,0.000,-60.0,0.200,-0.300,180.360,1000.0
2025-09-03T16:26:24.184423,-0.680,-0.590,0.000,-60.0,0.200,-0.300,180.360,1000.0
2025-09-03T16:26:24.185426,-0.680,-0.590,0.000,-60.0,0.200,-0.300,180.360,1000.0
2025-09-03T16:26:24.187425,-0.680,-0.590,0.000,-60.0,0.200,-0.300,180.360,1000.0
2025-09-03T16:26:24.302672,-0.680,-0.590,0.000,-60.0,0.200,-0.300,180.360,1000.0
2025-09-03T16:26:24.304697,-0.680,-0.590,0.000,-60.0,0.200,-0.300,180.360,1000.0
2025-09-03T16:26:24.305680,-0.680,-0.590,0.000,-60.0,0.200,-0.300,180.360,1000.0
2025-09-03T16:26:24.307673,-0.680,-0.590,0.000,-60.0,0.200,-0.300,180.360,1000.0
2025-09-03T16:26:24.308670,-0.680,-0.590,0.000,-60.0,0.200,-0.300,180.360,1000.0
2025-09-03T16:26:24.426557,-0.680,-0.590,0.000,-60.0,0.200,-0.300,180.360,1000.0
2025-09-03T16:26:24.427558,-0.680,-0.590,0.000,-60.0,0.200,-0.300,180.360,1000.0
2025-09-03T16:26:24.428556,-0.680,-0.590,0.000,-60.0,0.200,-0.300,180.360,1000.0
2025-09-03T16:26:24.429557,-0.680,-0.590,0.000,-60.0,0.200,-0.300,180.360,1000.0
2025-09-03T16:26:24.430557,-0.680,-0.590,0.000,-60.0,0.200,-0.300,180.360,1000.0
2025-09-03T16:26:24.548498,-0.680,-0.590,0.000,-60.0,0.200,-0.300,180.360,1000.0
2025-09-03T16:26:24.549502,-0.680,-0.590,0.000,-60.0,0.200,-0.300,180.360,1000.0
2025-09-03T16:26:24.550502,-0.680,-0.580,0.000,-60.0,0.200,-0.300,180.360,1000.0
2025-09-03T16:26:24.551502,-0.680,-0.580,0.000,-60.0,0.200,-0.300,180.360,1000.0
2025-09-03T16:26:24.553502,-0.680,-0.580,0.000,-60.0,0.200,-0.300,180.360,1000.0
2025-09-03T16:26:24.670551,-0.680,-0.580,0.000,-60.0,0.200,-0.300,180.360,1000.0
2025-09-03T16:26:24.672551,-0.680,-0.580,0.000,-60.0,0.200,-0.300,180.360,1000.0
2025-09-03T16:26:24.674552,-0.680,-0.570,0.000,-60.0,0.200,-0.300,180.360,1000.0
2025-09-03T16:26:24.676552,-0.680,-0.570,0.000,-60.0,0.200,-0.300,180.360,1000.0
2025-09-03T16:26:24.677556,-0.680,-0.570,0.000,-60.0,0.200,-0.300,180.360,1000.0
2025-09-03T16:26:24.794717,-0.680,-0.560,0.000,-60.0,0.200,-0.300,180.360,1000.0
2025-09-03T16:26:24.796719,-0.680,-0.560,0.000,-60.0,0.200,-0.300,180.360,1000.0
2025-09-03T16:26:24.797718,-0.680,-0.560,0.000,-60.0,0.200,-0.300,180.360,1000.0
2025-09-03T16:26:24.798718,-0.680,-0.560,0.000,-60.0,0.200,-0.300,180.360,1000.0
2025-09-03T16:26:24.799718,-0.680,-0.560,0.000,-60.0,0.200,-0.300,180.360,1000.0
2025-09-03T16:26:24.904516,-0.680,-0.550,0.010,-60.0,0.200,-0.300,180.360,1000.0
2025-09-03T16:26:24.906516,-0.680,-0.550,0.010,-60.0,0.200,-0.300,180.360,1000.0
2025-09-03T16:26:24.907517,-0.680,-0.550,0.010,-60.0,0.200,-0.300,180.360,1000.0
2025-09-03T16:26:24.909520,-0.680,-0.550,0.010,-60.0,0.200,-0.300,180.360,1000.0
2025-09-03T16:26:24.910517,-0.680,-0.550,0.010,-60.0,0.200,-0.300,180.360,1000.0
2025-09-03T16:26:25.029516,-0.680,-0.550,0.010,-60.0,0.200,-0.300,180.360,1000.0
2025-09-03T16:26:25.030516,-0.680,-0.550,0.010,-60.0,0.200,-0.300,180.360,1000.0
2025-09-03T16:26:25.031516,-0.680,-0.550,0.010,-60.0,0.200,-0.300,180.360,1000.0
2025-09-03T16:26:25.033516,-0.680,-0.550,0.010,-60.0,0.200,-0.300,180.360,1000.0
2025-09-03T16:26:25.034516,-0.680,-0.550,0.010,-60.0,0.200,-0.300,180.360,1000.0
2025-09-03T16:26:25.139525,-0.680,-0.550,0.010,-60.0,0.200,-0.300,180.360,1000.0
2025-09-03T16:26:25.141517,-0.680,-0.550,0.010,-60.0,0.200,-0.300,180.360,1000.0
2025-09-03T16:26:25.143516,-0.680,-0.550,0.010,-60.0,0.200,-0.300,180.360,1000.0
2025-09-03T16:26:25.145519,-0.680,-0.550,0.010,-60.0,0.200,-0.300,180.360,1000.0
2025-09-03T16:26:25.147515,-0.680,-0.550,0.010,-60.0,0.200,-0.300,180.360,1000.0
2025-09-03T16:26:25.264516,-0.680,-0.550,0.010,-60.0,0.200,-0.300,180.360,1000.0
2025-09-03T16:26:25.265515,-0.680,-0.550,0.010,-60.0,0.200,-0.300,180.360,1000.0
2025-09-03T16:26:25.267515,-0.680,-0.550,0.010,-60.0,0.200,-0.300,180.360,1000.0
2025-09-03T16:26:25.268515,-0.680,-0.550,0.010,-60.0,0.200,-0.300,180.360,1000.0
2025-09-03T16:26:25.269516,-0.680,-0.550,0.010,-59.9,0.200,-0.300,180.360,1000.0
2025-09-03T16:26:25.386734,-0.680,-0.540,0.010,-59.9,0.200,-0.300,180.360,1000.0
2025-09-03T16:26:25.387733,-0.680,-0.540,0.010,-60.0,0.200,-0.300,180.360,1000.0
2025-09-03T16:26:25.389734,-0.680,-0.540,0.010,-60.0,0.200,-0.300,180.360,1000.0
2025-09-03T16:26:25.390736,-0.680,-0.540,0.010,-60.0,0.200,-0.300,180.360,1000.0
2025-09-03T16:26:25.392735,-0.680,-0.540,0.010,-60.0,0.200,-0.300,180.360,1000.0
2025-09-03T16:26:25.510705,-0.680,-0.550,0.010,-60.0,0.200,-0.300,180.360,1000.0
2025-09-03T16:26:25.511704,-0.680,-0.550,0.010,-60.0,0.200,-0.300,180.360,1000.0
2025-09-03T16:26:25.512737,-0.680,-0.540,0.010,-60.0,0.200,-0.300,180.360,1000.0
2025-09-03T16:26:25.514692,-0.680,-0.540,0.010,-60.0,0.200,-0.300,180.360,1000.0
2025-09-03T16:26:25.515703,-0.680,-0.540,0.010,-60.0,0.200,-0.300,180.360,1000.0
2025-09-03T16:26:25.632927,-0.680,-0.540,0.010,-60.0,0.200,-0.300,180.360,1000.0
2025-09-03T16:26:25.633928,-0.680,-0.540,0.010,-60.0,0.200,-0.300,180.360,1000.0
2025-09-03T16:26:25.634928,-0.680,-0.540,0.010,-60.0,0.200,-0.300,180.360,1000.0
2025-09-03T16:26:25.635927,-0.680,-0.540,0.010,-60.0,0.200,-0.300,180.360,1000.0
2025-09-03T16:26:25.636931,-0.680,-0.540,0.010,-60.0,0.200,-0.300,180.360,1000.0
2025-09-03T16:26:25.743448,-0.680,-0.540,0.010,-60.0,0.200,-0.300,180.360,1000.0
2025-09-03T16:26:25.744447,-0.680,-0.540,0.010,-60.0,0.200,-0.300,180.360,1000.0
2025-09-03T16:26:25.745500,-0.680,-0.540,0.010,-60.0,0.200,-0.300,180.360,1000.0
2025-09-03T16:26:25.746909,-0.680,-0.540,0.010,-60.0,0.200,-0.300,180.360,1000.0
2025-09-03T16:26:25.747923,-0.680,-0.540,0.010,-60.0,0.200,-0.300,180.360,1000.0
2025-09-03T16:26:25.851121,-0.680,-0.550,0.010,-60.0,0.200,-0.300,180.360,1000.0
2025-09-03T16:26:25.852121,-0.680,-0.550,0.010,-60.0,0.200,-0.300,180.360,1000.0
2025-09-03T16:26:25.853120,-0.680,-0.550,0.000,-60.0,0.200,-0.300,180.360,1000.0
2025-09-03T16:26:25.854120,-0.680,-0.550,0.010,-60.0,0.200,-0.300,180.360,1000.0
2025-09-03T16:26:25.855121,-0.680,-0.550,0.000,-60.0,0.200,-0.300,180.360,1000.0
2025-09-03T16:26:25.959900,-0.680,-0.560,0.000,-60.0,0.200,-0.300,180.360,1000.0
2025-09-03T16:26:25.961906,-0.680,-0.560,0.000,-60.0,0.200,-0.300,180.360,1000.0
2025-09-03T16:26:25.962899,-0.680,-0.560,0.000,-60.0,0.200,-0.300,180.360,1000.0
2025-09-03T16:26:25.963866,-0.680,-0.560,0.000,-60.0,0.200,-0.300,180.360,1000.0
2025-09-03T16:26:25.964866,-0.680,-0.570,0.000,-60.0,0.200,-0.300,180.360,1000.0
2025-09-03T16:26:26.069579,-0.680,-0.570,0.000,-60.0,0.200,-0.300,180.360,1000.0
2025-09-03T16:26:26.071579,-0.680,-0.570,0.010,-60.0,0.200,-0.300,180.360,1000.0
2025-09-03T16:26:26.074579,-0.680,-0.570,0.010,-60.0,0.200,-0.300,180.360,1000.0
2025-09-03T16:26:26.075579,-0.680,-0.570,0.010,-60.0,0.200,-0.300,180.360,1000.0
2025-09-03T16:26:26.076579,-0.680,-0.580,0.010,-60.1,0.200,-0.300,180.360,1000.0
2025-09-03T16:26:26.195749,-0.680,-0.580,0.010,-60.1,0.200,-0.300,180.360,1000.0
2025-09-03T16:26:26.196719,-0.680,-0.580,0.010,-60.1,0.200,-0.300,180.360,1000.0
2025-09-03T16:26:26.198730,-0.680,-0.580,0.010,-60.0,0.200,-0.300,180.360,1000.0
2025-09-03T16:26:26.199729,-0.680,-0.580,0.010,-60.0,0.200,-0.300,180.360,1000.0
2025-09-03T16:26:26.200727,-0.680,-0.580,0.010,-60.0,0.200,-0.300,180.360,1000.0
2025-09-03T16:26:26.304429,-0.680,-0.580,0.010,-60.0,0.200,-0.300,180.360,1000.0
2025-09-03T16:26:26.305428,-0.680,-0.580,0.010,-60.0,0.200,-0.300,180.360,1000.0
2025-09-03T16:26:26.306429,-0.680,-0.580,0.010,-60.0,0.200,-0.300,180.360,1000.0
2025-09-03T16:26:26.308429,-0.680,-0.580,0.010,-60.0,0.200,-0.300,180.360,1000.0
2025-09-03T16:26:26.309430,-0.680,-0.580,0.010,-60.0,0.200,-0.300,180.360,1000.0
2025-09-03T16:26:26.425693,-0.680,-0.580,0.010,-60.0,0.200,-0.300,180.360,1000.0
2025-09-03T16:26:26.428979,-0.680,-0.580,0.010,-60.0,0.200,-0.300,180.360,1000.0
2025-09-03T16:26:26.429978,-0.680,-0.580,0.010,-60.0,0.200,-0.300,180.360,1000.0
2025-09-03T16:26:26.430980,-0.680,-0.580,0.010,-60.0,0.200,-0.300,180.360,1000.0
2025-09-03T16:26:26.431986,-0.680,-0.580,0.010,-60.0,0.200,-0.300,180.360,1000.0
2025-09-03T16:26:26.550187,-0.680,-0.580,0.010,-60.0,0.200,-0.300,180.360,1000.0
2025-09-03T16:26:26.552188,-0.680,-0.580,0.010,-60.0,0.200,-0.300,180.360,1000.0
2025-09-03T16:26:26.553196,-0.680,-0.570,0.010,-60.0,0.200,-0.300,180.360,1000.0
2025-09-03T16:26:26.554188,-0.680,-0.570,0.010,-60.0,0.200,-0.300,180.360,1000.0
2025-09-03T16:26:26.555188,-0.680,-0.570,0.010,-60.0,0.200,-0.300,180.360,1000.0
2025-09-03T16:26:26.672801,-0.680,-0.570,0.010,-60.0,0.200,-0.300,180.360,1000.0
2025-09-03T16:26:26.675801,-0.680,-0.560,0.010,-60.0,0.200,-0.300,180.360,1000.0
2025-09-03T16:26:26.677802,-0.680,-0.560,0.010,-60.0,0.200,-0.300,180.360,1000.0
2025-09-03T16:26:26.678804,-0.680,-0.560,0.010,-60.0,0.200,-0.300,180.360,1000.0
2025-09-03T16:26:26.679801,-0.680,-0.560,0.010,-60.0,0.200,-0.300,180.360,1000.0
2025-09-03T16:26:26.796928,-0.680,-0.550,0.010,-60.0,0.200,-0.300,180.360,1000.0
2025-09-03T16:26:26.797927,-0.680,-0.550,0.010,-60.0,0.200,-0.300,180.360,1000.0
2025-09-03T16:26:26.798929,-0.680,-0.550,0.010,-60.0,0.200,-0.300,180.360,1000.0
2025-09-03T16:26:26.800927,-0.680,-0.550,0.010,-60.0,0.200,-0.300,180.360,1000.0
2025-09-03T16:26:26.801926,-0.680,-0.550,0.010,-60.0,0.200,-0.300,180.360,1000.0
2025-09-03T16:26:26.906691,-0.680,-0.550,0.000,-60.0,0.200,-0.300,180.360,1000.0
2025-09-03T16:26:26.908694,-0.680,-0.550,0.000,-60.0,0.200,-0.300,180.360,1000.0
2025-09-03T16:26:26.909692,-0.680,-0.550,0.000,-60.0,0.200,-0.300,180.360,1000.0
2025-09-03T16:26:26.911694,-0.680,-0.550,0.000,-60.0,0.200,-0.300,180.360,1000.0
2025-09-03T16:26:26.912694,-0.680,-0.550,0.000,-60.0,0.200,-0.300,180.360,1000.0
2025-09-03T16:26:27.031708,-0.680,-0.550,0.000,-60.0,0.200,-0.300,180.360,1000.0
2025-09-03T16:26:27.032709,-0.680,-0.550,0.000,-60.0,0.200,-0.300,180.360,1000.0
2025-09-03T16:26:27.033711,-0.680,-0.550,0.000,-60.0,0.200,-0.300,180.360,1000.0
2025-09-03T16:26:27.034711,-0.680,-0.550,0.000,-60.0,0.200,-0.300,180.360,1000.0
2025-09-03T16:26:27.035710,-0.680,-0.550,0.000,-60.0,0.200,-0.300,180.360,1000.0
2025-09-03T16:26:27.153872,-0.680,-0.550,0.010,-60.1,0.200,-0.300,180.360,1000.0
2025-09-03T16:26:27.155873,-0.680,-0.550,0.010,-60.1,0.200,-0.300,180.360,1000.0
2025-09-03T16:26:27.156873,-0.680,-0.550,0.010,-60.1,0.200,-0.300,180.360,1000.0
2025-09-03T16:26:27.158876,-0.680,-0.550,0.010,-60.1,0.200,-0.300,180.360,1000.0
2025-09-03T16:26:27.160873,-0.680,-0.550,0.010,-60.0,0.200,-0.300,180.360,1000.0
2025-09-03T16:26:27.279398,-0.680,-0.550,0.010,-60.0,0.200,-0.300,180.360,1000.0
2025-09-03T16:26:27.281398,-0.680,-0.550,0.010,-60.0,0.200,-0.300,180.360,1000.0
2025-09-03T16:26:27.283448,-0.680,-0.540,0.000,-60.0,0.200,-0.300,180.360,1000.0
2025-09-03T16:26:27.284397,-0.660,-0.540,359.990,-60.1,0.200,-0.300,180.360,1000.0
2025-09-03T16:26:27.285434,-0.640,-0.520,359.980,-60.1,0.200,-0.300,180.360,1000.0
2025-09-03T16:26:27.401265,-0.620,-0.510,359.960,-60.1,0.200,-0.300,180.360,1000.0
2025-09-03T16:26:27.403265,-0.590,-0.510,359.920,-60.1,0.200,-0.300,180.360,1000.0
2025-09-03T16:26:27.404267,-0.530,-0.540,359.850,-60.1,0.200,-0.300,180.360,1000.0
2025-09-03T16:26:27.406266,-0.530,-0.550,359.750,-60.1,0.200,-0.300,180.360,1000.0
2025-09-03T16:26:27.407267,-0.650,-0.520,359.600,-60.1,0.200,-0.300,180.360,1000.0
2025-09-03T16:26:27.524807,-0.680,-0.520,359.460,-60.1,0.200,-0.300,180.360,1000.0
2025-09-03T16:26:27.526805,-0.690,-0.520,359.340,-60.1,0.200,-0.300,180.360,1000.0
2025-09-03T16:26:27.527805,-0.690,-0.540,359.270,-60.1,0.200,-0.300,180.360,1000.0
2025-09-03T16:26:27.529803,-0.700,-0.540,359.260,-60.1,0.200,-0.300,180.360,1000.0
2025-09-03T16:26:27.530803,-0.710,-0.540,359.260,-60.1,0.200,-0.300,180.360,1000.0
2025-09-03T16:26:27.648348,-0.720,-0.540,359.260,-60.1,0.200,-0.300,180.360,1000.0
2025-09-03T16:26:27.649350,-0.720,-0.540,359.260,-60.1,0.200,-0.300,180.360,1000.0
2025-09-03T16:26:27.650348,-0.720,-0.540,359.260,-60.1,0.200,-0.300,180.360,1000.0
2025-09-03T16:26:27.651348,-0.720,-0.540,359.260,-60.1,0.200,-0.300,180.360,1000.0
2025-09-03T16:26:27.653348,-0.730,-0.540,359.260,-60.1,0.200,-0.300,180.360,1000.0
2025-09-03T16:26:27.759962,-0.740,-0.540,359.260,-60.1,0.200,-0.300,180.360,1000.0
2025-09-03T16:26:27.762056,-0.740,-0.540,359.260,-60.1,0.200,-0.300,180.360,1000.0
2025-09-03T16:26:27.763063,-0.740,-0.540,359.260,-60.1,0.200,-0.300,180.360,1000.0
2025-09-03T16:26:27.764062,-0.740,-0.540,359.260,-60.1,0.200,-0.300,180.360,1000.0
2025-09-03T16:26:27.765062,-0.740,-0.540,359.260,-60.1,0.200,-0.300,180.360,1000.0
2025-09-03T16:26:27.868836,-0.740,-0.540,359.260,-60.0,0.200,-0.300,180.360,1000.0
2025-09-03T16:26:27.870836,-0.740,-0.540,359.260,-60.0,0.200,-0.300,180.360,1000.0
2025-09-03T16:26:27.871836,-0.740,-0.540,359.260,-60.0,0.200,-0.300,180.360,1000.0
2025-09-03T16:26:27.873837,-0.730,-0.530,359.260,-60.0,0.200,-0.300,180.360,1000.0
2025-09-03T16:26:27.876896,-0.720,-0.520,359.260,-60.0,0.200,-0.300,180.360,1000.0
2025-09-03T16:26:27.993609,-0.720,-0.520,359.260,-60.0,0.200,-0.300,180.360,1000.0
2025-09-03T16:26:27.994611,-0.720,-0.510,359.260,-60.0,0.200,-0.300,180.360,1000.0
2025-09-03T16:26:27.996610,-0.720,-0.500,359.260,-60.0,0.200,-0.300,180.360,1000.0
2025-09-03T16:26:27.997610,-0.710,-0.500,359.260,-60.0,0.200,-0.300,180.360,1000.0
2025-09-03T16:26:27.998609,-0.700,-0.490,359.260,-60.0,0.200,-0.300,180.360,1000.0
2025-09-03T16:26:28.113775,-0.700,-0.470,359.280,-60.0,0.200,-0.300,180.360,1000.0
2025-09-03T16:26:28.114775,-0.720,-0.470,359.300,-60.0,0.200,-0.300,180.360,1000.0
2025-09-03T16:26:28.116789,-0.720,-0.470,359.320,-60.1,0.200,-0.300,180.360,1000.0
2025-09-03T16:26:28.117784,-0.720,-0.470,359.400,-60.1,0.200,-0.300,180.360,1000.0
2025-09-03T16:26:28.118775,-0.710,-0.490,359.570,-60.1,0.200,-0.300,180.360,1000.0
2025-09-03T16:26:28.223750,-0.700,-0.530,359.810,-60.1,0.200,-0.300,180.360,1000.0
2025-09-03T16:26:28.225751,-0.690,-0.550,0.000,-60.1,0.200,-0.300,180.360,1000.0
2025-09-03T16:26:28.226751,-0.710,-0.570,0.140,-60.1,0.200,-0.300,180.360,1000.0
2025-09-03T16:26:28.227751,-0.700,-0.580,0.360,-60.1,0.200,-0.300,180.360,1000.0
2025-09-03T16:26:28.229750,-0.690,-0.600,0.810,-60.1,0.200,-0.300,180.360,1000.0
2025-09-03T16:26:28.333670,-0.650,-0.610,1.480,-60.1,0.200,-0.300,180.360,1000.0
2025-09-03T16:26:28.334671,-0.610,-0.620,2.340,-60.1,0.200,-0.300,180.360,1000.0
2025-09-03T16:26:28.336671,-0.580,-0.640,3.300,-60.1,0.200,-0.300,180.360,1000.0
2025-09-03T16:26:28.337670,-0.570,-0.650,4.130,-60.1,0.200,-0.300,180.360,1000.0
2025-09-03T16:26:28.338671,-0.560,-0.640,4.800,-60.1,0.200,-0.300,180.360,1000.0
2025-09-03T16:26:28.442030,-0.540,-0.630,5.400,-60.1,0.200,-0.300,180.360,1000.0
2025-09-03T16:26:28.444032,-0.530,-0.630,5.970,-60.1,0.200,-0.300,180.360,1000.0
2025-09-03T16:26:28.445031,-0.520,-0.620,6.490,-60.0,0.200,-0.300,180.360,1000.0
2025-09-03T16:26:28.446030,-0.520,-0.620,6.880,-60.0,0.200,-0.300,180.360,1000.0
2025-09-03T16:26:28.448031,-0.520,-0.620,7.190,-60.0,0.200,-0.300,180.360,1000.0
2025-09-03T16:26:28.565212,-0.540,-0.610,7.450,-60.0,0.200,-0.300,180.360,1000.0
2025-09-03T16:26:28.566201,-0.580,-0.580,7.710,-60.0,0.200,-0.300,180.360,1000.0
2025-09-03T16:26:28.567211,-0.680,-0.540,7.890,-60.0,0.200,-0.300,180.360,1000.0
2025-09-03T16:26:28.569200,-0.930,-0.500,8.110,-60.0,0.200,-0.300,180.360,1000.0
2025-09-03T16:26:28.571203,-1.380,-0.460,8.310,-60.0,0.200,-0.300,180.360,1000.0
2025-09-03T16:26:28.690481,-2.030,-0.310,8.460,-60.0,0.200,-0.300,180.360,1000.0
2025-09-03T16:26:28.692480,-3.000,-0.070,8.540,-60.1,0.200,-0.300,180.360,1000.0
2025-09-03T16:26:28.693482,-4.470,0.230,8.550,-60.1,0.200,-0.300,180.360,1000.0
2025-09-03T16:26:28.694481,-6.070,0.560,8.460,-60.1,0.200,-0.300,180.360,1000.0
2025-09-03T16:26:28.695479,-8.040,0.910,8.300,-60.1,0.200,-0.300,180.360,1000.0
2025-09-03T16:26:28.812633,-10.010,1.220,8.110,-60.1,0.200,-0.300,180.360,1000.0
2025-09-03T16:26:28.814644,-12.940,1.590,7.850,-60.1,0.200,-0.300,180.360,1000.0
2025-09-03T16:26:28.815632,-15.550,1.900,7.640,-60.0,0.200,-0.300,180.360,1000.0
2025-09-03T16:26:28.816631,-18.930,2.270,7.400,-60.0,0.200,-0.300,180.360,1000.0
2025-09-03T16:26:28.817632,-22.460,2.680,7.190,-60.0,0.200,-0.300,180.360,1000.0
2025-09-03T16:26:28.936218,-26.420,3.120,6.980,-60.0,0.200,-0.300,180.360,1000.0
2025-09-03T16:26:28.937219,-30.010,3.430,6.780,-60.0,0.200,-0.300,180.360,1000.0
2025-09-03T16:26:28.939216,-33.230,3.450,6.660,-60.0,0.200,-0.300,180.360,1000.0
2025-09-03T16:26:28.940217,-35.590,3.270,6.670,-60.0,0.200,-0.300,180.360,1000.0
2025-09-03T16:26:28.941216,-38.860,3.120,6.640,-60.0,0.200,-0.300,180.360,1000.0
2025-09-03T16:26:29.045216,-41.410,2.860,6.630,-60.0,0.200,-0.300,180.360,1000.0
2025-09-03T16:26:29.047216,-43.350,2.450,6.750,-60.0,0.200,-0.300,180.360,1000.0
2025-09-03T16:26:29.048216,-45.660,1.960,6.980,-60.0,0.200,-0.300,180.360,1000.0
2025-09-03T16:26:29.049218,-47.690,1.710,7.070,-60.0,0.200,-0.300,180.360,1000.0
2025-09-03T16:26:29.050220,-49.450,1.540,7.150,-60.0,0.200,-0.300,180.360,1000.0
2025-09-03T16:26:29.154661,-50.700,1.300,7.340,-60.0,0.200,-0.300,180.360,1000.0
2025-09-03T16:26:29.155660,-51.480,1.020,7.620,-60.0,0.200,-0.300,180.360,1000.0
2025-09-03T16:26:29.156662,-51.750,0.710,7.930,-60.1,0.200,-0.300,180.360,1000.0
2025-09-03T16:26:29.158660,-51.390,0.290,8.280,-60.1,0.200,-0.300,180.360,1000.0
2025-09-03T16:26:29.160661,-50.320,-0.220,8.700,-60.1,0.200,-0.300,180.360,1000.0
2025-09-03T16:26:29.278138,-48.570,-0.780,9.080,-60.1,0.200,-0.300,180.360,1000.0
2025-09-03T16:26:29.279138,-46.190,-1.290,9.300,-60.1,0.200,-0.300,180.360,1000.0
2025-09-03T16:26:29.280137,-43.180,-1.700,9.280,-60.1,0.200,-0.300,180.360,1000.0
2025-09-03T16:26:29.281137,-39.680,-2.070,9.010,-60.1,0.200,-0.300,180.360,1000.0
2025-09-03T16:26:29.282137,-35.750,-2.490,8.510,-60.1,0.200,-0.300,180.360,1000.0
2025-09-03T16:26:29.386371,-31.440,-2.970,7.820,-60.1,0.200,-0.300,180.360,1000.0
2025-09-03T16:26:29.388373,-26.860,-3.470,6.970,-60.1,0.200,-0.300,180.360,1000.0
2025-09-03T16:26:29.389372,-22.240,-4.050,6.080,-60.1,0.200,-0.300,180.360,1000.0
2025-09-03T16:26:29.390371,-17.650,-4.660,5.220,-60.2,0.200,-0.300,180.360,1000.0
2025-09-03T16:26:29.391372,-13.020,-5.290,4.410,-60.2,0.200,-0.300,180.360,1000.0
2025-09-03T16:26:29.495995,-9.450,-5.740,3.780,-60.2,0.200,-0.300,180.360,1000.0
2025-09-03T16:26:29.496989,-5.130,-6.180,3.000,-60.2,0.200,-0.300,180.360,1000.0
2025-09-03T16:26:29.497990,-1.760,-6.410,2.430,-60.2,0.200,-0.300,180.360,1000.0
2025-09-03T16:26:29.499990,1.190,-6.600,2.010,-60.1,0.200,-0.300,180.360,1000.0
2025-09-03T16:26:29.500991,3.210,-6.680,1.750,-60.1,0.200,-0.300,180.360,1000.0
2025-09-03T16:26:29.605181,6.120,-6.590,1.380,-60.1,0.200,-0.300,180.360,1000.0
2025-09-03T16:26:29.606191,8.060,-6.330,1.220,-60.1,0.200,-0.300,180.360,1000.0
2025-09-03T16:26:29.607182,9.610,-5.990,1.240,-60.1,0.200,-0.300,180.360,1000.0
2025-09-03T16:26:29.609183,10.910,-5.570,1.370,-60.1,0.200,-0.300,180.360,1000.0
2025-09-03T16:26:29.611184,12.090,-5.070,1.550,-60.1,0.200,-0.300,180.360,1000.0
2025-09-03T16:26:29.729873,13.040,-4.440,1.800,-60.1,0.200,-0.300,180.360,1000.0
2025-09-03T16:26:29.730871,13.630,-3.710,2.160,-60.1,0.200,-0.300,180.360,1000.0
2025-09-03T16:26:29.731870,13.700,-2.980,2.660,-60.1,0.200,-0.300,180.360,1000.0
2025-09-03T16:26:29.732872,13.080,-2.120,3.340,-60.1,0.200,-0.300,180.360,1000.0
2025-09-03T16:26:29.733871,11.790,-1.080,4.170,-60.1,0.200,-0.300,180.360,1000.0
2025-09-03T16:26:29.838179,9.780,0.110,5.150,-60.1,0.200,-0.300,180.360,1000.0
2025-09-03T16:26:29.839180,6.970,1.440,6.120,-60.1,0.200,-0.300,180.360,1000.0
2025-09-03T16:26:29.840180,3.490,2.820,6.980,-60.2,0.200,-0.300,180.360,1000.0
2025-09-03T16:26:29.841179,-0.300,4.190,7.770,-60.2,0.200,-0.300,180.360,1000.0
2025-09-03T16:26:29.842179,-4.210,5.420,8.480,-60.2,0.200,-0.300,180.360,1000.0
2025-09-03T16:26:29.947104,-8.400,6.560,9.180,-60.2,0.200,-0.300,180.360,1000.0
2025-09-03T16:26:29.948106,-11.900,7.430,9.730,-60.2,0.200,-0.300,180.360,1000.0
2025-09-03T16:26:29.950106,-16.400,8.550,10.450,-60.2,0.200,-0.300,180.360,1000.0
2025-09-03T16:26:29.951106,-20.120,9.550,11.000,-60.2,0.200,-0.300,180.360,1000.0
2025-09-03T16:26:29.952107,-22.780,10.290,11.300,-60.1,0.200,-0.300,180.360,1000.0
2025-09-03T16:26:30.057105,-26.890,11.430,11.600,-60.1,0.200,-0.300,180.360,1000.0
2025-09-03T16:26:30.058105,-29.850,12.230,11.720,-60.1,0.200,-0.300,180.360,1000.0
2025-09-03T16:26:30.060109,-32.510,12.860,11.820,-60.1,0.200,-0.300,180.360,1000.0
2025-09-03T16:26:30.062107,-34.930,13.300,11.880,-60.1,0.200,-0.300,180.360,1000.0
2025-09-03T16:26:30.063107,-36.790,13.540,11.900,-60.1,0.200,-0.300,180.360,1000.0
2025-09-03T16:26:30.167176,-38.790,13.660,11.830,-60.1,0.200,-0.300,180.360,1000.0
2025-09-03T16:26:30.169175,-40.240,13.700,11.650,-60.2,0.200,-0.300,180.360,1000.0
2025-09-03T16:26:30.171174,-41.330,13.620,11.360,-60.2,0.200,-0.300,180.360,1000.0
2025-09-03T16:26:30.173176,-42.020,13.430,11.020,-60.2,0.200,-0.300,180.360,1000.0
2025-09-03T16:26:30.174176,-42.290,13.060,10.600,-60.2,0.200,-0.300,180.360,1000.0
2025-09-03T16:26:30.289463,-42.090,12.550,9.990,-60.2,0.200,-0.300,180.360,1000.0
2025-09-03T16:26:30.290451,-41.440,11.860,9.170,-60.2,0.200,-0.300,180.360,1000.0
2025-09-03T16:26:30.292452,-40.380,10.990,8.210,-60.2,0.200,-0.300,180.360,1000.0
2025-09-03T16:26:30.294451,-39.340,10.190,7.420,-60.2,0.200,-0.300,180.360,1000.0
2025-09-03T16:26:30.295453,-37.230,8.690,6.080,-60.2,0.200,-0.300,180.360,1000.0
2025-09-03T16:26:30.413327,-35.360,7.410,5.050,-60.2,0.200,-0.300,180.360,1000.0
2025-09-03T16:26:30.415323,-33.360,6.120,4.140,-60.2,0.200,-0.300,180.360,1000.0
2025-09-03T16:26:30.417325,-31.120,4.770,3.400,-60.2,0.200,-0.300,180.360,1000.0
2025-09-03T16:26:30.418324,-29.070,3.640,2.860,-60.2,0.200,-0.300,180.360,1000.0
2025-09-03T16:26:30.419323,-26.210,2.220,2.200,-60.2,0.200,-0.300,180.360,1000.0
2025-09-03T16:26:30.536658,-23.580,1.110,1.650,-60.2,0.200,-0.300,180.360,1000.0
2025-09-03T16:26:30.537663,-20.600,-0.040,1.080,-60.2,0.200,-0.300,180.360,1000.0
2025-09-03T16:26:30.538663,-18.300,-0.880,0.650,-60.2,0.200,-0.300,180.360,1000.0
2025-09-03T16:26:30.539662,-16.380,-1.510,0.260,-60.2,0.200,-0.300,180.360,1000.0
2025-09-03T16:26:30.541663,-13.450,-2.300,359.610,-60.2,0.200,-0.300,180.360,1000.0
2025-09-03T16:26:30.645508,-11.400,-2.720,359.170,-60.2,0.200,-0.300,180.360,1000.0
2025-09-03T16:26:30.647504,-9.620,-2.970,358.850,-60.2,0.200,-0.300,180.360,1000.0
2025-09-03T16:26:30.648505,-8.130,-2.990,358.630,-60.2,0.200,-0.300,180.360,1000.0
2025-09-03T16:26:30.649507,-6.960,-2.750,358.510,-60.2,0.200,-0.300,180.360,1000.0
2025-09-03T16:26:30.650507,-6.230,-2.360,358.480,-60.2,0.200,-0.300,180.360,1000.0
2025-09-03T16:26:30.768131,-5.790,-1.840,358.530,-60.2,0.200,-0.300,180.360,1000.0
2025-09-03T16:26:30.770129,-5.640,-1.120,358.630,-60.2,0.200,-0.300,180.360,1000.0
2025-09-03T16:26:30.772128,-5.820,-0.530,358.730,-60.2,0.200,-0.300,180.360,1000.0
2025-09-03T16:26:30.774130,-6.290,0.160,358.860,-60.2,0.200,-0.300,180.360,1000.0
2025-09-03T16:26:30.775129,-6.980,0.810,358.990,-60.2,0.200,-0.300,180.360,1000.0
2025-09-03T16:26:30.891371,-7.940,1.430,359.090,-60.2,0.200,-0.300,180.360,1000.0
2025-09-03T16:26:30.893372,-8.870,1.940,359.100,-60.2,0.200,-0.300,180.360,1000.0
2025-09-03T16:26:30.895373,-9.590,2.330,359.070,-60.2,0.200,-0.300,180.360,1000.0
2025-09-03T16:26:30.896371,-10.620,2.800,358.970,-60.2,0.200,-0.300,180.360,1000.0
2025-09-03T16:26:30.897371,-11.400,3.100,358.800,-60.2,0.200,-0.300,180.360,1000.0
2025-09-03T16:26:31.014007,-12.000,3.320,358.550,-60.2,0.200,-0.300,180.360,1000.0
2025-09-03T16:26:31.016868,-12.550,3.440,358.280,-60.2,0.200,-0.300,180.360,1000.0
2025-09-03T16:26:31.018862,-12.930,3.400,358.130,-60.2,0.200,-0.300,180.360,1000.0
2025-09-03T16:26:31.020863,-13.190,3.230,357.990,-60.2,0.200,-0.300,180.360,1000.0
2025-09-03T16:26:31.022861,-13.340,3.070,357.840,-60.2,0.200,-0.300,180.360,1000.0
2025-09-03T16:26:31.136863,-13.470,2.860,357.600,-60.2,0.200,-0.300,180.360,1000.0
2025-09-03T16:26:31.137863,-13.530,2.720,357.420,-60.2,0.200,-0.300,180.360,1000.0
2025-09-03T16:26:31.139865,-13.570,2.620,357.330,-60.2,0.200,-0.300,180.360,1000.0
2025-09-03T16:26:31.141862,-13.610,2.600,357.340,-60.2,0.200,-0.300,180.360,1000.0
2025-09-03T16:26:31.144864,-13.650,2.640,357.410,-60.2,0.200,-0.300,180.360,1000.0
2025-09-03T16:26:31.258057,-13.650,2.680,357.500,-60.2,0.200,-0.300,180.360,1000.0
2025-09-03T16:26:31.259057,-13.620,2.760,357.580,-60.3,0.200,-0.300,180.360,1000.0
2025-09-03T16:26:31.261057,-13.540,2.870,357.720,-60.3,0.200,-0.300,180.360,1000.0
2025-09-03T16:26:31.262057,-13.380,2.890,357.870,-60.3,0.200,-0.300,180.360,1000.0
2025-09-03T16:26:31.263058,-13.170,2.870,357.990,-60.3,0.200,-0.300,180.360,1000.0
2025-09-03T16:26:31.367319,-12.790,2.730,358.130,-60.3,0.200,-0.300,180.360,1000.0
2025-09-03T16:26:31.369318,-12.060,2.330,358.240,-60.2,0.200,-0.300,180.360,1000.0
2025-09-03T16:26:31.371308,-11.460,1.960,358.190,-60.2,0.200,-0.300,180.360,1000.0
2025-09-03T16:26:31.373309,-11.010,1.630,358.090,-60.2,0.200,-0.300,180.360,1000.0
2025-09-03T16:26:31.375318,-10.480,1.180,358.000,-60.2,0.200,-0.300,180.360,1000.0
2025-09-03T16:26:31.493310,-9.950,0.730,357.890,-60.2,0.200,-0.300,180.360,1000.0
2025-09-03T16:26:31.495303,-9.440,0.300,357.720,-60.2,0.200,-0.300,180.360,1000.0
2025-09-03T16:26:31.496303,-8.950,-0.180,357.510,-60.2,0.200,-0.300,180.360,1000.0
2025-09-03T16:26:31.497303,-8.440,-0.740,357.330,-60.2,0.200,-0.300,180.360,1000.0
2025-09-03T16:26:31.499303,-7.710,-1.400,357.190,-60.2,0.200,-0.300,180.360,1000.0
2025-09-03T16:26:31.602952,-6.770,-1.810,357.110,-60.2,0.200,-0.300,180.360,1000.0
2025-09-03T16:26:31.603941,-5.520,-1.740,357.130,-60.2,0.200,-0.300,180.360,1000.0
2025-09-03T16:26:31.604941,-4.250,-1.630,357.260,-60.2,0.200,-0.300,180.360,1000.0
2025-09-03T16:26:31.606954,-2.840,-1.500,357.490,-60.2,0.200,-0.300,180.360,1000.0
2025-09-03T16:26:31.607943,-1.260,-0.610,357.710,-60.2,0.200,-0.300,180.360,1000.0
2025-09-03T16:26:31.712972,-1.270,-0.540,357.700,-60.2,0.200,-0.300,180.360,1000.0
2025-09-03T16:26:31.713971,-1.110,-0.430,357.610,-60.2,0.200,-0.300,180.360,1000.0
2025-09-03T16:26:31.715970,-1.130,-0.470,357.450,-60.2,0.200,-0.300,180.360,1000.0
2025-09-03T16:26:31.716972,-1.160,-0.520,357.350,-60.2,0.200,-0.300,180.360,1000.0
2025-09-03T16:26:31.717981,-1.210,-0.570,357.290,-60.2,0.200,-0.300,180.360,1000.0
2025-09-03T16:26:31.837489,-1.260,-0.580,357.300,-60.2,0.200,-0.300,180.360,1000.0
2025-09-03T16:26:31.838493,-1.160,-0.550,357.310,-60.2,0.200,-0.300,180.360,1000.0
2025-09-03T16:26:31.839493,-1.120,-0.550,357.310,-60.2,0.200,-0.300,180.360,1000.0
2025-09-03T16:26:31.840490,-1.100,-0.550,357.310,-60.1,0.200,-0.300,180.360,1000.0
2025-09-03T16:26:31.841490,-1.100,-0.540,357.310,-60.1,0.200,-0.300,180.360,1000.0
2025-09-03T16:26:31.947420,-1.100,-0.540,357.310,-60.1,0.200,-0.300,180.360,1000.0
2025-09-03T16:26:31.949419,-1.120,-0.520,357.310,-60.1,0.200,-0.300,180.360,1000.0
2025-09-03T16:26:31.950458,-1.110,-0.520,357.310,-60.2,0.200,-0.300,180.360,1000.0
2025-09-03T16:26:31.951421,-1.090,-0.520,357.310,-60.2,0.200,-0.300,180.360,1000.0
2025-09-03T16:26:31.952454,-1.080,-0.530,357.310,-60.2,0.200,-0.300,180.360,1000.0
2025-09-03T16:26:32.070419,-1.070,-0.530,357.310,-60.2,0.200,-0.300,180.360,1000.0
2025-09-03T16:26:32.073421,-1.070,-0.520,357.310,-60.2,0.200,-0.300,180.360,1000.0
2025-09-03T16:26:32.075431,-1.070,-0.520,357.310,-60.2,0.200,-0.300,180.360,1000.0
2025-09-03T16:26:32.076420,-1.050,-0.520,357.320,-60.2,0.200,-0.300,180.360,1000.0
2025-09-03T16:26:32.078424,-1.010,-0.520,357.310,-60.2,0.200,-0.300,180.360,1000.0
2025-09-03T16:26:32.196421,-0.970,-0.520,357.320,-60.2,0.200,-0.300,180.360,1000.0
2025-09-03T16:26:32.198423,-0.940,-0.520,357.320,-60.2,0.200,-0.300,180.360,1000.0
2025-09-03T16:26:32.200419,-0.920,-0.520,357.310,-60.2,0.200,-0.300,180.360,1000.0
2025-09-03T16:26:32.202419,-0.900,-0.520,357.320,-60.2,0.200,-0.300,180.360,1000.0
2025-09-03T16:26:32.203419,-0.880,-0.520,357.320,-60.2,0.200,-0.300,180.360,1000.0
2025-09-03T16:26:32.320749,-0.860,-0.510,357.320,-60.2,0.200,-0.300,180.360,1000.0
2025-09-03T16:26:32.321760,-0.840,-0.510,357.320,-60.2,0.200,-0.300,180.360,1000.0
2025-09-03T16:26:32.322749,-0.820,-0.510,357.320,-60.2,0.200,-0.300,180.360,1000.0
2025-09-03T16:26:32.324748,-0.810,-0.510,357.320,-60.2,0.200,-0.300,180.360,1000.0
2025-09-03T16:26:32.325750,-0.790,-0.510,357.320,-60.2,0.200,-0.300,180.360,1000.0
2025-09-03T16:26:32.430091,-0.780,-0.510,357.320,-60.2,0.200,-0.300,180.360,1000.0
2025-09-03T16:26:32.432092,-0.770,-0.510,357.320,-60.2,0.200,-0.300,180.360,1000.0
2025-09-03T16:26:32.433091,-0.750,-0.510,357.320,-60.2,0.200,-0.300,180.360,1000.0
2025-09-03T16:26:32.434090,-0.740,-0.500,357.320,-60.2,0.200,-0.300,180.360,1000.0
2025-09-03T16:26:32.435093,-0.730,-0.500,357.320,-60.3,0.200,-0.300,180.360,1000.0
2025-09-03T16:26:32.553068,-0.730,-0.500,357.320,-60.3,0.200,-0.300,180.360,1000.0
2025-09-03T16:26:32.555068,-0.720,-0.500,357.320,-60.3,0.200,-0.300,180.360,1000.0
2025-09-03T16:26:32.556080,-0.720,-0.500,357.320,-60.3,0.200,-0.300,180.360,1000.0
2025-09-03T16:26:32.557068,-0.710,-0.500,357.320,-60.3,0.200,-0.300,180.360,1000.0
2025-09-03T16:26:32.558074,-0.700,-0.500,357.320,-60.2,0.200,-0.300,180.360,1000.0
2025-09-03T16:26:32.679197,-0.700,-0.500,357.320,-60.2,0.200,-0.300,180.360,1000.0
2025-09-03T16:26:32.682190,-0.700,-0.500,357.320,-60.2,0.200,-0.300,180.360,1000.0
2025-09-03T16:26:32.685191,-0.700,-0.500,357.310,-60.2,0.200,-0.300,180.360,1000.0
2025-09-03T16:26:32.686189,-0.690,-0.500,357.310,-60.2,0.200,-0.300,180.360,1000.0
2025-09-03T16:26:32.687190,-0.680,-0.500,357.310,-60.2,0.200,-0.300,180.360,1000.0
2025-09-03T16:26:32.799467,-0.680,-0.500,357.310,-60.2,0.200,-0.300,180.360,1000.0
2025-09-03T16:26:32.800465,-0.680,-0.490,357.320,-60.2,0.200,-0.300,180.360,1000.0
2025-09-03T16:26:32.802465,-0.680,-0.500,357.320,-60.2,0.200,-0.300,180.360,1000.0
2025-09-03T16:26:32.803465,-0.680,-0.500,357.320,-60.2,0.200,-0.300,180.360,1000.0
2025-09-03T16:26:32.804465,-0.680,-0.500,357.320,-60.2,0.200,-0.300,180.360,1000.0
2025-09-03T16:26:32.908337,-0.670,-0.500,357.320,-60.2,0.200,-0.300,180.360,1000.0
2025-09-03T16:26:32.910337,-0.670,-0.500,357.320,-60.2,0.200,-0.300,180.360,1000.0
2025-09-03T16:26:32.911339,-0.660,-0.500,357.320,-60.2,0.200,-0.300,180.360,1000.0
2025-09-03T16:26:32.913337,-0.660,-0.510,357.320,-60.2,0.200,-0.300,180.360,1000.0
2025-09-03T16:26:32.914337,-0.660,-0.500,357.320,-60.2,0.200,-0.300,180.360,1000.0
2025-09-03T16:26:33.018178,-0.660,-0.500,357.320,-60.2,0.200,-0.300,180.360,1000.0
2025-09-03T16:26:33.019186,-0.660,-0.500,357.320,-60.2,0.200,-0.300,180.360,1000.0
2025-09-03T16:26:33.021178,-0.660,-0.510,357.320,-60.2,0.200,-0.300,180.360,1000.0
2025-09-03T16:26:33.022177,-0.660,-0.500,357.310,-60.2,0.200,-0.300,180.360,1000.0
2025-09-03T16:26:33.023178,-0.660,-0.500,357.320,-60.2,0.200,-0.300,180.360,1000.0
2025-09-03T16:26:33.128421,-0.660,-0.500,357.310,-60.2,0.200,-0.300,180.360,1000.0
2025-09-03T16:26:33.130419,-0.650,-0.500,357.310,-60.2,0.200,-0.300,180.360,1000.0
2025-09-03T16:26:33.131420,-0.650,-0.510,357.310,-60.2,0.200,-0.300,180.360,1000.0
2025-09-03T16:26:33.132418,-0.650,-0.510,357.320,-60.2,0.200,-0.300,180.360,1000.0
2025-09-03T16:26:33.133419,-0.650,-0.510,357.320,-60.2,0.200,-0.300,180.360,1000.0
2025-09-03T16:26:33.250399,-0.650,-0.510,357.320,-60.2,0.200,-0.300,180.360,1000.0
2025-09-03T16:26:33.252399,-0.650,-0.500,357.320,-60.2,0.200,-0.300,180.360,1000.0
2025-09-03T16:26:33.253397,-0.650,-0.510,357.320,-60.2,0.200,-0.300,180.360,1000.0
2025-09-03T16:26:33.254398,-0.650,-0.500,357.320,-60.2,0.200,-0.300,180.360,1000.0
2025-09-03T16:26:33.255398,-0.640,-0.500,357.320,-60.2,0.200,-0.300,180.360,1000.0
2025-09-03T16:26:33.358670,-0.640,-0.500,357.320,-60.2,0.200,-0.300,180.360,1000.0
2025-09-03T16:26:33.359669,-0.640,-0.500,357.320,-60.2,0.200,-0.300,180.360,1000.0
2025-09-03T16:26:33.360670,-0.640,-0.500,357.320,-60.2,0.200,-0.300,180.360,1000.0
2025-09-03T16:26:33.362671,-0.630,-0.500,357.320,-60.2,0.200,-0.300,180.360,1000.0
2025-09-03T16:26:33.363670,-0.640,-0.500,357.320,-60.2,0.200,-0.300,180.360,1000.0
2025-09-03T16:26:33.480261,-0.640,-0.500,357.320,-60.3,0.200,-0.300,180.360,1000.0
2025-09-03T16:26:33.483259,-0.630,-0.490,357.320,-60.3,0.200,-0.300,180.360,1000.0
2025-09-03T16:26:33.485258,-0.640,-0.490,357.320,-60.3,0.200,-0.300,180.360,1000.0
2025-09-03T16:26:33.486258,-0.640,-0.490,357.320,-60.3,0.200,-0.300,180.360,1000.0
2025-09-03T16:26:33.488259,-0.640,-0.490,357.320,-60.3,0.200,-0.300,180.360,1000.0
2025-09-03T16:26:33.603099,-0.640,-0.500,357.330,-60.3,0.200,-0.300,180.360,1000.0
2025-09-03T16:26:33.604099,-0.640,-0.500,357.330,-60.3,0.200,-0.300,180.360,1000.0
2025-09-03T16:26:33.605100,-0.650,-0.490,357.330,-60.3,0.200,-0.300,180.360,1000.0
2025-09-03T16:26:33.607099,-0.650,-0.490,357.330,-60.2,0.200,-0.300,180.360,1000.0
2025-09-03T16:26:33.608100,-0.640,-0.500,357.330,-60.2,0.200,-0.300,180.360,1000.0
2025-09-03T16:26:33.711305,-0.640,-0.500,357.330,-60.2,0.200,-0.300,180.360,1000.0
2025-09-03T16:26:33.713305,-0.640,-0.500,357.330,-60.3,0.200,-0.300,180.360,1000.0
2025-09-03T16:26:33.715307,-0.640,-0.500,357.330,-60.3,0.200,-0.300,180.360,1000.0
2025-09-03T16:26:33.716306,-0.640,-0.500,357.330,-60.3,0.200,-0.300,180.360,1000.0
2025-09-03T16:26:33.717307,-0.640,-0.500,357.330,-60.3,0.200,-0.300,180.360,1000.0
2025-09-03T16:26:33.820377,-0.640,-0.500,357.330,-60.3,0.200,-0.300,180.360,1000.0
2025-09-03T16:26:33.822384,-0.640,-0.500,357.330,-60.3,0.200,-0.300,180.360,1000.0
2025-09-03T16:26:33.823378,-0.640,-0.500,357.330,-60.3,0.200,-0.300,180.360,1000.0
2025-09-03T16:26:33.824377,-0.640,-0.500,357.320,-60.3,0.200,-0.300,180.360,1000.0
2025-09-03T16:26:33.825377,-0.640,-0.500,357.320,-60.3,0.200,-0.300,180.360,1000.0
2025-09-03T16:26:33.929445,-0.640,-0.500,357.320,-60.3,0.200,-0.300,180.360,1000.0
2025-09-03T16:26:33.931446,-0.640,-0.500,357.320,-60.3,0.200,-0.300,180.360,1000.0
2025-09-03T16:26:33.932447,-0.640,-0.500,357.320,-60.3,0.200,-0.300,180.360,1000.0
2025-09-03T16:26:33.933446,-0.640,-0.500,357.320,-60.3,0.200,-0.300,180.360,1000.0
2025-09-03T16:26:33.935446,-0.640,-0.510,357.310,-60.3,0.200,-0.300,180.360,1000.0
2025-09-03T16:26:34.052446,-0.640,-0.510,357.320,-60.3,0.200,-0.300,180.360,1000.0
2025-09-03T16:26:34.054448,-0.640,-0.510,357.310,-60.3,0.200,-0.300,180.360,1000.0
2025-09-03T16:26:34.055446,-0.640,-0.520,357.310,-60.3,0.200,-0.300,180.360,1000.0
2025-09-03T16:26:34.056447,-0.630,-0.520,357.310,-60.3,0.200,-0.300,180.360,1000.0
2025-09-03T16:26:34.057446,-0.630,-0.520,357.310,-60.3,0.200,-0.300,180.360,1000.0
2025-09-03T16:26:34.175119,-0.630,-0.520,357.310,-60.3,0.200,-0.300,180.360,1000.0
2025-09-03T16:26:34.178117,-0.630,-0.520,357.300,-60.3,0.200,-0.300,180.360,1000.0
2025-09-03T16:26:34.180117,-0.630,-0.520,357.300,-60.3,0.200,-0.300,180.360,1000.0
2025-09-03T16:26:34.181117,-0.630,-0.520,357.300,-60.3,0.200,-0.300,180.360,1000.0
2025-09-03T16:26:34.183117,-0.630,-0.520,357.300,-60.2,0.200,-0.300,180.360,1000.0
2025-09-03T16:26:34.297375,-0.630,-0.530,357.300,-60.2,0.200,-0.300,180.360,1000.0
2025-09-03T16:26:34.299376,-0.630,-0.530,357.300,-60.2,0.200,-0.300,180.360,1000.0
2025-09-03T16:26:34.300375,-0.630,-0.530,357.300,-60.2,0.200,-0.300,180.360,1000.0
2025-09-03T16:26:34.301375,-0.630,-0.530,357.300,-60.2,0.200,-0.300,180.360,1000.0
2025-09-03T16:26:34.302375,-0.630,-0.530,357.300,-60.2,0.200,-0.300,180.360,1000.0
2025-09-03T16:26:34.421103,-0.630,-0.530,357.300,-60.2,0.200,-0.300,180.360,1000.0
2025-09-03T16:26:34.422103,-0.630,-0.530,357.300,-60.2,0.200,-0.300,180.360,1000.0
2025-09-03T16:26:34.423103,-0.630,-0.530,357.300,-60.2,0.200,-0.300,180.360,1000.0
2025-09-03T16:26:34.424103,-0.630,-0.520,357.300,-60.2,0.200,-0.300,180.360,1000.0
2025-09-03T16:26:34.425103,-0.630,-0.520,357.300,-60.2,0.200,-0.300,180.360,1000.0
2025-09-03T16:26:34.530847,-0.630,-0.510,357.300,-60.2,0.200,-0.300,180.360,1000.0
2025-09-03T16:26:34.531860,-0.630,-0.510,357.300,-60.2,0.200,-0.300,180.360,1000.0
2025-09-03T16:26:34.532850,-0.630,-0.510,357.300,-60.2,0.200,-0.300,180.360,1000.0
2025-09-03T16:26:34.533851,-0.630,-0.510,357.300,-60.2,0.200,-0.300,180.360,1000.0
2025-09-03T16:26:34.535864,-0.630,-0.500,357.300,-60.2,0.200,-0.300,180.360,1000.0
2025-09-03T16:26:34.654075,-0.630,-0.500,357.300,-60.2,0.200,-0.300,180.360,1000.0
2025-09-03T16:26:34.655077,-0.630,-0.500,357.300,-60.3,0.200,-0.300,180.360,1000.0
2025-09-03T16:26:34.656143,-0.630,-0.500,357.300,-60.3,0.200,-0.300,180.360,1000.0
2025-09-03T16:26:34.658074,-0.630,-0.500,357.300,-60.3,0.200,-0.300,180.360,1000.0
2025-09-03T16:26:34.659075,-0.630,-0.500,357.300,-60.3,0.200,-0.300,180.360,1000.0
2025-09-03T16:26:34.776450,-0.630,-0.500,357.300,-60.3,0.200,-0.300,180.360,1000.0
2025-09-03T16:26:34.778450,-0.630,-0.500,357.300,-60.3,0.200,-0.300,180.360,1000.0
2025-09-03T16:26:34.780451,-0.630,-0.500,357.300,-60.3,0.200,-0.300,180.360,1000.0
2025-09-03T16:26:34.782450,-0.630,-0.500,357.300,-60.3,0.200,-0.300,180.360,1000.0
2025-09-03T16:26:34.783452,-0.630,-0.500,357.310,-60.3,0.200,-0.300,180.360,1000.0
2025-09-03T16:26:34.897033,-0.640,-0.500,357.310,-60.3,0.200,-0.300,180.360,1000.0
2025-09-03T16:26:34.898032,-0.640,-0.510,357.310,-60.3,0.200,-0.300,180.360,1000.0
2025-09-03T16:26:34.901033,-0.650,-0.510,357.310,-60.3,0.200,-0.300,180.360,1000.0
2025-09-03T16:26:34.903034,-0.650,-0.510,357.310,-60.3,0.200,-0.300,180.360,1000.0
2025-09-03T16:26:34.905032,-0.650,-0.510,357.310,-60.3,0.200,-0.300,180.360,1000.0
2025-09-03T16:26:35.016034,-0.650,-0.520,357.310,-60.3,0.200,-0.300,180.360,1000.0
2025-09-03T16:26:35.018033,-0.640,-0.520,357.310,-60.3,0.200,-0.300,180.360,1000.0
2025-09-03T16:26:35.019033,-0.640,-0.520,357.310,-60.3,0.200,-0.300,180.360,1000.0
2025-09-03T16:26:35.020033,-0.640,-0.520,357.310,-60.3,0.200,-0.300,180.360,1000.0
2025-09-03T16:26:35.022033,-0.640,-0.520,357.310,-60.3,0.200,-0.300,180.360,1000.0
2025-09-03T16:26:35.127255,-0.640,-0.520,357.310,-60.3,0.200,-0.300,180.360,1000.0
2025-09-03T16:26:35.129257,-0.640,-0.520,357.310,-60.2,0.200,-0.300,180.360,1000.0
2025-09-03T16:26:35.130256,-0.640,-0.520,357.310,-60.2,0.200,-0.300,180.360,1000.0
2025-09-03T16:26:35.131255,-0.640,-0.530,357.310,-60.2,0.200,-0.300,180.360,1000.0
2025-09-03T16:26:35.132255,-0.630,-0.520,357.310,-60.2,0.200,-0.300,180.360,1000.0
2025-09-03T16:26:35.249565,-0.630,-0.530,357.310,-60.2,0.200,-0.300,180.360,1000.0
2025-09-03T16:26:35.250566,-0.630,-0.530,357.310,-60.2,0.200,-0.300,180.360,1000.0
2025-09-03T16:26:35.251566,-0.630,-0.520,357.310,-60.2,0.200,-0.300,180.360,1000.0
2025-09-03T16:26:35.252566,-0.630,-0.530,357.320,-60.2,0.200,-0.300,180.360,1000.0
2025-09-03T16:26:35.253565,-0.630,-0.530,357.320,-60.2,0.200,-0.300,180.360,1000.0
2025-09-03T16:26:35.357406,-0.630,-0.530,357.320,-60.2,0.200,-0.300,180.360,1000.0
2025-09-03T16:26:35.358406,-0.630,-0.530,357.320,-60.2,0.200,-0.300,180.360,1000.0
2025-09-03T16:26:35.359407,-0.630,-0.530,357.320,-60.2,0.200,-0.300,180.360,1000.0
2025-09-03T16:26:35.360407,-0.630,-0.530,357.320,-60.2,0.200,-0.300,180.360,1000.0
2025-09-03T16:26:35.361407,-0.630,-0.530,357.320,-60.2,0.200,-0.300,180.360,1000.0
2025-09-03T16:26:35.466342,-0.640,-0.530,357.320,-60.2,0.200,-0.300,180.360,1000.0
2025-09-03T16:26:35.467561,-0.640,-0.530,357.320,-60.2,0.200,-0.300,180.360,1000.0
2025-09-03T16:26:35.468519,-0.640,-0.530,357.320,-60.2,0.200,-0.300,180.360,1000.0
2025-09-03T16:26:35.469521,-0.640,-0.530,357.320,-60.2,0.200,-0.300,180.360,1000.0
2025-09-03T16:26:35.471521,-0.640,-0.530,357.320,-60.2,0.200,-0.300,180.360,1000.0
2025-09-03T16:26:35.590006,-0.640,-0.530,357.320,-60.2,0.200,-0.300,180.360,1000.0
2025-09-03T16:26:35.592006,-0.640,-0.530,357.320,-60.2,0.200,-0.300,180.360,1000.0
2025-09-03T16:26:35.593006,-0.640,-0.530,357.320,-60.3,0.200,-0.300,180.360,1000.0
2025-09-03T16:26:35.594005,-0.640,-0.530,357.320,-60.3,0.200,-0.300,180.360,1000.0
2025-09-03T16:26:35.595562,-0.640,-0.530,357.320,-60.2,0.200,-0.300,180.360,1000.0
2025-09-03T16:26:35.714701,-0.640,-0.530,357.320,-60.2,0.200,-0.300,180.360,1000.0
2025-09-03T16:26:35.715700,-0.640,-0.530,357.320,-60.2,0.200,-0.300,180.360,1000.0
2025-09-03T16:26:35.717702,-0.640,-0.540,357.320,-60.3,0.200,-0.300,180.360,1000.0
2025-09-03T16:26:35.718701,-0.640,-0.540,357.320,-60.3,0.200,-0.300,180.360,1000.0
2025-09-03T16:26:35.719701,-0.640,-0.540,357.320,-60.3,0.200,-0.300,180.360,1000.0
2025-09-03T16:26:35.822559,-0.640,-0.540,357.320,-60.3,0.200,-0.300,180.360,1000.0
2025-09-03T16:26:35.824559,-0.640,-0.540,357.320,-60.3,0.200,-0.300,180.360,1000.0
2025-09-03T16:26:35.825559,-0.640,-0.540,357.320,-60.3,0.200,-0.300,180.360,1000.0
2025-09-03T16:26:35.827559,-0.640,-0.540,357.320,-60.3,0.200,-0.300,180.360,1000.0
2025-09-03T16:26:35.828561,-0.640,-0.540,357.320,-60.3,0.200,-0.300,180.360,1000.0
2025-09-03T16:26:35.945113,-0.640,-0.540,357.320,-60.2,0.200,-0.300,180.360,1000.0
2025-09-03T16:26:35.947113,-0.640,-0.540,357.320,-60.3,0.200,-0.300,180.360,1000.0
2025-09-03T16:26:35.949113,-0.640,-0.540,357.320,-60.3,0.200,-0.300,180.360,1000.0
2025-09-03T16:26:35.950114,-0.640,-0.540,357.320,-60.3,0.200,-0.300,180.360,1000.0
2025-09-03T16:26:35.951112,-0.630,-0.540,357.320,-60.3,0.200,-0.300,180.360,1000.0
2025-09-03T16:26:36.066327,-0.630,-0.540,357.320,-60.3,0.200,-0.300,180.360,1000.0
2025-09-03T16:26:36.067326,-0.630,-0.540,357.320,-60.3,0.200,-0.300,180.360,1000.0
2025-09-03T16:26:36.069336,-0.630,-0.540,357.320,-60.3,0.200,-0.300,180.360,1000.0
2025-09-03T16:26:36.071327,-0.630,-0.540,357.320,-60.3,0.200,-0.300,180.360,1000.0
2025-09-03T16:26:36.073339,-0.630,-0.540,357.320,-60.3,0.200,-0.300,180.360,1000.0
2025-09-03T16:26:36.190369,-0.630,-0.540,357.320,-60.2,0.200,-0.300,180.360,1000.0
2025-09-03T16:26:36.192376,-0.630,-0.540,357.320,-60.2,0.200,-0.300,180.360,1000.0
2025-09-03T16:26:36.193371,-0.630,-0.530,357.320,-60.2,0.200,-0.300,180.360,1000.0
2025-09-03T16:26:36.194371,-0.630,-0.530,357.320,-60.2,0.200,-0.300,180.360,1000.0
2025-09-03T16:26:36.195369,-0.630,-0.530,357.320,-60.2,0.200,-0.300,180.360,1000.0
2025-09-03T16:26:36.314200,-0.630,-0.530,357.320,-60.2,0.200,-0.300,180.360,1000.0
2025-09-03T16:26:36.316199,-0.630,-0.530,357.320,-60.2,0.200,-0.300,180.360,1000.0
2025-09-03T16:26:36.317199,-0.630,-0.540,357.320,-60.2,0.200,-0.300,180.360,1000.0
2025-09-03T16:26:36.319199,-0.630,-0.540,357.320,-60.2,0.200,-0.300,180.360,1000.0
2025-09-03T16:26:36.320200,-0.630,-0.540,357.320,-60.3,0.200,-0.300,180.360,1000.0
2025-09-03T16:26:36.424064,-0.630,-0.530,357.320,-60.3,0.200,-0.300,180.360,1000.0
2025-09-03T16:26:36.426064,-0.630,-0.530,357.320,-60.3,0.200,-0.300,180.360,1000.0
2025-09-03T16:26:36.427063,-0.630,-0.530,357.320,-60.3,0.200,-0.300,180.360,1000.0
2025-09-03T16:26:36.428064,-0.630,-0.530,357.320,-60.3,0.200,-0.300,180.360,1000.0
2025-09-03T16:26:36.430066,-0.630,-0.530,357.320,-60.3,0.200,-0.300,180.360,1000.0
2025-09-03T16:26:36.547324,-0.630,-0.520,357.320,-60.3,0.200,-0.300,180.360,1000.0
2025-09-03T16:26:36.548322,-0.630,-0.520,357.320,-60.3,0.200,-0.300,180.360,1000.0
2025-09-03T16:26:36.549356,-0.630,-0.520,357.320,-60.3,0.200,-0.300,180.360,1000.0
2025-09-03T16:26:36.551332,-0.630,-0.520,357.320,-60.3,0.200,-0.300,180.360,1000.0
2025-09-03T16:26:36.552322,-0.630,-0.520,357.320,-60.3,0.200,-0.300,180.360,1000.0
2025-09-03T16:26:36.656610,-0.640,-0.510,357.320,-60.3,0.200,-0.300,180.360,1000.0
2025-09-03T16:26:36.657575,-0.640,-0.510,357.320,-60.3,0.200,-0.300,180.360,1000.0
2025-09-03T16:26:36.658574,-0.640,-0.510,357.320,-60.3,0.200,-0.300,180.360,1000.0
2025-09-03T16:26:36.660574,-0.650,-0.520,357.320,-60.3,0.200,-0.300,180.360,1000.0
2025-09-03T16:26:36.661577,-0.650,-0.520,357.320,-60.3,0.200,-0.300,180.360,1000.0
2025-09-03T16:26:36.767106,-0.650,-0.520,357.320,-60.3,0.200,-0.300,180.360,1000.0
2025-09-03T16:26:36.768106,-0.660,-0.520,357.320,-60.3,0.200,-0.300,180.360,1000.0
2025-09-03T16:26:36.769106,-0.660,-0.530,357.320,-60.3,0.200,-0.300,180.360,1000.0
2025-09-03T16:26:36.771107,-0.660,-0.520,357.320,-60.3,0.200,-0.300,180.360,1000.0
2025-09-03T16:26:36.772107,-0.660,-0.520,357.320,-60.3,0.200,-0.300,180.360,1000.0
2025-09-03T16:26:36.877433,-0.660,-0.520,357.320,-60.3,0.200,-0.300,180.360,1000.0
2025-09-03T16:26:36.879423,-0.660,-0.520,357.320,-60.3,0.200,-0.300,180.360,1000.0
2025-09-03T16:26:36.881425,-0.660,-0.510,357.320,-60.3,0.200,-0.300,180.360,1000.0
2025-09-03T16:26:36.884425,-0.660,-0.510,357.320,-60.3,0.200,-0.300,180.360,1000.0
2025-09-03T16:26:36.885424,-0.660,-0.520,357.320,-60.3,0.200,-0.300,180.360,1000.0
2025-09-03T16:26:36.998428,-0.660,-0.520,357.320,-60.3,0.200,-0.300,180.360,1000.0
2025-09-03T16:26:36.999425,-0.660,-0.520,357.320,-60.3,0.200,-0.300,180.360,1000.0
2025-09-03T16:26:37.001425,-0.660,-0.520,357.320,-60.3,0.200,-0.300,180.360,1000.0
2025-09-03T16:26:37.002424,-0.660,-0.530,357.320,-60.3,0.200,-0.300,180.360,1000.0
2025-09-03T16:26:37.003423,-0.660,-0.530,357.320,-60.3,0.200,-0.300,180.360,1000.0
2025-09-03T16:26:37.121424,-0.660,-0.530,357.320,-60.3,0.200,-0.300,180.360,1000.0
2025-09-03T16:26:37.122424,-0.660,-0.530,357.320,-60.3,0.200,-0.300,180.360,1000.0
2025-09-03T16:26:37.123424,-0.650,-0.530,357.320,-60.3,0.200,-0.300,180.360,1000.0
2025-09-03T16:26:37.124423,-0.650,-0.530,357.320,-60.3,0.200,-0.300,180.360,1000.0
2025-09-03T16:26:37.126422,-0.650,-0.530,357.320,-60.3,0.200,-0.300,180.360,1000.0
2025-09-03T16:26:37.229379,-0.650,-0.530,357.320,-60.3,0.200,-0.300,180.360,1000.0
2025-09-03T16:26:37.231380,-0.650,-0.530,357.320,-60.3,0.200,-0.300,180.360,1000.0
2025-09-03T16:26:37.232381,-0.640,-0.530,357.320,-60.3,0.200,-0.300,180.360,1000.0
2025-09-03T16:26:37.233379,-0.640,-0.530,357.320,-60.3,0.200,-0.300,180.360,1000.0
2025-09-03T16:26:37.235378,-0.640,-0.530,357.320,-60.3,0.200,-0.300,180.360,1000.0
2025-09-03T16:26:37.353668,-0.640,-0.530,357.320,-60.3,0.200,-0.300,180.360,1000.0
2025-09-03T16:26:37.355667,-0.640,-0.530,357.320,-60.3,0.200,-0.300,180.360,1000.0
2025-09-03T16:26:37.357665,-0.640,-0.530,357.320,-60.3,0.200,-0.300,180.360,1000.0
2025-09-03T16:26:37.359667,-0.640,-0.530,357.320,-60.3,0.200,-0.300,180.360,1000.0
2025-09-03T16:26:37.361665,-0.640,-0.530,357.320,-60.3,0.200,-0.300,180.360,1000.0
2025-09-03T16:26:37.477672,-0.640,-0.530,357.320,-60.3,0.200,-0.300,180.360,1000.0
2025-09-03T16:26:37.478676,-0.640,-0.530,357.320,-60.3,0.200,-0.300,180.360,1000.0
2025-09-03T16:26:37.480664,-0.640,-0.530,357.320,-60.3,0.200,-0.300,180.360,1000.0
2025-09-03T16:26:37.481670,-0.640,-0.530,357.320,-60.3,0.200,-0.300,180.360,1000.0
2025-09-03T16:26:37.483674,-0.650,-0.530,357.320,-60.3,0.200,-0.300,180.360,1000.0
2025-09-03T16:26:37.598625,-0.650,-0.530,357.320,-60.3,0.200,-0.300,180.360,1000.0
2025-09-03T16:26:37.600625,-0.650,-0.530,357.320,-60.3,0.200,-0.300,180.360,1000.0
2025-09-03T16:26:37.601625,-0.660,-0.520,357.320,-60.3,0.200,-0.300,180.360,1000.0
2025-09-03T16:26:37.602625,-0.660,-0.520,357.320,-60.3,0.200,-0.300,180.360,1000.0
2025-09-03T16:26:37.603624,-0.660,-0.520,357.320,-60.3,0.200,-0.300,180.360,1000.0
2025-09-03T16:26:37.707377,-0.660,-0.520,357.320,-60.3,0.200,-0.300,180.360,1000.0
2025-09-03T16:26:37.709379,-0.660,-0.510,357.320,-60.3,0.200,-0.300,180.360,1000.0
2025-09-03T16:26:37.710382,-0.660,-0.520,357.320,-60.3,0.200,-0.300,180.360,1000.0
