Timestamp,Roll_Angle,Pitch_Angle,Yaw_Angle,Altitude,Roll_Setpoint,Pitch_Setpoint,Yaw_Setpoint,Altitude_Setpoint
2025-09-16T16:10:03.954071,15.720,-2.340,30.970,-59.1,0.400,-0.400,181.080,1000.0
2025-09-16T16:10:03.955071,15.300,-2.120,31.450,-59.0,0.400,-0.400,181.080,1000.0
2025-09-16T16:10:03.999255,14.740,-1.760,32.040,-59.0,0.400,-0.400,181.080,1000.0
2025-09-16T16:10:04.001256,14.310,-1.390,32.490,-59.0,0.400,-0.400,181.080,1000.0
2025-09-16T16:10:04.029300,13.960,-1.100,32.810,-59.0,0.400,-0.400,181.080,1000.0
2025-09-16T16:10:04.059469,13.590,-1.040,33.020,-59.0,0.400,-0.400,181.080,1000.0
2025-09-16T16:10:04.060470,13.220,-1.160,33.130,-59.0,0.400,-0.400,181.080,1000.0
2025-09-16T16:10:04.089564,13.010,-1.360,33.120,-59.0,0.400,-0.400,181.080,1000.0
2025-09-16T16:10:04.090554,12.960,-1.600,33.020,-59.0,0.400,-0.400,181.080,1000.0
2025-09-16T16:10:04.118962,12.940,-1.840,32.890,-59.1,0.400,-0.400,181.080,1000.0
2025-09-16T16:10:04.149871,12.900,-2.030,32.790,-59.0,0.400,-0.400,181.080,1000.0
2025-09-16T16:10:04.151834,12.760,-2.230,32.730,-59.1,0.400,-0.400,181.080,1000.0
2025-09-16T16:10:04.179636,12.590,-2.340,32.710,-59.1,0.400,-0.400,181.080,1000.0
2025-09-16T16:10:04.180635,12.430,-2.360,32.720,-59.1,0.400,-0.400,181.080,1000.0
2025-09-16T16:10:04.209852,12.270,-2.300,32.790,-59.0,0.400,-0.400,181.080,1000.0
2025-09-16T16:10:04.270555,12.110,-2.180,32.930,-59.0,0.400,-0.400,181.080,1000.0
2025-09-16T16:10:04.272555,11.950,-2.080,33.110,-59.0,0.400,-0.400,181.080,1000.0
2025-09-16T16:10:04.276554,11.830,-1.970,33.280,-59.0,0.400,-0.400,181.080,1000.0
2025-09-16T16:10:04.300723,11.760,-1.850,33.400,-59.0,0.400,-0.400,181.080,1000.0
2025-09-16T16:10:04.331637,11.710,-1.760,33.440,-59.0,0.400,-0.400,181.080,1000.0
2025-09-16T16:10:04.362334,11.670,-1.740,33.410,-59.0,0.400,-0.400,181.080,1000.0
2025-09-16T16:10:04.363333,11.620,-1.770,33.350,-59.0,0.400,-0.400,181.080,1000.0
2025-09-16T16:10:04.392376,11.620,-1.820,33.300,-59.0,0.400,-0.400,181.080,1000.0
2025-09-16T16:10:04.393375,11.650,-1.920,33.230,-59.0,0.400,-0.400,181.080,1000.0
2025-09-16T16:10:04.422581,11.670,-2.040,33.150,-59.0,0.400,-0.400,181.080,1000.0
2025-09-16T16:10:04.452977,11.640,-2.170,33.050,-59.0,0.400,-0.400,181.080,1000.0
2025-09-16T16:10:04.454976,11.610,-2.310,32.930,-59.0,0.400,-0.400,181.080,1000.0
2025-09-16T16:10:04.483455,11.610,-2.460,32.830,-59.0,0.400,-0.400,181.080,1000.0
2025-09-16T16:10:04.484457,11.620,-2.630,32.710,-59.0,0.400,-0.400,181.080,1000.0
2025-09-16T16:10:04.513370,11.600,-2.810,32.550,-59.1,0.400,-0.400,181.080,1000.0
2025-09-16T16:10:04.558810,11.610,-3.060,32.330,-59.0,0.400,-0.400,181.080,1000.0
2025-09-16T16:10:04.559810,11.710,-3.360,32.030,-59.0,0.400,-0.400,181.080,1000.0
2025-09-16T16:10:04.589509,11.970,-3.680,31.620,-59.0,0.400,-0.400,181.080,1000.0
2025-09-16T16:10:04.604529,12.480,-3.890,31.140,-59.0,0.400,-0.400,181.080,1000.0
2025-09-16T16:10:04.619607,13.240,-3.960,30.550,-59.0,0.400,-0.400,181.080,1000.0
2025-09-16T16:10:04.664650,14.170,-3.900,29.860,-59.0,0.400,-0.400,181.080,1000.0
2025-09-16T16:10:04.665649,15.210,-3.760,29.140,-59.1,0.400,-0.400,181.080,1000.0
2025-09-16T16:10:04.695268,16.330,-3.500,28.490,-59.1,0.400,-0.400,181.080,1000.0
2025-09-16T16:10:04.696268,17.590,-3.240,27.920,-59.1,0.400,-0.400,181.080,1000.0
2025-09-16T16:10:04.725269,18.890,-3.070,27.380,-59.1,0.400,-0.400,181.080,1000.0
2025-09-16T16:10:04.726263,20.240,-3.010,26.830,-59.1,0.400,-0.400,181.080,1000.0
2025-09-16T16:10:04.755482,21.600,-3.160,26.260,-59.1,0.400,-0.400,181.080,1000.0
2025-09-16T16:10:04.787081,23.040,-3.520,25.740,-59.1,0.400,-0.400,181.080,1000.0
2025-09-16T16:10:04.789077,24.640,-4.100,25.290,-59.1,0.400,-0.400,181.080,1000.0
2025-09-16T16:10:04.831121,26.180,-4.750,24.880,-59.1,0.400,-0.400,181.080,1000.0
2025-09-16T16:10:04.860764,28.460,-5.880,24.240,-59.1,0.400,-0.400,181.080,1000.0
2025-09-16T16:10:04.862775,30.750,-7.130,23.520,-59.1,0.400,-0.400,181.080,1000.0
2025-09-16T16:10:04.891942,32.780,-8.460,22.580,-59.1,0.400,-0.400,181.080,1000.0
2025-09-16T16:10:04.893938,34.320,-9.910,21.290,-59.1,0.400,-0.400,181.080,1000.0
2025-09-16T16:10:04.924940,34.840,-11.080,20.150,-59.1,0.400,-0.400,181.080,1000.0
2025-09-16T16:10:04.937938,34.470,-11.870,19.570,-59.1,0.400,-0.400,181.080,1000.0
2025-09-16T16:10:04.952938,33.630,-12.040,19.870,-59.1,0.400,-0.400,181.080,1000.0
2025-09-16T16:10:04.998158,32.110,-11.690,21.190,-59.1,0.400,-0.400,181.080,1000.0
2025-09-16T16:10:04.999158,29.720,-10.900,23.500,-59.1,0.400,-0.400,181.080,1000.0
2025-09-16T16:10:05.028159,27.280,-10.000,25.770,-59.1,0.400,-0.400,181.080,1000.0
2025-09-16T16:10:05.029159,25.430,-9.350,27.360,-59.1,0.400,-0.400,181.080,1000.0
2025-09-16T16:10:05.057167,22.720,-8.430,29.370,-59.1,0.400,-0.400,181.080,1000.0
2025-09-16T16:10:05.103160,20.500,-7.560,30.720,-59.1,0.400,-0.400,181.080,1000.0
2025-09-16T16:10:05.105159,18.520,-6.710,31.720,-59.1,0.400,-0.400,181.080,1000.0
2025-09-16T16:10:05.132166,16.530,-5.830,32.530,-59.1,0.400,-0.400,181.080,1000.0
2025-09-16T16:10:05.134159,15.130,-5.240,32.990,-59.1,0.400,-0.400,181.080,1000.0
2025-09-16T16:10:05.163159,13.680,-4.660,33.430,-59.1,0.400,-0.400,181.080,1000.0
2025-09-16T16:10:05.193658,12.530,-4.140,33.920,-59.1,0.400,-0.400,181.080,1000.0
2025-09-16T16:10:05.194654,11.380,-3.710,34.570,-59.1,0.400,-0.400,181.080,1000.0
2025-09-16T16:10:05.224413,10.250,-3.460,35.230,-59.1,0.400,-0.400,181.080,1000.0
2025-09-16T16:10:05.226401,9.170,-3.310,35.900,-59.1,0.400,-0.400,181.080,1000.0
2025-09-16T16:10:05.254667,8.340,-3.170,36.560,-59.1,0.400,-0.400,181.080,1000.0
2025-09-16T16:10:05.272219,7.650,-2.970,37.170,-59.1,0.400,-0.400,181.080,1000.0
2025-09-16T16:10:05.284336,6.990,-2.800,37.670,-59.1,0.400,-0.400,181.080,1000.0
2025-09-16T16:10:05.329770,6.490,-2.650,38.070,-59.1,0.400,-0.400,181.080,1000.0
2025-09-16T16:10:05.330770,6.190,-2.490,38.370,-59.1,0.400,-0.400,181.080,1000.0
2025-09-16T16:10:05.374833,5.970,-2.240,38.600,-59.1,0.400,-0.400,181.080,1000.0
2025-09-16T16:10:05.405574,5.730,-1.890,38.690,-59.1,0.400,-0.400,181.080,1000.0
2025-09-16T16:10:05.406572,5.550,-1.580,38.740,-59.1,0.400,-0.400,181.080,1000.0
2025-09-16T16:10:05.435615,5.350,-1.090,38.750,-59.1,0.400,-0.400,181.080,1000.0
2025-09-16T16:10:05.437619,5.110,-0.600,38.670,-59.1,0.400,-0.400,181.080,1000.0
2025-09-16T16:10:05.465877,4.820,-0.190,38.540,-59.0,0.400,-0.400,181.080,1000.0
2025-09-16T16:10:05.496958,4.470,0.340,38.350,-59.0,0.400,-0.400,181.080,1000.0
2025-09-16T16:10:05.497958,4.260,0.830,38.250,-59.0,0.400,-0.400,181.080,1000.0
2025-09-16T16:10:05.527666,4.120,1.310,38.220,-59.0,0.400,-0.400,181.080,1000.0
2025-09-16T16:10:05.528668,4.000,1.710,38.240,-59.0,0.400,-0.400,181.080,1000.0
2025-09-16T16:10:05.557824,3.860,1.960,38.260,-59.0,0.400,-0.400,181.080,1000.0
2025-09-16T16:10:05.587824,3.620,2.170,38.250,-59.0,0.400,-0.400,181.080,1000.0
2025-09-16T16:10:05.588826,3.390,2.290,38.200,-59.1,0.400,-0.400,181.080,1000.0
2025-09-16T16:10:05.618331,3.180,2.400,38.170,-59.1,0.400,-0.400,181.080,1000.0
2025-09-16T16:10:05.632485,3.000,2.410,38.240,-59.1,0.400,-0.400,181.080,1000.0
2025-09-16T16:10:05.678667,2.800,2.290,38.420,-59.1,0.400,-0.400,181.080,1000.0
2025-09-16T16:10:05.709274,2.550,2.060,38.600,-59.1,0.400,-0.400,181.080,1000.0
2025-09-16T16:10:05.710277,2.220,1.670,38.830,-59.1,0.400,-0.400,181.080,1000.0
2025-09-16T16:10:05.739532,1.980,1.330,39.020,-59.1,0.400,-0.400,181.080,1000.0
2025-09-16T16:10:05.740531,1.780,1.000,39.210,-59.1,0.400,-0.400,181.080,1000.0
2025-09-16T16:10:05.769645,1.570,0.600,39.440,-59.1,0.400,-0.400,181.080,1000.0
2025-09-16T16:10:05.799967,1.370,0.180,39.720,-59.1,0.400,-0.400,181.080,1000.0
2025-09-16T16:10:05.800969,1.180,-0.180,40.060,-59.1,0.400,-0.400,181.080,1000.0
2025-09-16T16:10:05.830700,1.010,-0.490,40.400,-59.1,0.400,-0.400,181.080,1000.0
2025-09-16T16:10:05.831699,0.830,-0.770,40.720,-59.1,0.400,-0.400,181.080,1000.0
2025-09-16T16:10:05.860391,0.670,-1.000,40.960,-59.1,0.400,-0.400,181.080,1000.0
2025-09-16T16:10:05.863385,0.390,-1.360,41.290,-59.1,0.400,-0.400,181.080,1000.0
2025-09-16T16:10:05.891336,0.190,-1.580,41.530,-59.1,0.400,-0.400,181.080,1000.0
2025-09-16T16:10:05.921393,0.060,-1.740,41.720,-59.1,0.400,-0.400,181.080,1000.0
2025-09-16T16:10:05.922392,-0.070,-1.840,41.900,-59.1,0.400,-0.400,181.080,1000.0
2025-09-16T16:10:05.966749,-0.260,-1.930,42.090,-59.1,0.400,-0.400,181.080,1000.0
2025-09-16T16:10:05.971754,-0.470,-2.020,42.310,-59.1,0.400,-0.400,181.080,1000.0
2025-09-16T16:10:05.997366,-0.640,-2.080,42.520,-59.1,0.400,-0.400,181.080,1000.0
2025-09-16T16:10:06.043457,-0.740,-2.090,42.700,-59.1,0.400,-0.400,181.080,1000.0
2025-09-16T16:10:06.044457,-0.870,-2.090,42.850,-59.1,0.400,-0.400,181.080,1000.0
2025-09-16T16:10:06.073471,-1.090,-2.090,42.950,-59.0,0.400,-0.400,181.080,1000.0
2025-09-16T16:10:06.077462,-1.320,-2.110,43.030,-59.0,0.400,-0.400,181.080,1000.0
2025-09-16T16:10:06.103248,-1.500,-2.120,43.130,-59.0,0.400,-0.400,181.080,1000.0
2025-09-16T16:10:06.133257,-1.590,-2.130,43.270,-59.0,0.400,-0.400,181.080,1000.0
2025-09-16T16:10:06.134245,-1.640,-2.140,43.450,-59.0,0.400,-0.400,181.080,1000.0
2025-09-16T16:10:06.163644,-1.690,-2.170,43.640,-59.0,0.400,-0.400,181.080,1000.0
2025-09-16T16:10:06.166643,-1.750,-2.170,43.820,-59.0,0.400,-0.400,181.080,1000.0
2025-09-16T16:10:06.194229,-1.830,-2.150,43.950,-59.1,0.400,-0.400,181.080,1000.0
2025-09-16T16:10:06.239487,-1.880,-2.070,44.050,-59.1,0.400,-0.400,181.080,1000.0
2025-09-16T16:10:06.240524,-1.910,-1.980,44.180,-59.1,0.400,-0.400,181.080,1000.0
2025-09-16T16:10:06.270400,-1.930,-1.870,44.360,-59.1,0.400,-0.400,181.080,1000.0
2025-09-16T16:10:06.274395,-1.920,-1.760,44.600,-59.1,0.400,-0.400,181.080,1000.0
2025-09-16T16:10:06.300649,-1.930,-1.690,44.880,-59.1,0.400,-0.400,181.080,1000.0
2025-09-16T16:10:06.344695,-1.980,-1.640,45.150,-59.1,0.400,-0.400,181.080,1000.0
2025-09-16T16:10:06.346697,-2.070,-1.570,45.400,-59.1,0.400,-0.400,181.080,1000.0
2025-09-16T16:10:06.374715,-2.170,-1.490,45.610,-59.1,0.400,-0.400,181.080,1000.0
2025-09-16T16:10:06.377714,-2.280,-1.410,45.800,-59.1,0.400,-0.400,181.080,1000.0
2025-09-16T16:10:06.405573,-2.410,-1.340,45.990,-59.1,0.400,-0.400,181.080,1000.0
2025-09-16T16:10:06.435760,-2.540,-1.280,46.160,-59.1,0.400,-0.400,181.080,1000.0
2025-09-16T16:10:06.437757,-2.630,-1.220,46.360,-59.1,0.400,-0.400,181.080,1000.0
2025-09-16T16:10:06.465945,-2.640,-1.150,46.620,-59.1,0.400,-0.400,181.080,1000.0
2025-09-16T16:10:06.468946,-2.620,-1.060,46.920,-59.1,0.400,-0.400,181.080,1000.0
2025-09-16T16:10:06.512203,-2.610,-0.900,47.270,-59.0,0.400,-0.400,181.080,1000.0
2025-09-16T16:10:06.544210,-2.610,-0.750,47.550,-59.0,0.400,-0.400,181.080,1000.0
2025-09-16T16:10:06.546208,-2.630,-0.550,47.830,-59.0,0.400,-0.400,181.080,1000.0
2025-09-16T16:10:06.573209,-2.620,-0.340,48.130,-59.0,0.400,-0.400,181.080,1000.0
2025-09-16T16:10:06.577210,-2.590,-0.160,48.450,-59.0,0.400,-0.400,181.080,1000.0
2025-09-16T16:10:06.604210,-2.580,-0.020,48.750,-59.0,0.400,-0.400,181.080,1000.0
2025-09-16T16:10:06.633208,-2.620,0.050,49.030,-59.0,0.400,-0.400,181.080,1000.0
2025-09-16T16:10:06.635210,-2.650,0.080,49.280,-59.0,0.400,-0.400,181.080,1000.0
2025-09-16T16:10:06.663209,-2.660,0.100,49.580,-59.0,0.400,-0.400,181.080,1000.0
2025-09-16T16:10:06.680207,-2.680,0.130,49.850,-59.0,0.400,-0.400,181.080,1000.0
2025-09-16T16:10:06.692065,-2.730,0.120,50.080,-59.0,0.400,-0.400,181.080,1000.0
2025-09-16T16:10:06.738715,-2.820,0.110,50.310,-59.0,0.400,-0.400,181.080,1000.0
2025-09-16T16:10:06.740714,-2.880,0.110,50.490,-58.9,0.400,-0.400,181.080,1000.0
2025-09-16T16:10:06.783803,-2.900,0.120,50.700,-58.9,0.400,-0.400,181.080,1000.0
2025-09-16T16:10:06.788993,-2.900,0.140,50.900,-58.9,0.400,-0.400,181.080,1000.0
2025-09-16T16:10:06.814187,-2.890,0.120,51.140,-58.9,0.400,-0.400,181.080,1000.0
2025-09-16T16:10:06.817187,-2.900,0.080,51.360,-58.9,0.400,-0.400,181.080,1000.0
2025-09-16T16:10:06.843844,-2.880,0.040,51.570,-58.9,0.400,-0.400,181.080,1000.0
2025-09-16T16:10:06.872831,-2.840,0.020,51.720,-59.0,0.400,-0.400,181.080,1000.0
2025-09-16T16:10:06.876831,-2.800,0.000,51.830,-59.0,0.400,-0.400,181.080,1000.0
2025-09-16T16:10:06.903833,-2.770,0.000,51.910,-59.0,0.400,-0.400,181.080,1000.0
2025-09-16T16:10:06.933932,-2.730,0.030,51.960,-59.0,0.400,-0.400,181.080,1000.0
2025-09-16T16:10:06.934929,-2.680,0.040,52.000,-59.0,0.400,-0.400,181.080,1000.0
2025-09-16T16:10:06.963874,-2.620,0.070,52.030,-59.0,0.400,-0.400,181.080,1000.0
2025-09-16T16:10:06.979168,-2.560,0.120,52.060,-59.0,0.400,-0.400,181.080,1000.0
2025-09-16T16:10:06.995682,-2.520,0.180,52.110,-59.0,0.400,-0.400,181.080,1000.0
2025-09-16T16:10:07.009689,-2.500,0.260,52.180,-59.0,0.400,-0.400,181.080,1000.0
2025-09-16T16:10:07.025683,-2.490,0.390,52.290,-59.0,0.400,-0.400,181.080,1000.0
2025-09-16T16:10:07.086243,-2.500,0.500,52.390,-59.0,0.400,-0.400,181.080,1000.0
2025-09-16T16:10:07.090248,-2.530,0.580,52.490,-59.0,0.400,-0.400,181.080,1000.0
2025-09-16T16:10:07.116736,-2.560,0.630,52.590,-59.0,0.400,-0.400,181.080,1000.0
2025-09-16T16:10:07.118626,-2.570,0.640,52.670,-59.0,0.400,-0.400,181.080,1000.0
2025-09-16T16:10:07.146695,-2.570,0.650,52.730,-59.0,0.400,-0.400,181.080,1000.0
2025-09-16T16:10:07.177579,-2.590,0.640,52.760,-59.0,0.400,-0.400,181.080,1000.0
2025-09-16T16:10:07.179579,-2.620,0.580,52.810,-59.0,0.400,-0.400,181.080,1000.0
2025-09-16T16:10:07.206651,-2.660,0.490,52.850,-59.0,0.400,-0.400,181.080,1000.0
2025-09-16T16:10:07.208644,-2.680,0.400,52.900,-59.0,0.400,-0.400,181.080,1000.0
2025-09-16T16:10:07.237570,-2.680,0.310,52.950,-59.0,0.400,-0.400,181.080,1000.0
2025-09-16T16:10:07.267161,-2.660,0.220,53.000,-59.0,0.400,-0.400,181.080,1000.0
2025-09-16T16:10:07.271155,-2.610,0.150,53.040,-59.0,0.400,-0.400,181.080,1000.0
2025-09-16T16:10:07.298203,-2.550,0.110,53.050,-59.0,0.400,-0.400,181.080,1000.0
2025-09-16T16:10:07.299203,-2.470,0.080,53.040,-59.0,0.400,-0.400,181.080,1000.0
2025-09-16T16:10:07.343295,-2.400,0.050,53.010,-59.0,0.400,-0.400,181.080,1000.0
2025-09-16T16:10:07.345289,-2.340,0.030,52.960,-59.0,0.400,-0.400,181.080,1000.0
2025-09-16T16:10:07.372834,-2.260,0.030,52.940,-59.0,0.400,-0.400,181.080,1000.0
2025-09-16T16:10:07.418474,-2.160,0.020,52.910,-59.0,0.400,-0.400,181.080,1000.0
2025-09-16T16:10:07.421475,-2.070,0.030,52.890,-59.0,0.400,-0.400,181.080,1000.0
2025-09-16T16:10:07.448837,-2.010,0.050,52.870,-59.0,0.400,-0.400,181.080,1000.0
2025-09-16T16:10:07.478477,-1.950,0.070,52.850,-59.0,0.400,-0.400,181.080,1000.0
2025-09-16T16:10:07.481476,-1.910,0.090,52.860,-59.0,0.400,-0.400,181.080,1000.0
2025-09-16T16:10:07.508321,-1.890,0.110,52.890,-59.0,0.400,-0.400,181.080,1000.0
2025-09-16T16:10:07.509321,-1.870,0.100,52.940,-59.0,0.400,-0.400,181.080,1000.0
2025-09-16T16:10:07.538439,-1.870,0.080,53.000,-59.0,0.400,-0.400,181.080,1000.0
2025-09-16T16:10:07.583716,-1.870,0.030,53.080,-59.0,0.400,-0.400,181.080,1000.0
2025-09-16T16:10:07.587720,-1.840,-0.020,53.190,-59.0,0.400,-0.400,181.080,1000.0
2025-09-16T16:10:07.613735,-1.780,-0.070,53.300,-59.0,0.400,-0.400,181.080,1000.0
2025-09-16T16:10:07.616735,-1.730,-0.110,53.410,-59.0,0.400,-0.400,181.080,1000.0
2025-09-16T16:10:07.643576,-1.710,-0.140,53.550,-59.0,0.400,-0.400,181.080,1000.0
2025-09-16T16:10:07.673927,-1.680,-0.160,53.690,-59.0,0.400,-0.400,181.080,1000.0
2025-09-16T16:10:07.691596,-1.660,-0.140,53.820,-59.0,0.400,-0.400,181.080,1000.0
2025-09-16T16:10:07.705287,-1.670,-0.090,53.920,-59.0,0.400,-0.400,181.080,1000.0
2025-09-16T16:10:07.720451,-1.670,-0.040,54.020,-59.0,0.400,-0.400,181.080,1000.0
2025-09-16T16:10:07.750881,-1.690,0.010,54.100,-59.0,0.400,-0.400,181.080,1000.0
2025-09-16T16:10:07.780327,-1.680,0.070,54.200,-59.0,0.400,-0.400,181.080,1000.0
2025-09-16T16:10:07.783319,-1.640,0.100,54.290,-59.0,0.400,-0.400,181.080,1000.0
2025-09-16T16:10:07.811341,-1.600,0.110,54.390,-59.0,0.400,-0.400,181.080,1000.0
2025-09-16T16:10:07.812341,-1.560,0.100,54.480,-59.0,0.400,-0.400,181.080,1000.0
2025-09-16T16:10:07.840377,-1.520,0.110,54.560,-59.0,0.400,-0.400,181.080,1000.0
2025-09-16T16:10:07.842378,-1.490,0.170,54.620,-59.0,0.400,-0.400,181.080,1000.0
2025-09-16T16:10:07.884841,-1.460,0.210,54.710,-59.0,0.400,-0.400,181.080,1000.0
2025-09-16T16:10:07.916552,-1.450,0.280,54.790,-59.0,0.400,-0.400,181.080,1000.0
2025-09-16T16:10:07.918553,-1.450,0.350,54.850,-59.0,0.400,-0.400,181.080,1000.0
2025-09-16T16:10:07.946412,-1.440,0.470,54.890,-59.0,0.400,-0.400,181.080,1000.0
2025-09-16T16:10:07.947412,-1.400,0.610,54.940,-59.0,0.400,-0.400,181.080,1000.0
2025-09-16T16:10:07.976692,-1.350,0.770,55.040,-59.0,0.400,-0.400,181.080,1000.0
2025-09-16T16:10:08.006906,-1.310,0.900,55.140,-59.0,0.400,-0.400,181.080,1000.0
2025-09-16T16:10:08.008464,-1.290,1.020,55.230,-59.0,0.400,-0.400,181.080,1000.0
2025-09-16T16:10:08.037465,-1.280,1.080,55.260,-59.0,0.400,-0.400,181.080,1000.0
2025-09-16T16:10:08.039464,-1.280,1.080,55.200,-59.0,0.400,-0.400,181.080,1000.0
2025-09-16T16:10:08.081613,-1.250,1.070,55.090,-58.9,0.400,-0.400,181.080,1000.0
2025-09-16T16:10:08.113299,-1.180,1.050,55.000,-58.9,0.400,-0.400,181.080,1000.0
2025-09-16T16:10:08.115285,-1.100,0.980,54.980,-58.9,0.400,-0.400,181.080,1000.0
2025-09-16T16:10:08.157661,-1.020,0.890,55.030,-58.9,0.400,-0.400,181.080,1000.0
2025-09-16T16:10:08.159661,-0.970,0.790,55.090,-58.9,0.400,-0.400,181.080,1000.0
2025-09-16T16:10:08.189265,-0.930,0.700,55.130,-58.9,0.400,-0.400,181.080,1000.0
2025-09-16T16:10:08.218387,-0.910,0.600,55.130,-58.9,0.400,-0.400,181.080,1000.0
2025-09-16T16:10:08.220385,-0.910,0.510,55.130,-58.9,0.400,-0.400,181.080,1000.0
2025-09-16T16:10:08.248790,-0.920,0.420,55.190,-58.9,0.400,-0.400,181.080,1000.0
2025-09-16T16:10:08.250794,-0.930,0.320,55.260,-58.9,0.400,-0.400,181.080,1000.0
2025-09-16T16:10:08.278790,-0.930,0.210,55.330,-58.9,0.400,-0.400,181.080,1000.0
2025-09-16T16:10:08.308954,-0.910,0.060,55.380,-58.9,0.400,-0.400,181.080,1000.0
2025-09-16T16:10:08.310953,-0.880,-0.080,55.410,-58.9,0.400,-0.400,181.080,1000.0
2025-09-16T16:10:08.339957,-0.810,-0.280,55.430,-58.9,0.400,-0.400,181.080,1000.0
2025-09-16T16:10:08.354957,-0.730,-0.530,55.420,-58.9,0.400,-0.400,181.080,1000.0
2025-09-16T16:10:08.369954,-0.640,-0.720,55.400,-58.9,0.400,-0.400,181.080,1000.0
2025-09-16T16:10:08.430562,-0.560,-0.890,55.390,-58.9,0.400,-0.400,181.080,1000.0
2025-09-16T16:10:08.431561,-0.420,-1.010,55.400,-58.9,0.400,-0.400,181.080,1000.0
2025-09-16T16:10:08.460134,-0.290,-1.080,55.400,-58.9,0.400,-0.400,181.080,1000.0
2025-09-16T16:10:08.462175,-0.200,-1.150,55.410,-58.9,0.400,-0.400,181.080,1000.0
2025-09-16T16:10:08.491135,-0.180,-1.200,55.420,-58.9,0.400,-0.400,181.080,1000.0
2025-09-16T16:10:08.521138,-0.200,-1.220,55.450,-58.9,0.400,-0.400,181.080,1000.0
2025-09-16T16:10:08.523138,-0.180,-1.180,55.520,-58.9,0.400,-0.400,181.080,1000.0
2025-09-16T16:10:08.551144,-0.110,-1.100,55.660,-58.9,0.400,-0.400,181.080,1000.0
2025-09-16T16:10:08.552133,0.000,-1.000,55.860,-58.9,0.400,-0.400,181.080,1000.0
2025-09-16T16:10:08.580167,0.070,-0.900,56.080,-58.9,0.400,-0.400,181.080,1000.0
2025-09-16T16:10:08.611176,0.140,-0.820,56.260,-58.9,0.400,-0.400,181.080,1000.0
2025-09-16T16:10:08.612171,0.240,-0.800,56.400,-58.9,0.400,-0.400,181.080,1000.0
2025-09-16T16:10:08.656135,0.390,-0.830,56.550,-58.9,0.400,-0.400,181.080,1000.0
2025-09-16T16:10:08.657136,0.640,-0.930,56.760,-58.9,0.400,-0.400,181.080,1000.0
2025-09-16T16:10:08.686699,0.950,-1.050,56.980,-58.9,0.400,-0.400,181.080,1000.0
2025-09-16T16:10:08.716748,1.230,-1.130,57.110,-58.9,0.400,-0.400,181.080,1000.0
2025-09-16T16:10:08.718748,1.330,-1.050,57.170,-58.9,0.400,-0.400,181.080,1000.0
2025-09-16T16:10:08.762088,1.320,-0.870,57.320,-58.9,0.400,-0.400,181.080,1000.0
2025-09-16T16:10:08.763077,1.360,-0.690,57.580,-58.9,0.400,-0.400,181.080,1000.0
2025-09-16T16:10:08.792190,1.360,-0.490,57.900,-58.9,0.400,-0.400,181.080,1000.0
2025-09-16T16:10:08.822456,1.430,-0.390,58.240,-58.9,0.400,-0.400,181.080,1000.0
2025-09-16T16:10:08.824452,1.460,-0.320,58.530,-58.9,0.400,-0.400,181.080,1000.0
2025-09-16T16:10:08.852410,1.430,-0.270,58.730,-58.9,0.400,-0.400,181.080,1000.0
2025-09-16T16:10:08.854410,1.400,-0.220,58.890,-58.9,0.400,-0.400,181.080,1000.0
2025-09-16T16:10:08.882571,1.390,-0.140,59.090,-58.9,0.400,-0.400,181.080,1000.0
2025-09-16T16:10:08.884569,1.400,-0.010,59.340,-58.9,0.400,-0.400,181.080,1000.0
2025-09-16T16:10:08.913277,1.400,0.200,59.830,-58.9,0.400,-0.400,181.080,1000.0
2025-09-16T16:10:08.958702,1.290,0.430,60.190,-58.9,0.400,-0.400,181.080,1000.0
2025-09-16T16:10:08.959702,1.170,0.710,60.440,-58.9,0.400,-0.400,181.080,1000.0
2025-09-16T16:10:08.988945,1.030,1.010,60.630,-58.9,0.400,-0.400,181.080,1000.0
2025-09-16T16:10:08.990944,0.930,1.360,60.820,-58.9,0.400,-0.400,181.080,1000.0
2025-09-16T16:10:09.018947,0.870,1.650,61.020,-58.9,0.400,-0.400,181.080,1000.0
2025-09-16T16:10:09.048949,0.800,1.770,61.230,-58.9,0.400,-0.400,181.080,1000.0
2025-09-16T16:10:09.063049,0.790,1.620,61.420,-58.9,0.400,-0.400,181.080,1000.0
2025-09-16T16:10:09.078387,0.880,1.250,61.530,-58.9,0.400,-0.400,181.080,1000.0
2025-09-16T16:10:09.094699,1.170,0.750,61.580,-58.9,0.400,-0.400,181.080,1000.0
2025-09-16T16:10:09.108658,1.760,0.380,61.510,-58.9,0.400,-0.400,181.080,1000.0
2025-09-16T16:10:09.155246,2.690,0.120,61.290,-58.9,0.400,-0.400,181.080,1000.0
2025-09-16T16:10:09.158243,3.750,0.030,61.030,-58.9,0.400,-0.400,181.080,1000.0
2025-09-16T16:10:09.185416,4.780,0.230,60.780,-58.9,0.400,-0.400,181.080,1000.0
2025-09-16T16:10:09.186454,5.670,0.730,60.590,-58.9,0.400,-0.400,181.080,1000.0
2025-09-16T16:10:09.230903,6.390,1.430,60.480,-58.9,0.400,-0.400,181.080,1000.0
2025-09-16T16:10:09.262009,6.840,2.350,60.520,-58.9,0.400,-0.400,181.080,1000.0
2025-09-16T16:10:09.263011,7.050,3.430,60.720,-58.9,0.400,-0.400,181.080,1000.0
2025-09-16T16:10:09.291785,7.110,4.530,61.000,-58.9,0.400,-0.400,181.080,1000.0
2025-09-16T16:10:09.292786,7.110,5.590,61.260,-58.9,0.400,-0.400,181.080,1000.0
2025-09-16T16:10:09.322611,7.170,6.630,61.420,-58.9,0.400,-0.400,181.080,1000.0
2025-09-16T16:10:09.352896,7.450,7.610,61.510,-58.9,0.400,-0.400,181.080,1000.0
2025-09-16T16:10:09.354898,7.950,8.520,61.550,-58.9,0.400,-0.400,181.080,1000.0
2025-09-16T16:10:09.381650,8.550,9.360,61.610,-59.0,0.400,-0.400,181.080,1000.0
2025-09-16T16:10:09.383501,9.160,10.040,61.670,-59.0,0.400,-0.400,181.080,1000.0
2025-09-16T16:10:09.412621,9.630,10.610,61.640,-59.0,0.400,-0.400,181.080,1000.0
2025-09-16T16:10:09.457546,9.910,11.040,61.490,-59.0,0.400,-0.400,181.080,1000.0
2025-09-16T16:10:09.458541,10.140,11.500,61.280,-59.0,0.400,-0.400,181.080,1000.0
2025-09-16T16:10:09.502543,10.260,11.940,61.280,-59.0,0.400,-0.400,181.080,1000.0
2025-09-16T16:10:09.503543,10.320,12.440,61.510,-59.0,0.400,-0.400,181.080,1000.0
2025-09-16T16:10:09.531545,10.270,12.910,61.760,-59.0,0.400,-0.400,181.080,1000.0
2025-09-16T16:10:09.563341,10.030,13.240,61.700,-59.0,0.400,-0.400,181.080,1000.0
2025-09-16T16:10:09.564339,9.660,13.240,61.180,-59.0,0.400,-0.400,181.080,1000.0
2025-09-16T16:10:09.593597,9.240,12.850,60.350,-59.0,0.400,-0.400,181.080,1000.0
2025-09-16T16:10:09.595598,8.880,12.150,59.380,-59.0,0.400,-0.400,181.080,1000.0
2025-09-16T16:10:09.624127,8.650,11.160,58.380,-59.0,0.400,-0.400,181.080,1000.0
2025-09-16T16:10:09.653060,8.480,9.810,57.270,-59.0,0.400,-0.400,181.080,1000.0
2025-09-16T16:10:09.655056,8.330,8.220,56.060,-59.0,0.400,-0.400,181.080,1000.0
2025-09-16T16:10:09.685074,8.180,6.580,54.810,-59.0,0.400,-0.400,181.080,1000.0
2025-09-16T16:10:09.686074,7.930,5.040,53.560,-59.0,0.400,-0.400,181.080,1000.0
2025-09-16T16:10:09.715835,7.550,3.910,52.550,-59.0,0.400,-0.400,181.080,1000.0
2025-09-16T16:10:09.745433,6.910,2.640,51.590,-59.0,0.400,-0.400,181.080,1000.0
2025-09-16T16:10:09.760546,6.260,1.720,51.170,-59.0,0.400,-0.400,181.080,1000.0
2025-09-16T16:10:09.791735,5.550,1.260,51.140,-59.0,0.400,-0.400,181.080,1000.0
2025-09-16T16:10:09.806737,4.740,1.070,51.360,-59.0,0.400,-0.400,181.080,1000.0
2025-09-16T16:10:09.836380,3.880,1.040,51.760,-59.0,0.400,-0.400,181.080,1000.0
2025-09-16T16:10:09.837389,3.010,1.130,52.330,-59.0,0.400,-0.400,181.080,1000.0
2025-09-16T16:10:09.866332,2.210,1.360,52.990,-59.0,0.400,-0.400,181.080,1000.0
2025-09-16T16:10:09.896381,1.560,1.660,53.610,-59.0,0.400,-0.400,181.080,1000.0
2025-09-16T16:10:09.897380,1.180,2.000,54.210,-59.0,0.400,-0.400,181.080,1000.0
2025-09-16T16:10:09.926855,1.080,2.370,54.830,-59.0,0.400,-0.400,181.080,1000.0
2025-09-16T16:10:09.928851,1.210,2.790,55.530,-58.9,0.400,-0.400,181.080,1000.0
2025-09-16T16:10:09.957093,1.510,3.220,56.330,-58.9,0.400,-0.400,181.080,1000.0
2025-09-16T16:10:09.987509,1.950,3.570,57.070,-58.9,0.400,-0.400,181.080,1000.0
2025-09-16T16:10:09.989513,2.560,3.910,57.740,-58.9,0.400,-0.400,181.080,1000.0
2025-09-16T16:10:10.017878,3.290,4.180,58.220,-58.9,0.400,-0.400,181.080,1000.0
2025-09-16T16:10:10.020876,4.100,4.310,58.470,-58.9,0.400,-0.400,181.080,1000.0
2025-09-16T16:10:10.062877,5.060,4.250,58.510,-58.9,0.400,-0.400,181.080,1000.0
2025-09-16T16:10:10.092878,6.190,4.060,58.390,-58.9,0.400,-0.400,181.080,1000.0
2025-09-16T16:10:10.107877,7.520,3.780,58.100,-58.9,0.400,-0.400,181.080,1000.0
2025-09-16T16:10:10.122878,8.560,3.380,57.640,-58.9,0.400,-0.400,181.080,1000.0
2025-09-16T16:10:10.136779,9.200,2.870,57.010,-58.9,0.400,-0.400,181.080,1000.0
2025-09-16T16:10:10.168554,9.580,1.990,55.960,-58.9,0.400,-0.400,181.080,1000.0
2025-09-16T16:10:10.198647,9.650,0.690,54.670,-58.9,0.400,-0.400,181.080,1000.0
2025-09-16T16:10:10.199646,9.460,-1.020,53.270,-58.9,0.400,-0.400,181.080,1000.0
2025-09-16T16:10:10.227394,9.160,-2.830,51.990,-58.9,0.400,-0.400,181.080,1000.0
2025-09-16T16:10:10.229393,8.950,-4.520,50.960,-58.9,0.400,-0.400,181.080,1000.0
2025-09-16T16:10:10.259052,8.600,-6.170,50.090,-58.9,0.400,-0.400,181.080,1000.0
2025-09-16T16:10:10.289582,7.920,-7.810,49.310,-58.9,0.400,-0.400,181.080,1000.0
2025-09-16T16:10:10.291979,6.890,-9.260,48.580,-58.9,0.400,-0.400,181.080,1000.0
2025-09-16T16:10:10.334886,6.180,-9.810,48.220,-58.9,0.400,-0.400,181.080,1000.0
2025-09-16T16:10:10.335885,5.630,-9.670,48.210,-58.9,0.400,-0.400,181.080,1000.0
2025-09-16T16:10:10.364808,5.040,-9.070,48.520,-58.9,0.400,-0.400,181.080,1000.0
2025-09-16T16:10:10.378562,4.040,-8.090,49.180,-58.9,0.400,-0.400,181.080,1000.0
2025-09-16T16:10:10.394327,2.840,-6.980,49.980,-58.9,0.400,-0.400,181.080,1000.0
2025-09-16T16:10:10.425137,1.660,-5.690,50.870,-58.9,0.400,-0.400,181.080,1000.0
2025-09-16T16:10:10.440139,0.870,-4.520,51.640,-58.9,0.400,-0.400,181.080,1000.0
2025-09-16T16:10:10.455887,0.320,-3.650,52.300,-58.9,0.400,-0.400,181.080,1000.0
2025-09-16T16:10:10.501164,-0.330,-2.890,53.120,-58.9,0.400,-0.400,181.080,1000.0
2025-09-16T16:10:10.502163,-0.950,-2.550,53.650,-58.9,0.400,-0.400,181.080,1000.0
2025-09-16T16:10:10.531280,-1.430,-2.290,53.920,-58.9,0.400,-0.400,181.080,1000.0
2025-09-16T16:10:10.532265,-1.630,-1.990,53.980,-58.9,0.400,-0.400,181.080,1000.0
2025-09-16T16:10:10.575032,-1.640,-1.750,53.960,-58.9,0.400,-0.400,181.080,1000.0
2025-09-16T16:10:10.578033,-1.710,-1.500,53.990,-58.9,0.400,-0.400,181.080,1000.0
2025-09-16T16:10:10.606622,-1.910,-1.490,54.110,-58.9,0.400,-0.400,181.080,1000.0
2025-09-16T16:10:10.636161,-2.160,-1.590,54.240,-58.9,0.400,-0.400,181.080,1000.0
2025-09-16T16:10:10.638154,-2.290,-1.700,54.380,-58.9,0.400,-0.400,181.080,1000.0
2025-09-16T16:10:10.667076,-2.300,-1.830,54.510,-58.9,0.400,-0.400,181.080,1000.0
2025-09-16T16:10:10.669082,-2.310,-2.010,54.650,-58.9,0.400,-0.400,181.080,1000.0
2025-09-16T16:10:10.697574,-2.330,-2.270,54.740,-58.9,0.400,-0.400,181.080,1000.0
2025-09-16T16:10:10.727681,-2.290,-2.620,54.790,-58.9,0.400,-0.400,181.080,1000.0
2025-09-16T16:10:10.728677,-2.150,-2.950,54.750,-58.9,0.400,-0.400,181.080,1000.0
2025-09-16T16:10:10.758234,-1.920,-3.330,54.710,-58.9,0.400,-0.400,181.080,1000.0
2025-09-16T16:10:10.773144,-1.690,-3.700,54.700,-58.9,0.400,-0.400,181.080,1000.0
2025-09-16T16:10:10.788178,-1.480,-4.030,54.790,-58.9,0.400,-0.400,181.080,1000.0
2025-09-16T16:10:10.834240,-1.290,-4.300,54.950,-59.0,0.400,-0.400,181.080,1000.0
2025-09-16T16:10:10.835253,-1.140,-4.470,55.130,-59.0,0.400,-0.400,181.080,1000.0
2025-09-16T16:10:10.879587,-1.030,-4.520,55.340,-59.0,0.400,-0.400,181.080,1000.0
2025-09-16T16:10:10.881595,-0.940,-4.470,55.570,-58.9,0.400,-0.400,181.080,1000.0
2025-09-16T16:10:10.909093,-0.850,-4.350,55.810,-58.9,0.400,-0.400,181.080,1000.0
2025-09-16T16:10:10.940315,-0.780,-4.210,56.050,-58.9,0.400,-0.400,181.080,1000.0
2025-09-16T16:10:10.941315,-0.690,-4.070,56.240,-58.9,0.400,-0.400,181.080,1000.0
2025-09-16T16:10:10.969839,-0.570,-3.900,56.320,-58.9,0.400,-0.400,181.080,1000.0
2025-09-16T16:10:10.973835,-0.420,-3.750,56.340,-58.9,0.400,-0.400,181.080,1000.0
2025-09-16T16:10:11.000333,-0.260,-3.580,56.350,-58.9,0.400,-0.400,181.080,1000.0
2025-09-16T16:10:11.031987,-0.110,-3.410,56.390,-58.9,0.400,-0.400,181.080,1000.0
2025-09-16T16:10:11.032987,-0.020,-3.250,56.430,-58.9,0.400,-0.400,181.080,1000.0
2025-09-16T16:10:11.062023,0.010,-3.120,56.480,-58.9,0.400,-0.400,181.080,1000.0
2025-09-16T16:10:11.064604,0.020,-3.010,56.550,-58.9,0.400,-0.400,181.080,1000.0
2025-09-16T16:10:11.091598,0.030,-2.940,56.640,-58.9,0.400,-0.400,181.080,1000.0
2025-09-16T16:10:11.122508,0.030,-2.870,56.740,-58.9,0.400,-0.400,181.080,1000.0
2025-09-16T16:10:11.137661,0.060,-2.800,56.810,-58.9,0.400,-0.400,181.080,1000.0
2025-09-16T16:10:11.182254,0.090,-2.750,56.850,-58.9,0.400,-0.400,181.080,1000.0
2025-09-16T16:10:11.185255,0.110,-2.750,56.920,-58.9,0.400,-0.400,181.080,1000.0
2025-09-16T16:10:11.213341,0.110,-2.790,57.020,-58.9,0.400,-0.400,181.080,1000.0
2025-09-16T16:10:11.243646,0.120,-2.860,57.120,-58.9,0.400,-0.400,181.080,1000.0
2025-09-16T16:10:11.244646,0.160,-2.930,57.240,-58.9,0.400,-0.400,181.080,1000.0
2025-09-16T16:10:11.273855,0.200,-2.990,57.320,-58.9,0.400,-0.400,181.080,1000.0
2025-09-16T16:10:11.276854,0.280,-3.030,57.400,-58.9,0.400,-0.400,181.080,1000.0
2025-09-16T16:10:11.303945,0.350,-3.080,57.460,-58.9,0.400,-0.400,181.080,1000.0
2025-09-16T16:10:11.333709,0.450,-3.130,57.510,-58.9,0.400,-0.400,181.080,1000.0
2025-09-16T16:10:11.335701,0.530,-3.190,57.560,-58.9,0.400,-0.400,181.080,1000.0
2025-09-16T16:10:11.365331,0.620,-3.240,57.630,-58.9,0.400,-0.400,181.080,1000.0
2025-09-16T16:10:11.367330,0.700,-3.250,57.700,-58.9,0.400,-0.400,181.080,1000.0
2025-09-16T16:10:11.395438,0.770,-3.280,57.780,-58.9,0.400,-0.400,181.080,1000.0
2025-09-16T16:10:11.425616,0.830,-3.300,57.850,-58.9,0.400,-0.400,181.080,1000.0
2025-09-16T16:10:11.455874,0.870,-3.310,57.890,-58.9,0.400,-0.400,181.080,1000.0
2025-09-16T16:10:11.457873,0.890,-3.330,57.920,-58.9,0.400,-0.400,181.080,1000.0
2025-09-16T16:10:11.487827,0.920,-3.360,57.930,-58.9,0.400,-0.400,181.080,1000.0
2025-09-16T16:10:11.501333,0.950,-3.390,57.940,-58.9,0.400,-0.400,181.080,1000.0
2025-09-16T16:10:11.546334,0.970,-3.410,57.950,-58.9,0.400,-0.400,181.080,1000.0
2025-09-16T16:10:11.548333,1.000,-3.410,57.980,-58.9,0.400,-0.400,181.080,1000.0
2025-09-16T16:10:11.576336,1.000,-3.420,58.000,-58.9,0.400,-0.400,181.080,1000.0
2025-09-16T16:10:11.581334,0.990,-3.410,58.020,-58.9,0.400,-0.400,181.080,1000.0
2025-09-16T16:10:11.606336,0.980,-3.400,58.040,-58.9,0.400,-0.400,181.080,1000.0
2025-09-16T16:10:11.636330,0.970,-3.400,58.050,-58.9,0.400,-0.400,181.080,1000.0
2025-09-16T16:10:11.637341,0.960,-3.400,58.060,-58.9,0.400,-0.400,181.080,1000.0
2025-09-16T16:10:11.666332,0.960,-3.390,58.050,-59.0,0.400,-0.400,181.080,1000.0
2025-09-16T16:10:11.669332,0.970,-3.350,58.030,-59.0,0.400,-0.400,181.080,1000.0
2025-09-16T16:10:11.712141,0.970,-3.310,58.000,-59.0,0.400,-0.400,181.080,1000.0
2025-09-16T16:10:11.713141,0.970,-3.250,58.010,-58.9,0.400,-0.400,181.080,1000.0
2025-09-16T16:10:11.742141,0.990,-3.200,58.030,-58.9,0.400,-0.400,181.080,1000.0
2025-09-16T16:10:11.772208,1.010,-3.150,58.060,-58.9,0.400,-0.400,181.080,1000.0
2025-09-16T16:10:11.786215,1.010,-3.110,58.090,-58.9,0.400,-0.400,181.080,1000.0
2025-09-16T16:10:11.802210,1.000,-3.070,58.080,-58.9,0.400,-0.400,181.080,1000.0
2025-09-16T16:10:11.803210,1.000,-3.010,58.060,-58.9,0.400,-0.400,181.080,1000.0
2025-09-16T16:10:11.831253,1.020,-2.950,58.050,-58.9,0.400,-0.400,181.080,1000.0
2025-09-16T16:10:11.876215,1.050,-2.880,58.090,-58.9,0.400,-0.400,181.080,1000.0
2025-09-16T16:10:11.879221,1.090,-2.800,58.180,-58.9,0.400,-0.400,181.080,1000.0
2025-09-16T16:10:11.907499,1.110,-2.700,58.280,-58.9,0.400,-0.400,181.080,1000.0
2025-09-16T16:10:11.908502,1.120,-2.620,58.340,-58.9,0.400,-0.400,181.080,1000.0
2025-09-16T16:10:11.937499,1.110,-2.500,58.400,-58.9,0.400,-0.400,181.080,1000.0
2025-09-16T16:10:11.982903,1.110,-2.360,58.470,-58.9,0.400,-0.400,181.080,1000.0
2025-09-16T16:10:11.986902,1.140,-2.220,58.550,-58.9,0.400,-0.400,181.080,1000.0
2025-09-16T16:10:12.012902,1.160,-2.070,58.630,-58.9,0.400,-0.400,181.080,1000.0
2025-09-16T16:10:12.013900,1.160,-1.960,58.680,-58.9,0.400,-0.400,181.080,1000.0
2025-09-16T16:10:12.042901,1.120,-1.850,58.720,-58.9,0.400,-0.400,181.080,1000.0
2025-09-16T16:10:12.072904,1.070,-1.750,58.760,-58.9,0.400,-0.400,181.080,1000.0
2025-09-16T16:10:12.076901,1.040,-1.650,58.810,-59.0,0.400,-0.400,181.080,1000.0
2025-09-16T16:10:12.102912,1.040,-1.550,58.870,-59.0,0.400,-0.400,181.080,1000.0
2025-09-16T16:10:12.103902,1.060,-1.460,58.950,-59.0,0.400,-0.400,181.080,1000.0
2025-09-16T16:10:12.131907,1.110,-1.390,59.060,-58.9,0.400,-0.400,181.080,1000.0
2025-09-16T16:10:12.177608,1.170,-1.310,59.170,-58.9,0.400,-0.400,181.080,1000.0
2025-09-16T16:10:12.180609,1.220,-1.250,59.250,-58.9,0.400,-0.400,181.080,1000.0
2025-09-16T16:10:12.224102,1.270,-1.150,59.280,-58.9,0.400,-0.400,181.080,1000.0
2025-09-16T16:10:12.229098,1.340,-1.010,59.300,-58.9,0.400,-0.400,181.080,1000.0
2025-09-16T16:10:12.254424,1.450,-0.870,59.340,-58.9,0.400,-0.400,181.080,1000.0
2025-09-16T16:10:12.284729,1.550,-0.710,59.390,-58.9,0.400,-0.400,181.080,1000.0
2025-09-16T16:10:12.287727,1.630,-0.530,59.420,-58.9,0.400,-0.400,181.080,1000.0
2025-09-16T16:10:12.314742,1.670,-0.350,59.430,-58.9,0.400,-0.400,181.080,1000.0
2025-09-16T16:10:12.316739,1.680,-0.180,59.410,-58.9,0.400,-0.400,181.080,1000.0
2025-09-16T16:10:12.344739,1.680,-0.050,59.370,-58.9,0.400,-0.400,181.080,1000.0
2025-09-16T16:10:12.374729,1.670,0.020,59.300,-58.9,0.400,-0.400,181.080,1000.0
2025-09-16T16:10:12.378728,1.690,0.040,59.230,-58.9,0.400,-0.400,181.080,1000.0
2025-09-16T16:10:12.405130,1.730,0.020,59.170,-58.9,0.400,-0.400,181.080,1000.0
2025-09-16T16:10:12.407131,1.770,-0.040,59.110,-58.9,0.400,-0.400,181.080,1000.0
2025-09-16T16:10:12.435191,1.780,-0.120,59.060,-58.9,0.400,-0.400,181.080,1000.0
2025-09-16T16:10:12.449190,1.740,-0.200,59.020,-58.9,0.400,-0.400,181.080,1000.0
2025-09-16T16:10:12.480472,1.690,-0.270,59.010,-58.9,0.400,-0.400,181.080,1000.0
2025-09-16T16:10:12.510370,1.630,-0.330,59.000,-58.9,0.400,-0.400,181.080,1000.0
2025-09-16T16:10:12.525853,1.560,-0.380,59.010,-58.9,0.400,-0.400,181.080,1000.0
2025-09-16T16:10:12.540893,1.520,-0.450,59.030,-58.9,0.400,-0.400,181.080,1000.0
2025-09-16T16:10:12.586870,1.500,-0.520,59.040,-58.9,0.400,-0.400,181.080,1000.0
2025-09-16T16:10:12.589875,1.510,-0.590,59.040,-58.9,0.400,-0.400,181.080,1000.0
2025-09-16T16:10:12.616316,1.550,-0.670,59.010,-58.9,0.400,-0.400,181.080,1000.0
2025-09-16T16:10:12.618316,1.590,-0.730,58.990,-58.9,0.400,-0.400,181.080,1000.0
2025-09-16T16:10:12.647014,1.640,-0.760,58.970,-58.9,0.400,-0.400,181.080,1000.0
2025-09-16T16:10:12.649004,1.700,-0.740,58.970,-58.9,0.400,-0.400,181.080,1000.0
2025-09-16T16:10:12.676987,1.730,-0.680,59.000,-58.9,0.400,-0.400,181.080,1000.0
2025-09-16T16:10:12.707983,1.750,-0.590,59.050,-58.9,0.400,-0.400,181.080,1000.0
2025-09-16T16:10:12.708982,1.730,-0.470,59.100,-58.9,0.400,-0.400,181.080,1000.0
2025-09-16T16:10:12.738551,1.700,-0.340,59.140,-58.9,0.400,-0.400,181.080,1000.0
2025-09-16T16:10:12.739550,1.670,-0.210,59.180,-58.9,0.400,-0.400,181.080,1000.0
2025-09-16T16:10:12.783601,1.660,-0.070,59.240,-58.9,0.400,-0.400,181.080,1000.0
2025-09-16T16:10:12.813823,1.680,0.030,59.300,-58.9,0.400,-0.400,181.080,1000.0
2025-09-16T16:10:12.815821,1.700,0.120,59.370,-58.9,0.400,-0.400,181.080,1000.0
2025-09-16T16:10:12.844104,1.710,0.170,59.430,-58.9,0.400,-0.400,181.080,1000.0
2025-09-16T16:10:12.858143,1.710,0.180,59.460,-58.9,0.400,-0.400,181.080,1000.0
2025-09-16T16:10:12.875836,1.710,0.190,59.460,-58.9,0.400,-0.400,181.080,1000.0
2025-09-16T16:10:12.918843,1.730,0.200,59.440,-58.9,0.400,-0.400,181.080,1000.0
2025-09-16T16:10:12.920837,1.750,0.200,59.430,-58.9,0.400,-0.400,181.080,1000.0
2025-09-16T16:10:12.950332,1.790,0.240,59.430,-58.9,0.400,-0.400,181.080,1000.0
2025-09-16T16:10:12.951332,1.830,0.310,59.440,-58.9,0.400,-0.400,181.080,1000.0
2025-09-16T16:10:12.979839,1.850,0.420,59.440,-58.9,0.400,-0.400,181.080,1000.0
2025-09-16T16:10:13.011858,1.840,0.570,59.430,-58.9,0.400,-0.400,181.080,1000.0
2025-09-16T16:10:13.014859,1.820,0.730,59.390,-58.9,0.400,-0.400,181.080,1000.0
2025-09-16T16:10:13.042066,1.790,0.920,59.300,-58.9,0.400,-0.400,181.080,1000.0
2025-09-16T16:10:13.043065,1.750,1.100,59.120,-58.9,0.400,-0.400,181.080,1000.0
2025-09-16T16:10:13.087767,1.700,1.240,58.860,-58.9,0.400,-0.400,181.080,1000.0
2025-09-16T16:10:13.118138,1.600,1.340,58.520,-58.9,0.400,-0.400,181.080,1000.0
2025-09-16T16:10:13.121140,1.480,1.360,58.210,-58.9,0.400,-0.400,181.080,1000.0
2025-09-16T16:10:13.148335,1.340,1.330,58.000,-58.9,0.400,-0.400,181.080,1000.0
2025-09-16T16:10:13.149335,1.160,1.300,57.960,-58.9,0.400,-0.400,181.080,1000.0
2025-09-16T16:10:13.178810,0.990,1.320,58.120,-58.9,0.400,-0.400,181.080,1000.0
2025-09-16T16:10:13.209754,0.780,1.390,58.450,-58.9,0.400,-0.400,181.080,1000.0
2025-09-16T16:10:13.225157,0.500,1.580,58.850,-58.9,0.400,-0.400,181.080,1000.0
2025-09-16T16:10:13.255791,0.160,1.900,59.220,-58.9,0.400,-0.400,181.080,1000.0
2025-09-16T16:10:13.257796,-0.150,2.260,59.480,-58.9,0.400,-0.400,181.080,1000.0
2025-09-16T16:10:13.284798,-0.560,2.830,59.690,-58.9,0.400,-0.400,181.080,1000.0
2025-09-16T16:10:13.315746,-0.870,3.350,59.800,-58.9,0.400,-0.400,181.080,1000.0
2025-09-16T16:10:13.317747,-1.100,3.820,59.820,-58.9,0.400,-0.400,181.080,1000.0
2025-09-16T16:10:13.345342,-1.240,4.230,59.830,-58.9,0.400,-0.400,181.080,1000.0
2025-09-16T16:10:13.347335,-1.270,4.540,59.880,-58.9,0.400,-0.400,181.080,1000.0
2025-09-16T16:10:13.392343,-1.240,4.730,59.960,-58.9,0.400,-0.400,181.080,1000.0
2025-09-16T16:10:13.422940,-1.190,4.830,59.970,-58.9,0.400,-0.400,181.080,1000.0
2025-09-16T16:10:13.426940,-1.130,4.840,59.900,-58.9,0.400,-0.400,181.080,1000.0
2025-09-16T16:10:13.453803,-1.060,4.800,59.750,-58.9,0.400,-0.400,181.080,1000.0
2025-09-16T16:10:13.455810,-0.970,4.740,59.590,-58.9,0.400,-0.400,181.080,1000.0
2025-09-16T16:10:13.484101,-0.900,4.650,59.500,-58.9,0.400,-0.400,181.080,1000.0
2025-09-16T16:10:13.486087,-0.870,4.510,59.500,-58.9,0.400,-0.400,181.080,1000.0
2025-09-16T16:10:13.514267,-0.870,4.320,59.570,-58.8,0.400,-0.400,181.080,1000.0
2025-09-16T16:10:13.542934,-0.870,4.090,59.670,-58.8,0.400,-0.400,181.080,1000.0
2025-09-16T16:10:13.559417,-0.890,3.810,59.750,-58.8,0.400,-0.400,181.080,1000.0
2025-09-16T16:10:13.590061,-0.910,3.520,59.780,-58.8,0.400,-0.400,181.080,1000.0
2025-09-16T16:10:13.592063,-0.870,3.250,59.790,-58.8,0.400,-0.400,181.080,1000.0
2025-09-16T16:10:13.619881,-0.790,3.010,59.800,-58.8,0.400,-0.400,181.080,1000.0
2025-09-16T16:10:13.649764,-0.700,2.780,59.840,-58.8,0.400,-0.400,181.080,1000.0
2025-09-16T16:10:13.651762,-0.630,2.550,59.900,-58.8,0.400,-0.400,181.080,1000.0
2025-09-16T16:10:13.694800,-0.590,2.370,59.980,-58.8,0.400,-0.400,181.080,1000.0
2025-09-16T16:10:13.695798,-0.570,2.220,60.050,-58.8,0.400,-0.400,181.080,1000.0
2025-09-16T16:10:13.724799,-0.560,2.090,60.110,-58.8,0.400,-0.400,181.080,1000.0
2025-09-16T16:10:13.754799,-0.570,1.990,60.150,-58.8,0.400,-0.400,181.080,1000.0
2025-09-16T16:10:13.755800,-0.560,1.910,60.170,-58.8,0.400,-0.400,181.080,1000.0
2025-09-16T16:10:13.784802,-0.520,1.860,60.190,-58.8,0.400,-0.400,181.080,1000.0
2025-09-16T16:10:13.786802,-0.450,1.840,60.230,-58.8,0.400,-0.400,181.080,1000.0
2025-09-16T16:10:13.815229,-0.380,1.850,60.310,-58.8,0.400,-0.400,181.080,1000.0
2025-09-16T16:10:13.844981,-0.330,1.870,60.350,-58.9,0.400,-0.400,181.080,1000.0
2025-09-16T16:10:13.845981,-0.300,1.900,60.380,-58.9,0.400,-0.400,181.080,1000.0
2025-09-16T16:10:13.875348,-0.290,1.940,60.380,-58.9,0.400,-0.400,181.080,1000.0
2025-09-16T16:10:13.876384,-0.290,1.980,60.370,-58.9,0.400,-0.400,181.080,1000.0
2025-09-16T16:10:13.920758,-0.300,2.000,60.390,-58.8,0.400,-0.400,181.080,1000.0
2025-09-16T16:10:13.965617,-0.290,2.010,60.390,-58.8,0.400,-0.400,181.080,1000.0
2025-09-16T16:10:13.967617,-0.280,2.010,60.380,-58.8,0.400,-0.400,181.080,1000.0
2025-09-16T16:10:13.996135,-0.270,1.980,60.320,-58.8,0.400,-0.400,181.080,1000.0
2025-09-16T16:10:13.997135,-0.280,1.930,60.250,-58.8,0.400,-0.400,181.080,1000.0
2025-09-16T16:10:14.026194,-0.320,1.840,60.140,-58.9,0.400,-0.400,181.080,1000.0
2025-09-16T16:10:14.056801,-0.360,1.720,60.050,-58.9,0.400,-0.400,181.080,1000.0
2025-09-16T16:10:14.058802,-0.400,1.630,60.020,-58.9,0.400,-0.400,181.080,1000.0
2025-09-16T16:10:14.087344,-0.420,1.540,60.030,-58.9,0.400,-0.400,181.080,1000.0
2025-09-16T16:10:14.088343,-0.440,1.480,60.060,-58.9,0.400,-0.400,181.080,1000.0
2025-09-16T16:10:14.118154,-0.460,1.410,60.070,-58.9,0.400,-0.400,181.080,1000.0
2025-09-16T16:10:14.148339,-0.500,1.330,60.040,-58.9,0.400,-0.400,181.080,1000.0
2025-09-16T16:10:14.149338,-0.510,1.250,59.990,-58.9,0.400,-0.400,181.080,1000.0
2025-09-16T16:10:14.178743,-0.480,1.170,59.940,-58.9,0.400,-0.400,181.080,1000.0
2025-09-16T16:10:14.179744,-0.430,1.090,59.910,-58.9,0.400,-0.400,181.080,1000.0
2025-09-16T16:10:14.224700,-0.330,1.010,59.910,-58.9,0.400,-0.400,181.080,1000.0
2025-09-16T16:10:14.270537,-0.240,0.930,59.950,-58.9,0.400,-0.400,181.080,1000.0
2025-09-16T16:10:14.272534,-0.180,0.860,59.980,-58.9,0.400,-0.400,181.080,1000.0
2025-09-16T16:10:14.300927,-0.170,0.820,59.990,-58.9,0.400,-0.400,181.080,1000.0
2025-09-16T16:10:14.302928,-0.180,0.820,59.960,-58.9,0.400,-0.400,181.080,1000.0
2025-09-16T16:10:14.330955,-0.220,0.840,59.920,-58.9,0.400,-0.400,181.080,1000.0
2025-09-16T16:10:14.360681,-0.270,0.870,59.870,-58.8,0.400,-0.400,181.080,1000.0
2025-09-16T16:10:14.361688,-0.370,0.880,59.840,-58.8,0.400,-0.400,181.080,1000.0
2025-09-16T16:10:14.391030,-0.510,0.870,59.810,-58.8,0.400,-0.400,181.080,1000.0
2025-09-16T16:10:14.393030,-0.750,0.860,59.740,-58.8,0.400,-0.400,181.080,1000.0
2025-09-16T16:10:14.420961,-1.050,0.870,59.620,-58.8,0.400,-0.400,181.080,1000.0
2025-09-16T16:10:14.451574,-1.460,0.910,59.450,-58.8,0.400,-0.400,181.080,1000.0
2025-09-16T16:10:14.453573,-2.080,0.960,59.220,-58.8,0.400,-0.400,181.080,1000.0
2025-09-16T16:10:14.496417,-2.980,0.980,58.890,-58.8,0.400,-0.400,181.080,1000.0
2025-09-16T16:10:14.497411,-4.090,1.020,58.460,-58.8,0.400,-0.400,181.080,1000.0
2025-09-16T16:10:14.526789,-5.250,1.080,58.060,-58.8,0.400,-0.400,181.080,1000.0
2025-09-16T16:10:14.542224,-6.430,1.120,57.830,-58.8,0.400,-0.400,181.080,1000.0
2025-09-16T16:10:14.557213,-7.670,1.060,57.760,-58.8,0.400,-0.400,181.080,1000.0
2025-09-16T16:10:14.602526,-8.900,0.820,57.820,-58.8,0.400,-0.400,181.080,1000.0
2025-09-16T16:10:14.603923,-9.890,0.420,58.020,-58.8,0.400,-0.400,181.080,1000.0
2025-09-16T16:10:14.617995,-10.500,-0.020,58.300,-58.8,0.400,-0.400,181.080,1000.0
2025-09-16T16:10:14.663464,-10.670,-0.540,58.620,-58.8,0.400,-0.400,181.080,1000.0
2025-09-16T16:10:14.665463,-10.420,-1.140,58.980,-58.8,0.400,-0.400,181.080,1000.0
2025-09-16T16:10:14.694034,-9.780,-1.740,59.300,-58.8,0.400,-0.400,181.080,1000.0
2025-09-16T16:10:14.695021,-8.740,-2.280,59.460,-58.8,0.400,-0.400,181.080,1000.0
2025-09-16T16:10:14.724302,-7.360,-2.730,59.420,-58.9,0.400,-0.400,181.080,1000.0
2025-09-16T16:10:14.728741,-5.730,-3.120,59.230,-58.9,0.400,-0.400,181.080,1000.0
2025-09-16T16:10:14.754981,-3.910,-3.560,59.040,-58.9,0.400,-0.400,181.080,1000.0
2025-09-16T16:10:14.785737,-2.040,-4.080,58.920,-58.9,0.400,-0.400,181.080,1000.0
2025-09-16T16:10:14.787748,-0.300,-4.690,58.920,-58.9,0.400,-0.400,181.080,1000.0
2025-09-16T16:10:14.831017,1.040,-5.370,58.980,-58.9,0.400,-0.400,181.080,1000.0
2025-09-16T16:10:14.832016,2.590,-6.460,59.060,-58.9,0.400,-0.400,181.080,1000.0
2025-09-16T16:10:14.860230,3.860,-7.540,59.140,-58.9,0.400,-0.400,181.080,1000.0
2025-09-16T16:10:14.891847,5.260,-8.700,59.210,-58.9,0.400,-0.400,181.080,1000.0
2025-09-16T16:10:14.893846,6.750,-9.780,59.290,-58.9,0.400,-0.400,181.080,1000.0
2025-09-16T16:10:14.923171,8.190,-10.690,59.380,-58.9,0.400,-0.400,181.080,1000.0
2025-09-16T16:10:14.937166,9.310,-11.350,59.480,-58.9,0.400,-0.400,181.080,1000.0
2025-09-16T16:10:14.968058,10.400,-11.970,59.610,-58.9,0.400,-0.400,181.080,1000.0
2025-09-16T16:10:14.998237,11.050,-12.260,59.690,-58.9,0.400,-0.400,181.080,1000.0
2025-09-16T16:10:14.999240,11.410,-12.190,59.790,-58.9,0.400,-0.400,181.080,1000.0
2025-09-16T16:10:15.028308,11.370,-11.750,59.970,-58.9,0.400,-0.400,181.080,1000.0
2025-09-16T16:10:15.029307,10.800,-11.070,60.220,-58.9,0.400,-0.400,181.080,1000.0
2025-09-16T16:10:15.058308,9.670,-10.180,60.490,-58.9,0.400,-0.400,181.080,1000.0
2025-09-16T16:10:15.104422,8.240,-9.120,60.770,-58.9,0.400,-0.400,181.080,1000.0
2025-09-16T16:10:15.105422,6.680,-7.930,61.100,-58.9,0.400,-0.400,181.080,1000.0
2025-09-16T16:10:15.134908,5.030,-6.840,61.460,-58.9,0.400,-0.400,181.080,1000.0
2025-09-16T16:10:15.135910,3.040,-6.020,61.750,-58.9,0.400,-0.400,181.080,1000.0
2025-09-16T16:10:15.165275,1.050,-5.510,61.820,-58.9,0.400,-0.400,181.080,1000.0
2025-09-16T16:10:15.195596,-0.730,-5.230,61.660,-58.9,0.400,-0.400,181.080,1000.0
2025-09-16T16:10:15.196596,-1.790,-5.190,61.390,-58.9,0.400,-0.400,181.080,1000.0
2025-09-16T16:10:15.225496,-2.340,-5.530,60.970,-58.9,0.400,-0.400,181.080,1000.0
2025-09-16T16:10:15.228494,-2.210,-6.180,60.630,-58.9,0.400,-0.400,181.080,1000.0
2025-09-16T16:10:15.255406,-1.730,-7.170,60.250,-58.9,0.400,-0.400,181.080,1000.0
2025-09-16T16:10:15.285406,-0.920,-8.290,59.760,-58.9,0.400,-0.400,181.080,1000.0
2025-09-16T16:10:15.300203,0.260,-9.470,59.130,-58.9,0.400,-0.400,181.080,1000.0
2025-09-16T16:10:15.330144,1.630,-10.420,58.440,-58.9,0.400,-0.400,181.080,1000.0
2025-09-16T16:10:15.331145,2.930,-11.030,57.790,-58.9,0.400,-0.400,181.080,1000.0
2025-09-16T16:10:15.375442,3.910,-11.360,57.340,-58.9,0.400,-0.400,181.080,1000.0
2025-09-16T16:10:15.405057,4.450,-11.480,57.160,-58.9,0.400,-0.400,181.080,1000.0
2025-09-16T16:10:15.407065,4.570,-11.390,57.260,-58.9,0.400,-0.400,181.080,1000.0
2025-09-16T16:10:15.435065,4.430,-11.080,57.560,-58.9,0.400,-0.400,181.080,1000.0
2025-09-16T16:10:15.437059,4.230,-10.570,57.980,-58.9,0.400,-0.400,181.080,1000.0
2025-09-16T16:10:15.466080,3.990,-10.070,58.390,-58.9,0.400,-0.400,181.080,1000.0
2025-09-16T16:10:15.469079,3.660,-9.580,58.800,-58.9,0.400,-0.400,181.080,1000.0
2025-09-16T16:10:15.496081,3.340,-9.220,59.100,-58.9,0.400,-0.400,181.080,1000.0
2025-09-16T16:10:15.526428,3.080,-8.920,59.280,-58.9,0.400,-0.400,181.080,1000.0
2025-09-16T16:10:15.528426,3.000,-8.770,59.320,-58.9,0.400,-0.400,181.080,1000.0
2025-09-16T16:10:15.556507,2.980,-8.670,59.270,-58.9,0.400,-0.400,181.080,1000.0
2025-09-16T16:10:15.560498,2.960,-8.620,59.230,-58.9,0.400,-0.400,181.080,1000.0
2025-09-16T16:10:15.586215,2.940,-8.570,59.200,-58.9,0.400,-0.400,181.080,1000.0
2025-09-16T16:10:15.631801,2.940,-8.480,59.220,-58.9,0.400,-0.400,181.080,1000.0
2025-09-16T16:10:15.647035,2.930,-8.300,59.260,-58.9,0.400,-0.400,181.080,1000.0
2025-09-16T16:10:15.677290,2.840,-7.990,59.340,-58.9,0.400,-0.400,181.080,1000.0
2025-09-16T16:10:15.681284,2.610,-7.620,59.390,-58.9,0.400,-0.400,181.080,1000.0
2025-09-16T16:10:15.707868,2.210,-7.240,59.390,-58.9,0.400,-0.400,181.080,1000.0
2025-09-16T16:10:15.737833,1.620,-6.890,59.240,-59.0,0.400,-0.400,181.080,1000.0
2025-09-16T16:10:15.739838,1.170,-6.700,59.060,-59.0,0.400,-0.400,181.080,1000.0
2025-09-16T16:10:15.767478,0.890,-6.650,58.850,-59.0,0.400,-0.400,181.080,1000.0
2025-09-16T16:10:15.770478,0.990,-6.840,58.750,-59.0,0.400,-0.400,181.080,1000.0
2025-09-16T16:10:15.797766,1.530,-7.310,58.790,-58.9,0.400,-0.400,181.080,1000.0
2025-09-16T16:10:15.827788,2.270,-7.920,58.880,-58.9,0.400,-0.400,181.080,1000.0
2025-09-16T16:10:15.828788,3.140,-8.550,58.880,-58.9,0.400,-0.400,181.080,1000.0
2025-09-16T16:10:15.858343,4.030,-9.100,58.700,-58.9,0.400,-0.400,181.080,1000.0
2025-09-16T16:10:15.861338,4.850,-9.500,58.410,-58.9,0.400,-0.400,181.080,1000.0
2025-09-16T16:10:15.903971,5.740,-9.850,58.120,-58.9,0.400,-0.400,181.080,1000.0
2025-09-16T16:10:15.934823,6.550,-10.040,58.010,-59.0,0.400,-0.400,181.080,1000.0
2025-09-16T16:10:15.948542,7.420,-10.050,58.210,-59.0,0.400,-0.400,181.080,1000.0
2025-09-16T16:10:15.964535,8.030,-9.890,58.660,-59.0,0.400,-0.400,181.080,1000.0
2025-09-16T16:10:15.980536,8.410,-9.570,59.290,-59.0,0.400,-0.400,181.080,1000.0
2025-09-16T16:10:16.010569,8.520,-9.070,59.990,-59.0,0.400,-0.400,181.080,1000.0
2025-09-16T16:10:16.040597,8.420,-8.370,60.780,-58.9,0.400,-0.400,181.080,1000.0
2025-09-16T16:10:16.042600,8.120,-7.550,61.580,-58.9,0.400,-0.400,181.080,1000.0
2025-09-16T16:10:16.071539,7.630,-6.710,62.280,-58.9,0.400,-0.400,181.080,1000.0
2025-09-16T16:10:16.074549,6.870,-5.730,63.040,-58.9,0.400,-0.400,181.080,1000.0
2025-09-16T16:10:16.101835,6.150,-4.850,63.670,-58.9,0.400,-0.400,181.080,1000.0
2025-09-16T16:10:16.131617,5.450,-4.020,64.180,-58.9,0.400,-0.400,181.080,1000.0
2025-09-16T16:10:16.132617,4.730,-3.260,64.540,-58.9,0.400,-0.400,181.080,1000.0
2025-09-16T16:10:16.176893,3.980,-2.520,64.730,-58.9,0.400,-0.400,181.080,1000.0
2025-09-16T16:10:16.180892,3.450,-1.940,64.760,-58.9,0.400,-0.400,181.080,1000.0
2025-09-16T16:10:16.207206,2.850,-1.160,64.730,-58.9,0.400,-0.400,181.080,1000.0
2025-09-16T16:10:16.237767,2.450,-0.570,64.670,-58.9,0.400,-0.400,181.080,1000.0
2025-09-16T16:10:16.238769,2.090,-0.080,64.540,-58.9,0.400,-0.400,181.080,1000.0
2025-09-16T16:10:16.268539,1.830,0.270,64.330,-58.9,0.400,-0.400,181.080,1000.0
2025-09-16T16:10:16.284561,1.810,0.470,64.080,-58.9,0.400,-0.400,181.080,1000.0
2025-09-16T16:10:16.298243,2.000,0.570,63.800,-58.9,0.400,-0.400,181.080,1000.0
2025-09-16T16:10:16.344248,2.310,0.560,63.520,-58.9,0.400,-0.400,181.080,1000.0
2025-09-16T16:10:16.346248,2.690,0.370,63.210,-58.9,0.400,-0.400,181.080,1000.0
2025-09-16T16:10:16.375248,3.100,0.110,62.810,-58.9,0.400,-0.400,181.080,1000.0
2025-09-16T16:10:16.381246,3.580,-0.140,62.360,-58.9,0.400,-0.400,181.080,1000.0
2025-09-16T16:10:16.405246,4.120,-0.430,61.930,-58.9,0.400,-0.400,181.080,1000.0
2025-09-16T16:10:16.435247,4.650,-0.740,61.540,-58.9,0.400,-0.400,181.080,1000.0
2025-09-16T16:10:16.437246,5.170,-1.060,61.170,-58.9,0.400,-0.400,181.080,1000.0
2025-09-16T16:10:16.480602,5.700,-1.410,60.850,-58.9,0.400,-0.400,181.080,1000.0
2025-09-16T16:10:16.483587,6.260,-1.650,60.620,-58.9,0.400,-0.400,181.080,1000.0
2025-09-16T16:10:16.510770,6.670,-1.700,60.490,-58.9,0.400,-0.400,181.080,1000.0
2025-09-16T16:10:16.541113,6.820,-1.500,60.500,-58.9,0.400,-0.400,181.080,1000.0
2025-09-16T16:10:16.543115,6.600,-0.970,60.760,-58.9,0.400,-0.400,181.080,1000.0
2025-09-16T16:10:16.572033,5.990,-0.150,61.270,-58.9,0.400,-0.400,181.080,1000.0
2025-09-16T16:10:16.575039,5.020,0.900,62.020,-58.9,0.400,-0.400,181.080,1000.0
2025-09-16T16:10:16.601462,3.790,2.030,62.840,-58.9,0.400,-0.400,181.080,1000.0
2025-09-16T16:10:16.602468,2.750,2.860,63.420,-58.9,0.400,-0.400,181.080,1000.0
2025-09-16T16:10:16.631853,0.940,4.170,64.250,-58.9,0.400,-0.400,181.080,1000.0
2025-09-16T16:10:16.676833,-0.390,5.010,64.680,-58.9,0.400,-0.400,181.080,1000.0
2025-09-16T16:10:16.679839,-1.450,5.660,64.910,-58.9,0.400,-0.400,181.080,1000.0
2025-09-16T16:10:16.707612,-2.140,6.050,64.980,-58.9,0.400,-0.400,181.080,1000.0
2025-09-16T16:10:16.708607,-2.420,6.170,64.890,-58.9,0.400,-0.400,181.080,1000.0
2025-09-16T16:10:16.752365,-2.330,6.000,64.650,-58.9,0.400,-0.400,181.080,1000.0
2025-09-16T16:10:16.782444,-1.950,5.620,64.280,-58.9,0.400,-0.400,181.080,1000.0
2025-09-16T16:10:16.785443,-1.350,5.140,63.840,-58.9,0.400,-0.400,181.080,1000.0
2025-09-16T16:10:16.812587,-0.640,4.640,63.400,-58.9,0.400,-0.400,181.080,1000.0
2025-09-16T16:10:16.814602,0.040,4.160,63.040,-58.9,0.400,-0.400,181.080,1000.0
2025-09-16T16:10:16.842893,0.610,3.730,62.790,-58.9,0.400,-0.400,181.080,1000.0
2025-09-16T16:10:16.873813,1.040,3.380,62.620,-58.9,0.400,-0.400,181.080,1000.0
2025-09-16T16:10:16.879816,1.300,3.160,62.530,-58.9,0.400,-0.400,181.080,1000.0
2025-09-16T16:10:16.903813,1.450,3.060,62.500,-58.9,0.400,-0.400,181.080,1000.0
2025-09-16T16:10:16.904814,1.470,3.020,62.520,-58.9,0.400,-0.400,181.080,1000.0
2025-09-16T16:10:16.934188,1.450,3.000,62.570,-58.9,0.400,-0.400,181.080,1000.0
2025-09-16T16:10:16.965146,1.420,2.940,62.650,-58.9,0.400,-0.400,181.080,1000.0
2025-09-16T16:10:16.982006,1.440,2.840,62.700,-58.9,0.400,-0.400,181.080,1000.0
2025-09-16T16:10:17.010006,1.470,2.700,62.710,-58.9,0.400,-0.400,181.080,1000.0
2025-09-16T16:10:17.012005,1.520,2.500,62.720,-58.9,0.400,-0.400,181.080,1000.0
2025-09-16T16:10:17.039923,1.590,2.270,62.720,-58.9,0.400,-0.400,181.080,1000.0
2025-09-16T16:10:17.085902,1.640,2.110,62.720,-58.9,0.400,-0.400,181.080,1000.0
2025-09-16T16:10:17.089901,1.730,1.860,62.740,-58.9,0.400,-0.400,181.080,1000.0
2025-09-16T16:10:17.116920,1.790,1.720,62.760,-58.9,0.400,-0.400,181.080,1000.0
2025-09-16T16:10:17.117920,1.790,1.640,62.770,-58.9,0.400,-0.400,181.080,1000.0
2025-09-16T16:10:17.147228,1.760,1.600,62.780,-58.9,0.400,-0.400,181.080,1000.0
2025-09-16T16:10:17.178563,1.720,1.600,62.790,-58.9,0.400,-0.400,181.080,1000.0
2025-09-16T16:10:17.181559,1.670,1.620,62.780,-58.9,0.400,-0.400,181.080,1000.0
2025-09-16T16:10:17.208008,1.620,1.650,62.760,-58.9,0.400,-0.400,181.080,1000.0
2025-09-16T16:10:17.210017,1.580,1.660,62.740,-58.9,0.400,-0.400,181.080,1000.0
2025-09-16T16:10:17.237994,1.550,1.670,62.710,-58.9,0.400,-0.400,181.080,1000.0
2025-09-16T16:10:17.268452,1.540,1.680,62.640,-58.9,0.400,-0.400,181.080,1000.0
2025-09-16T16:10:17.283454,1.520,1.720,62.530,-58.9,0.400,-0.400,181.080,1000.0
2025-09-16T16:10:17.298452,1.460,1.750,62.400,-58.9,0.400,-0.400,181.080,1000.0
2025-09-16T16:10:17.299452,1.360,1.790,62.260,-58.9,0.400,-0.400,181.080,1000.0
2025-09-16T16:10:17.343598,1.220,1.800,62.130,-58.9,0.400,-0.400,181.080,1000.0
2025-09-16T16:10:17.388636,1.010,1.840,61.990,-58.9,0.400,-0.400,181.080,1000.0
2025-09-16T16:10:17.394636,0.800,1.910,61.880,-58.9,0.400,-0.400,181.080,1000.0
2025-09-16T16:10:17.418814,0.520,2.010,61.770,-58.9,0.400,-0.400,181.080,1000.0
2025-09-16T16:10:17.419813,0.180,2.090,61.630,-58.9,0.400,-0.400,181.080,1000.0
2025-09-16T16:10:17.448471,-0.300,2.120,61.390,-58.9,0.400,-0.400,181.080,1000.0
2025-09-16T16:10:17.478371,-0.840,2.150,61.080,-58.9,0.400,-0.400,181.080,1000.0
2025-09-16T16:10:17.482360,-1.350,2.170,60.710,-58.9,0.400,-0.400,181.080,1000.0
2025-09-16T16:10:17.508825,-1.940,2.150,60.280,-58.9,0.400,-0.400,181.080,1000.0
2025-09-16T16:10:17.510825,-2.540,2.150,59.870,-58.9,0.400,-0.400,181.080,1000.0
2025-09-16T16:10:17.539644,-3.000,2.080,59.600,-58.9,0.400,-0.400,181.080,1000.0
2025-09-16T16:10:17.540645,-3.300,1.950,59.510,-58.9,0.400,-0.400,181.080,1000.0
2025-09-16T16:10:17.569918,-3.350,1.840,59.600,-58.9,0.400,-0.400,181.080,1000.0
2025-09-16T16:10:17.615159,-3.240,1.680,59.750,-58.9,0.400,-0.400,181.080,1000.0
2025-09-16T16:10:17.617160,-3.020,1.520,59.820,-58.9,0.400,-0.400,181.080,1000.0
2025-09-16T16:10:17.646824,-2.670,1.380,59.790,-58.9,0.400,-0.400,181.080,1000.0
2025-09-16T16:10:17.648823,-2.190,1.350,59.660,-58.9,0.400,-0.400,181.080,1000.0
2025-09-16T16:10:17.676857,-1.660,1.410,59.510,-58.9,0.400,-0.400,181.080,1000.0
2025-09-16T16:10:17.721568,-1.050,1.520,59.420,-58.9,0.400,-0.400,181.080,1000.0
2025-09-16T16:10:17.723559,-0.590,1.670,59.440,-58.9,0.400,-0.400,181.080,1000.0
2025-09-16T16:10:17.752889,-0.220,1.790,59.550,-58.9,0.400,-0.400,181.080,1000.0
2025-09-16T16:10:17.753887,0.040,1.910,59.700,-58.9,0.400,-0.400,181.080,1000.0
2025-09-16T16:10:17.782788,0.220,2.040,59.890,-58.9,0.400,-0.400,181.080,1000.0
2025-09-16T16:10:17.812700,0.360,2.170,60.060,-58.9,0.400,-0.400,181.080,1000.0
2025-09-16T16:10:17.814688,0.420,2.280,60.160,-58.9,0.400,-0.400,181.080,1000.0
2025-09-16T16:10:17.844113,0.480,2.380,60.210,-58.9,0.400,-0.400,181.080,1000.0
2025-09-16T16:10:17.846110,0.570,2.480,60.170,-58.9,0.400,-0.400,181.080,1000.0
2025-09-16T16:10:17.873935,0.700,2.570,60.050,-58.9,0.400,-0.400,181.080,1000.0
2025-09-16T16:10:17.918566,0.800,2.650,59.930,-58.9,0.400,-0.400,181.080,1000.0
2025-09-16T16:10:17.921563,0.800,2.700,59.770,-58.9,0.400,-0.400,181.080,1000.0
2025-09-16T16:10:17.949116,0.660,2.700,59.630,-58.9,0.400,-0.400,181.080,1000.0
2025-09-16T16:10:17.950116,0.480,2.680,59.530,-58.9,0.400,-0.400,181.080,1000.0
2025-09-16T16:10:17.979726,0.230,2.630,59.430,-58.9,0.400,-0.400,181.080,1000.0
2025-09-16T16:10:18.011412,0.030,2.580,59.410,-58.9,0.400,-0.400,181.080,1000.0
2025-09-16T16:10:18.025400,-0.110,2.520,59.420,-58.9,0.400,-0.400,181.080,1000.0
2025-09-16T16:10:18.040400,-0.210,2.470,59.420,-58.9,0.400,-0.400,181.080,1000.0
2025-09-16T16:10:18.055843,-0.270,2.410,59.370,-58.8,0.400,-0.400,181.080,1000.0
2025-09-16T16:10:18.086007,-0.300,2.350,59.270,-58.8,0.400,-0.400,181.080,1000.0
2025-09-16T16:10:18.088006,-0.290,2.250,59.150,-58.8,0.400,-0.400,181.080,1000.0
2025-09-16T16:10:18.116353,-0.230,2.110,59.060,-58.8,0.400,-0.400,181.080,1000.0
2025-09-16T16:10:18.146237,-0.120,1.960,59.030,-58.9,0.400,-0.400,181.080,1000.0
2025-09-16T16:10:18.147237,0.010,1.810,59.030,-58.9,0.400,-0.400,181.080,1000.0
2025-09-16T16:10:18.191784,0.150,1.680,59.030,-58.9,0.400,-0.400,181.080,1000.0
2025-09-16T16:10:18.221894,0.260,1.560,59.000,-58.9,0.400,-0.400,181.080,1000.0
2025-09-16T16:10:18.224893,0.330,1.480,58.980,-58.9,0.400,-0.400,181.080,1000.0
2025-09-16T16:10:18.252469,0.400,1.460,59.000,-58.9,0.400,-0.400,181.080,1000.0
2025-09-16T16:10:18.254479,0.460,1.500,59.120,-58.9,0.400,-0.400,181.080,1000.0
2025-09-16T16:10:18.283019,0.490,1.570,59.300,-58.9,0.400,-0.400,181.080,1000.0
2025-09-16T16:10:18.313415,0.520,1.620,59.540,-58.9,0.400,-0.400,181.080,1000.0
2025-09-16T16:10:18.315419,0.520,1.690,59.760,-58.9,0.400,-0.400,181.080,1000.0
2025-09-16T16:10:18.343739,0.530,1.800,59.880,-58.9,0.400,-0.400,181.080,1000.0
2025-09-16T16:10:18.359118,0.520,1.940,59.850,-58.9,0.400,-0.400,181.080,1000.0
2025-09-16T16:10:18.374525,0.460,2.140,59.750,-58.9,0.400,-0.400,181.080,1000.0
2025-09-16T16:10:18.420040,0.390,2.340,59.660,-58.9,0.400,-0.400,181.080,1000.0
2025-09-16T16:10:18.423040,0.300,2.550,59.650,-58.9,0.400,-0.400,181.080,1000.0
2025-09-16T16:10:18.450576,0.150,2.730,59.670,-58.9,0.400,-0.400,181.080,1000.0
2025-09-16T16:10:18.451576,-0.040,2.890,59.690,-58.9,0.400,-0.400,181.080,1000.0
2025-09-16T16:10:18.495717,-0.250,3.070,59.670,-58.9,0.400,-0.400,181.080,1000.0
2025-09-16T16:10:18.496711,-0.430,3.300,59.650,-58.9,0.400,-0.400,181.080,1000.0
2025-09-16T16:10:18.526470,-0.570,3.530,59.640,-58.9,0.400,-0.400,181.080,1000.0
2025-09-16T16:10:18.556785,-0.680,3.710,59.680,-58.9,0.400,-0.400,181.080,1000.0
2025-09-16T16:10:18.557773,-0.760,3.850,59.730,-58.9,0.400,-0.400,181.080,1000.0
2025-09-16T16:10:18.586772,-0.760,3.870,59.780,-58.9,0.400,-0.400,181.080,1000.0
2025-09-16T16:10:18.587772,-0.640,3.810,59.870,-58.9,0.400,-0.400,181.080,1000.0
2025-09-16T16:10:18.616773,-0.410,3.690,59.930,-58.9,0.400,-0.400,181.080,1000.0
2025-09-16T16:10:18.646772,-0.100,3.520,59.940,-58.9,0.400,-0.400,181.080,1000.0
2025-09-16T16:10:18.647781,0.290,3.350,59.890,-58.9,0.400,-0.400,181.080,1000.0
2025-09-16T16:10:18.677776,0.800,3.170,59.890,-58.9,0.400,-0.400,181.080,1000.0
