Timestamp,Roll_Angle,Pitch_Angle,Yaw_Angle,Altitude,Roll_Setpoint,Pitch_Setpoint,Yaw_Setpoint,Altitude_Setpoint
2025-09-10T14:11:12.575747,0.160,2.500,113.160,-41.1,0.400,-0.400,181.080,1000.0
2025-09-10T14:11:12.606293,0.160,2.510,113.160,-41.1,0.400,-0.400,181.080,1000.0
2025-09-10T14:11:12.610291,0.170,2.520,113.160,-41.1,0.400,-0.400,181.080,1000.0
2025-09-10T14:11:12.636749,0.170,2.530,113.160,-41.1,0.400,-0.400,181.080,1000.0
2025-09-10T14:11:12.637749,0.170,2.520,113.160,-41.1,0.400,-0.400,181.080,1000.0
2025-09-10T14:11:12.666582,0.160,2.510,113.160,-41.2,0.400,-0.400,181.080,1000.0
2025-09-10T14:11:12.697803,0.160,2.510,113.160,-41.2,0.400,-0.400,181.080,1000.0
2025-09-10T14:11:12.701805,0.160,2.500,113.160,-41.2,0.400,-0.400,181.080,1000.0
2025-09-10T14:11:12.728449,0.170,2.500,113.160,-41.2,0.400,-0.400,181.080,1000.0
2025-09-10T14:11:12.729454,0.170,2.500,113.160,-41.2,0.400,-0.400,181.080,1000.0
2025-09-10T14:11:12.758463,0.170,2.500,113.160,-41.2,0.400,-0.400,181.080,1000.0
2025-09-10T14:11:12.820899,0.170,2.500,113.160,-41.2,0.400,-0.400,181.080,1000.0
2025-09-10T14:11:12.824899,0.170,2.500,113.160,-41.2,0.400,-0.400,181.080,1000.0
2025-09-10T14:11:12.850059,0.170,2.500,113.160,-41.2,0.400,-0.400,181.080,1000.0
2025-09-10T14:11:12.852069,0.170,2.500,113.160,-41.2,0.400,-0.400,181.080,1000.0
2025-09-10T14:11:12.880635,0.180,2.510,113.160,-41.2,0.400,-0.400,181.080,1000.0
2025-09-10T14:11:12.910821,0.180,2.510,113.160,-41.2,0.400,-0.400,181.080,1000.0
2025-09-10T14:11:12.919823,0.180,2.500,113.150,-41.2,0.400,-0.400,181.080,1000.0
2025-09-10T14:11:12.941056,0.190,2.510,113.160,-41.2,0.400,-0.400,181.080,1000.0
2025-09-10T14:11:12.942057,0.180,2.500,113.160,-41.2,0.400,-0.400,181.080,1000.0
2025-09-10T14:11:12.971056,0.190,2.500,113.150,-41.2,0.400,-0.400,181.080,1000.0
2025-09-10T14:11:12.972055,0.190,2.500,113.160,-41.2,0.400,-0.400,181.080,1000.0
2025-09-10T14:11:13.001062,0.200,2.510,113.160,-41.2,0.400,-0.400,181.080,1000.0
2025-09-10T14:11:13.031866,0.190,2.500,113.160,-41.2,0.400,-0.400,181.080,1000.0
2025-09-10T14:11:13.033868,0.190,2.500,113.160,-41.2,0.400,-0.400,181.080,1000.0
2025-09-10T14:11:13.061543,0.190,2.500,113.160,-41.2,0.400,-0.400,181.080,1000.0
2025-09-10T14:11:13.107403,0.190,2.490,113.160,-41.2,0.400,-0.400,181.080,1000.0
2025-09-10T14:11:13.111274,0.190,2.480,113.160,-41.2,0.400,-0.400,181.080,1000.0
2025-09-10T14:11:13.137353,0.190,2.480,113.160,-41.2,0.400,-0.400,181.080,1000.0
2025-09-10T14:11:13.152610,0.190,2.480,113.160,-41.2,0.400,-0.400,181.080,1000.0
2025-09-10T14:11:13.182877,0.180,2.480,113.160,-41.2,0.400,-0.400,181.080,1000.0
2025-09-10T14:11:13.183889,0.190,2.480,113.160,-41.2,0.400,-0.400,181.080,1000.0
2025-09-10T14:11:13.213524,0.190,2.480,113.160,-41.2,0.400,-0.400,181.080,1000.0
2025-09-10T14:11:13.243534,0.190,2.480,113.160,-41.2,0.400,-0.400,181.080,1000.0
2025-09-10T14:11:13.244544,0.190,2.490,113.160,-41.2,0.400,-0.400,181.080,1000.0
2025-09-10T14:11:13.274227,0.200,2.510,113.160,-41.2,0.400,-0.400,181.080,1000.0
2025-09-10T14:11:13.275228,0.210,2.510,113.160,-41.2,0.400,-0.400,181.080,1000.0
2025-09-10T14:11:13.304289,0.210,2.530,113.160,-41.2,0.400,-0.400,181.080,1000.0
2025-09-10T14:11:13.334667,0.210,2.530,113.160,-41.2,0.400,-0.400,181.080,1000.0
2025-09-10T14:11:13.336664,0.200,2.530,113.150,-41.2,0.400,-0.400,181.080,1000.0
2025-09-10T14:11:13.365124,0.210,2.540,113.160,-41.2,0.400,-0.400,181.080,1000.0
2025-09-10T14:11:13.367129,0.210,2.540,113.160,-41.2,0.400,-0.400,181.080,1000.0
2025-09-10T14:11:13.410885,0.200,2.550,113.160,-41.2,0.400,-0.400,181.080,1000.0
2025-09-10T14:11:13.441049,0.210,2.550,113.160,-41.2,0.400,-0.400,181.080,1000.0
2025-09-10T14:11:13.455881,0.200,2.550,113.160,-41.2,0.400,-0.400,181.080,1000.0
2025-09-10T14:11:13.470884,0.200,2.550,113.160,-41.2,0.400,-0.400,181.080,1000.0
2025-09-10T14:11:13.485755,0.190,2.550,113.160,-41.2,0.400,-0.400,181.080,1000.0
2025-09-10T14:11:13.516320,0.190,2.550,113.160,-41.2,0.400,-0.400,181.080,1000.0
2025-09-10T14:11:13.545839,0.190,2.550,113.160,-41.2,0.400,-0.400,181.080,1000.0
2025-09-10T14:11:13.546836,0.200,2.550,113.160,-41.2,0.400,-0.400,181.080,1000.0
2025-09-10T14:11:13.575889,0.190,2.550,113.150,-41.2,0.400,-0.400,181.080,1000.0
2025-09-10T14:11:13.576888,0.190,2.550,113.160,-41.2,0.400,-0.400,181.080,1000.0
2025-09-10T14:11:13.605779,0.190,2.550,113.150,-41.2,0.400,-0.400,181.080,1000.0
2025-09-10T14:11:13.650847,0.180,2.540,113.150,-41.2,0.400,-0.400,181.080,1000.0
2025-09-10T14:11:13.652849,0.180,2.550,113.150,-41.2,0.400,-0.400,181.080,1000.0
2025-09-10T14:11:13.680828,0.180,2.550,113.150,-41.2,0.400,-0.400,181.080,1000.0
2025-09-10T14:11:13.682829,0.190,2.550,113.160,-41.2,0.400,-0.400,181.080,1000.0
2025-09-10T14:11:13.711233,0.190,2.550,113.150,-41.2,0.400,-0.400,181.080,1000.0
2025-09-10T14:11:13.741286,0.190,2.550,113.150,-41.2,0.400,-0.400,181.080,1000.0
2025-09-10T14:11:13.742286,0.180,2.540,113.160,-41.2,0.400,-0.400,181.080,1000.0
2025-09-10T14:11:13.771286,0.180,2.540,113.150,-41.2,0.400,-0.400,181.080,1000.0
2025-09-10T14:11:13.786768,0.180,2.540,113.150,-41.2,0.400,-0.400,181.080,1000.0
2025-09-10T14:11:13.802455,0.180,2.530,113.150,-41.2,0.400,-0.400,181.080,1000.0
2025-09-10T14:11:13.847520,0.180,2.530,113.160,-41.2,0.400,-0.400,181.080,1000.0
2025-09-10T14:11:13.848521,0.180,2.530,113.160,-41.2,0.400,-0.400,181.080,1000.0
2025-09-10T14:11:13.877404,0.180,2.530,113.160,-41.2,0.400,-0.400,181.080,1000.0
2025-09-10T14:11:13.878405,0.180,2.520,113.160,-41.2,0.400,-0.400,181.080,1000.0
2025-09-10T14:11:13.923021,0.180,2.520,113.160,-41.2,0.400,-0.400,181.080,1000.0
2025-09-10T14:11:13.925020,0.180,2.520,113.160,-41.2,0.400,-0.400,181.080,1000.0
2025-09-10T14:11:13.952634,0.180,2.530,113.160,-41.2,0.400,-0.400,181.080,1000.0
2025-09-10T14:11:13.982882,0.180,2.530,113.160,-41.2,0.400,-0.400,181.080,1000.0
2025-09-10T14:11:13.984882,0.190,2.520,113.160,-41.2,0.400,-0.400,181.080,1000.0
2025-09-10T14:11:14.012904,0.190,2.520,113.150,-41.2,0.400,-0.400,181.080,1000.0
2025-09-10T14:11:14.042730,0.180,2.520,113.150,-41.2,0.400,-0.400,181.080,1000.0
2025-09-10T14:11:14.043730,0.180,2.520,113.150,-41.2,0.400,-0.400,181.080,1000.0
2025-09-10T14:11:14.071775,0.190,2.510,113.150,-41.2,0.400,-0.400,181.080,1000.0
2025-09-10T14:11:14.073775,0.190,2.520,113.150,-41.2,0.400,-0.400,181.080,1000.0
2025-09-10T14:11:14.103355,0.190,2.520,113.150,-41.2,0.400,-0.400,181.080,1000.0
2025-09-10T14:11:14.104355,0.190,2.520,113.150,-41.2,0.400,-0.400,181.080,1000.0
2025-09-10T14:11:14.133480,0.190,2.520,113.150,-41.2,0.400,-0.400,181.080,1000.0
2025-09-10T14:11:14.194255,0.190,2.520,113.150,-41.2,0.400,-0.400,181.080,1000.0
2025-09-10T14:11:14.197255,0.180,2.520,113.150,-41.2,0.400,-0.400,181.080,1000.0
2025-09-10T14:11:14.223083,0.190,2.510,113.140,-41.2,0.400,-0.400,181.080,1000.0
2025-09-10T14:11:14.225083,0.190,2.510,113.150,-41.2,0.400,-0.400,181.080,1000.0
2025-09-10T14:11:14.254174,0.190,2.510,113.150,-41.2,0.400,-0.400,181.080,1000.0
2025-09-10T14:11:14.284198,0.190,2.510,113.150,-41.2,0.400,-0.400,181.080,1000.0
2025-09-10T14:11:14.286197,0.190,2.510,113.150,-41.2,0.400,-0.400,181.080,1000.0
2025-09-10T14:11:14.314064,0.190,2.510,113.150,-41.2,0.400,-0.400,181.080,1000.0
2025-09-10T14:11:14.316698,0.180,2.510,113.150,-41.2,0.400,-0.400,181.080,1000.0
2025-09-10T14:11:14.344729,0.180,2.520,113.150,-41.2,0.400,-0.400,181.080,1000.0
2025-09-10T14:11:14.374998,0.180,2.520,113.150,-41.2,0.400,-0.400,181.080,1000.0
2025-09-10T14:11:14.376051,0.180,2.510,113.150,-41.2,0.400,-0.400,181.080,1000.0
2025-09-10T14:11:14.405629,0.180,2.520,113.150,-41.2,0.400,-0.400,181.080,1000.0
2025-09-10T14:11:14.406630,0.180,2.510,113.150,-41.2,0.400,-0.400,181.080,1000.0
2025-09-10T14:11:14.450820,0.170,2.520,113.150,-41.2,0.400,-0.400,181.080,1000.0
2025-09-10T14:11:14.481344,0.170,2.520,113.150,-41.2,0.400,-0.400,181.080,1000.0
2025-09-10T14:11:14.495532,0.180,2.510,113.150,-41.2,0.400,-0.400,181.080,1000.0
2025-09-10T14:11:14.525245,0.180,2.520,113.150,-41.2,0.400,-0.400,181.080,1000.0
2025-09-10T14:11:14.527244,0.180,2.520,113.150,-41.2,0.400,-0.400,181.080,1000.0
2025-09-10T14:11:14.555277,0.180,2.520,113.150,-41.2,0.400,-0.400,181.080,1000.0
2025-09-10T14:11:14.586675,0.180,2.530,113.150,-41.2,0.400,-0.400,181.080,1000.0
2025-09-10T14:11:14.587674,0.180,2.520,113.150,-41.2,0.400,-0.400,181.080,1000.0
2025-09-10T14:11:14.616784,0.180,2.520,113.140,-41.2,0.400,-0.400,181.080,1000.0
2025-09-10T14:11:14.619784,0.180,2.520,113.140,-41.2,0.400,-0.400,181.080,1000.0
2025-09-10T14:11:14.647108,0.180,2.520,113.140,-41.2,0.400,-0.400,181.080,1000.0
2025-09-10T14:11:14.677888,0.180,2.520,113.140,-41.2,0.400,-0.400,181.080,1000.0
2025-09-10T14:11:14.678877,0.180,2.520,113.140,-41.2,0.400,-0.400,181.080,1000.0
2025-09-10T14:11:14.722894,0.180,2.530,113.140,-41.2,0.400,-0.400,181.080,1000.0
2025-09-10T14:11:14.724894,0.180,2.530,113.140,-41.1,0.400,-0.400,181.080,1000.0
2025-09-10T14:11:14.753035,0.180,2.530,113.140,-41.1,0.400,-0.400,181.080,1000.0
2025-09-10T14:11:14.782748,0.180,2.530,113.140,-41.1,0.400,-0.400,181.080,1000.0
2025-09-10T14:11:14.784748,0.180,2.530,113.140,-41.1,0.400,-0.400,181.080,1000.0
2025-09-10T14:11:14.813323,0.180,2.530,113.140,-41.1,0.400,-0.400,181.080,1000.0
2025-09-10T14:11:14.815337,0.180,2.530,113.140,-41.1,0.400,-0.400,181.080,1000.0
2025-09-10T14:11:14.857813,0.180,2.530,113.140,-41.1,0.400,-0.400,181.080,1000.0
2025-09-10T14:11:14.859863,0.180,2.530,113.140,-41.1,0.400,-0.400,181.080,1000.0
2025-09-10T14:11:14.889596,0.180,2.530,113.140,-41.1,0.400,-0.400,181.080,1000.0
2025-09-10T14:11:14.920077,0.180,2.530,113.140,-41.1,0.400,-0.400,181.080,1000.0
2025-09-10T14:11:14.921077,0.180,2.530,113.140,-41.1,0.400,-0.400,181.080,1000.0
2025-09-10T14:11:14.950633,0.180,2.530,113.140,-41.1,0.400,-0.400,181.080,1000.0
2025-09-10T14:11:14.951633,0.180,2.530,113.140,-41.1,0.400,-0.400,181.080,1000.0
2025-09-10T14:11:14.980633,0.180,2.530,113.140,-41.1,0.400,-0.400,181.080,1000.0
2025-09-10T14:11:15.026004,0.180,2.530,113.140,-41.1,0.400,-0.400,181.080,1000.0
2025-09-10T14:11:15.026994,0.180,2.530,113.140,-41.1,0.400,-0.400,181.080,1000.0
2025-09-10T14:11:15.056001,0.180,2.530,113.140,-41.1,0.400,-0.400,181.080,1000.0
2025-09-10T14:11:15.056993,0.180,2.530,113.140,-41.1,0.400,-0.400,181.080,1000.0
2025-09-10T14:11:15.085996,0.180,2.530,113.140,-41.1,0.400,-0.400,181.080,1000.0
2025-09-10T14:11:15.116551,0.180,2.530,113.140,-41.1,0.400,-0.400,181.080,1000.0
2025-09-10T14:11:15.119552,0.180,2.530,113.140,-41.1,0.400,-0.400,181.080,1000.0
2025-09-10T14:11:15.147081,0.180,2.530,113.140,-41.2,0.400,-0.400,181.080,1000.0
2025-09-10T14:11:15.148080,0.180,2.540,113.140,-41.1,0.400,-0.400,181.080,1000.0
2025-09-10T14:11:15.177557,0.180,2.540,113.140,-41.1,0.400,-0.400,181.080,1000.0
2025-09-10T14:11:15.223559,0.180,2.540,113.140,-41.1,0.400,-0.400,181.080,1000.0
2025-09-10T14:11:15.226560,0.180,2.540,113.140,-41.1,0.400,-0.400,181.080,1000.0
2025-09-10T14:11:15.252559,0.180,2.540,113.140,-41.2,0.400,-0.400,181.080,1000.0
2025-09-10T14:11:15.255560,0.180,2.540,113.140,-41.2,0.400,-0.400,181.080,1000.0
2025-09-10T14:11:15.297558,0.180,2.540,113.140,-41.2,0.400,-0.400,181.080,1000.0
2025-09-10T14:11:15.327557,0.180,2.540,113.140,-41.2,0.400,-0.400,181.080,1000.0
2025-09-10T14:11:15.328557,0.180,2.540,113.140,-41.2,0.400,-0.400,181.080,1000.0
2025-09-10T14:11:15.357597,0.180,2.540,113.140,-41.2,0.400,-0.400,181.080,1000.0
2025-09-10T14:11:15.358559,0.180,2.540,113.140,-41.2,0.400,-0.400,181.080,1000.0
2025-09-10T14:11:15.387559,0.180,2.540,113.140,-41.2,0.400,-0.400,181.080,1000.0
2025-09-10T14:11:15.390558,0.180,2.540,113.140,-41.2,0.400,-0.400,181.080,1000.0
2025-09-10T14:11:15.417560,0.170,2.540,113.140,-41.2,0.400,-0.400,181.080,1000.0
2025-09-10T14:11:15.448103,0.170,2.540,113.140,-41.2,0.400,-0.400,181.080,1000.0
2025-09-10T14:11:15.449103,0.170,2.540,113.140,-41.2,0.400,-0.400,181.080,1000.0
2025-09-10T14:11:15.478527,0.170,2.540,113.140,-41.1,0.400,-0.400,181.080,1000.0
2025-09-10T14:11:15.508527,0.170,2.540,113.140,-41.1,0.400,-0.400,181.080,1000.0
2025-09-10T14:11:15.539121,0.170,2.540,113.140,-41.1,0.400,-0.400,181.080,1000.0
2025-09-10T14:11:15.569567,0.170,2.540,113.140,-41.1,0.400,-0.400,181.080,1000.0
2025-09-10T14:11:15.570566,0.170,2.540,113.140,-41.1,0.400,-0.400,181.080,1000.0
2025-09-10T14:11:15.599567,0.170,2.540,113.140,-41.1,0.400,-0.400,181.080,1000.0
2025-09-10T14:11:15.629684,0.170,2.540,113.140,-41.1,0.400,-0.400,181.080,1000.0
2025-09-10T14:11:15.630689,0.170,2.540,113.140,-41.1,0.400,-0.400,181.080,1000.0
2025-09-10T14:11:15.659635,0.170,2.540,113.140,-41.1,0.400,-0.400,181.080,1000.0
2025-09-10T14:11:15.660635,0.170,2.540,113.140,-41.1,0.400,-0.400,181.080,1000.0
2025-09-10T14:11:15.689965,0.170,2.540,113.140,-41.1,0.400,-0.400,181.080,1000.0
2025-09-10T14:11:15.721879,0.170,2.540,113.140,-41.1,0.400,-0.400,181.080,1000.0
2025-09-10T14:11:15.723888,0.170,2.540,113.140,-41.1,0.400,-0.400,181.080,1000.0
2025-09-10T14:11:15.750886,0.170,2.540,113.140,-41.1,0.400,-0.400,181.080,1000.0
2025-09-10T14:11:15.752878,0.170,2.540,113.140,-41.2,0.400,-0.400,181.080,1000.0
2025-09-10T14:11:15.781053,0.170,2.540,113.140,-41.2,0.400,-0.400,181.080,1000.0
2025-09-10T14:11:15.784056,0.170,2.540,113.140,-41.2,0.400,-0.400,181.080,1000.0
2025-09-10T14:11:15.826031,0.170,2.540,113.140,-41.2,0.400,-0.400,181.080,1000.0
2025-09-10T14:11:15.856565,0.170,2.540,113.140,-41.2,0.400,-0.400,181.080,1000.0
2025-09-10T14:11:15.871571,0.170,2.540,113.140,-41.2,0.400,-0.400,181.080,1000.0
2025-09-10T14:11:15.886645,0.170,2.540,113.140,-41.2,0.400,-0.400,181.080,1000.0
2025-09-10T14:11:15.931708,0.170,2.540,113.140,-41.2,0.400,-0.400,181.080,1000.0
2025-09-10T14:11:15.933710,0.170,2.540,113.140,-41.2,0.400,-0.400,181.080,1000.0
2025-09-10T14:11:15.962291,0.170,2.540,113.140,-41.2,0.400,-0.400,181.080,1000.0
2025-09-10T14:11:15.964290,0.170,2.540,113.140,-41.2,0.400,-0.400,181.080,1000.0
2025-09-10T14:11:15.992691,0.170,2.540,113.140,-41.2,0.400,-0.400,181.080,1000.0
2025-09-10T14:11:15.996692,0.170,2.540,113.140,-41.1,0.400,-0.400,181.080,1000.0
2025-09-10T14:11:16.022702,0.170,2.540,113.140,-41.1,0.400,-0.400,181.080,1000.0
2025-09-10T14:11:16.052877,0.170,2.540,113.140,-41.1,0.400,-0.400,181.080,1000.0
2025-09-10T14:11:16.053877,0.170,2.540,113.140,-41.1,0.400,-0.400,181.080,1000.0
2025-09-10T14:11:16.097874,0.170,2.540,113.140,-41.1,0.400,-0.400,181.080,1000.0
2025-09-10T14:11:16.101855,0.170,2.540,113.140,-41.1,0.400,-0.400,181.080,1000.0
2025-09-10T14:11:16.128059,0.170,2.540,113.140,-41.1,0.400,-0.400,181.080,1000.0
2025-09-10T14:11:16.158885,0.170,2.540,113.140,-41.1,0.400,-0.400,181.080,1000.0
2025-09-10T14:11:16.160891,0.170,2.540,113.140,-41.1,0.400,-0.400,181.080,1000.0
2025-09-10T14:11:16.189201,0.170,2.540,113.140,-41.2,0.400,-0.400,181.080,1000.0
2025-09-10T14:11:16.206676,0.170,2.540,113.140,-41.2,0.400,-0.400,181.080,1000.0
2025-09-10T14:11:16.219676,0.170,2.540,113.140,-41.2,0.400,-0.400,181.080,1000.0
2025-09-10T14:11:16.265243,0.170,2.540,113.140,-41.2,0.400,-0.400,181.080,1000.0
2025-09-10T14:11:16.265849,0.170,2.540,113.140,-41.2,0.400,-0.400,181.080,1000.0
2025-09-10T14:11:16.294946,0.170,2.540,113.140,-41.2,0.400,-0.400,181.080,1000.0
2025-09-10T14:11:16.297944,0.170,2.540,113.140,-41.2,0.400,-0.400,181.080,1000.0
2025-09-10T14:11:16.324748,0.170,2.540,113.140,-41.2,0.400,-0.400,181.080,1000.0
2025-09-10T14:11:16.370438,0.170,2.540,113.140,-41.2,0.400,-0.400,181.080,1000.0
2025-09-10T14:11:16.372448,0.170,2.540,113.140,-41.2,0.400,-0.400,181.080,1000.0
2025-09-10T14:11:16.400948,0.170,2.540,113.140,-41.2,0.400,-0.400,181.080,1000.0
2025-09-10T14:11:16.405948,0.170,2.540,113.140,-41.2,0.400,-0.400,181.080,1000.0
2025-09-10T14:11:16.430948,0.170,2.540,113.140,-41.2,0.400,-0.400,181.080,1000.0
2025-09-10T14:11:16.461065,0.170,2.540,113.140,-41.2,0.400,-0.400,181.080,1000.0
2025-09-10T14:11:16.463066,0.170,2.540,113.140,-41.2,0.400,-0.400,181.080,1000.0
2025-09-10T14:11:16.491121,0.170,2.540,113.140,-41.2,0.400,-0.400,181.080,1000.0
2025-09-10T14:11:16.506551,0.180,2.550,113.140,-41.2,0.400,-0.400,181.080,1000.0
2025-09-10T14:11:16.521548,0.180,2.550,113.140,-41.2,0.400,-0.400,181.080,1000.0
2025-09-10T14:11:16.552164,0.180,2.550,113.140,-41.2,0.400,-0.400,181.080,1000.0
2025-09-10T14:11:16.567570,0.180,2.550,113.140,-41.2,0.400,-0.400,181.080,1000.0
2025-09-10T14:11:16.596951,0.180,2.550,113.140,-41.2,0.400,-0.400,181.080,1000.0
2025-09-10T14:11:16.600956,0.170,2.540,113.140,-41.2,0.400,-0.400,181.080,1000.0
2025-09-10T14:11:16.642607,0.170,2.540,113.140,-41.3,0.400,-0.400,181.080,1000.0
2025-09-10T14:11:16.672951,0.170,2.540,113.140,-41.3,0.400,-0.400,181.080,1000.0
2025-09-10T14:11:16.674951,0.170,2.540,113.140,-41.2,0.400,-0.400,181.080,1000.0
2025-09-10T14:11:16.702948,0.170,2.540,113.140,-41.2,0.400,-0.400,181.080,1000.0
2025-09-10T14:11:16.706947,0.170,2.540,113.140,-41.2,0.400,-0.400,181.080,1000.0
2025-09-10T14:11:16.732947,0.170,2.540,113.140,-41.2,0.400,-0.400,181.080,1000.0
2025-09-10T14:11:16.763868,0.170,2.540,113.140,-41.2,0.400,-0.400,181.080,1000.0
2025-09-10T14:11:16.765867,0.170,2.540,113.140,-41.2,0.400,-0.400,181.080,1000.0
2025-09-10T14:11:16.794245,0.170,2.540,113.140,-41.2,0.400,-0.400,181.080,1000.0
2025-09-10T14:11:16.798244,0.170,2.540,113.140,-41.2,0.400,-0.400,181.080,1000.0
2025-09-10T14:11:16.824297,0.170,2.540,113.140,-41.2,0.400,-0.400,181.080,1000.0
2025-09-10T14:11:16.855564,0.170,2.540,113.140,-41.3,0.400,-0.400,181.080,1000.0
2025-09-10T14:11:16.870549,0.170,2.540,113.140,-41.3,0.400,-0.400,181.080,1000.0
2025-09-10T14:11:16.885775,0.170,2.540,113.140,-41.3,0.400,-0.400,181.080,1000.0
2025-09-10T14:11:16.903235,0.170,2.540,113.140,-41.3,0.400,-0.400,181.080,1000.0
2025-09-10T14:11:16.946384,0.170,2.540,113.140,-41.3,0.400,-0.400,181.080,1000.0
2025-09-10T14:11:16.947392,0.170,2.540,113.140,-41.3,0.400,-0.400,181.080,1000.0
2025-09-10T14:11:16.976751,0.170,2.540,113.140,-41.3,0.400,-0.400,181.080,1000.0
2025-09-10T14:11:17.006962,0.170,2.540,113.140,-41.3,0.400,-0.400,181.080,1000.0
2025-09-10T14:11:17.010962,0.170,2.540,113.140,-41.3,0.400,-0.400,181.080,1000.0
2025-09-10T14:11:17.036785,0.170,2.540,113.140,-41.3,0.400,-0.400,181.080,1000.0
2025-09-10T14:11:17.038785,0.170,2.540,113.140,-41.3,0.400,-0.400,181.080,1000.0
2025-09-10T14:11:17.066793,0.170,2.540,113.140,-41.3,0.400,-0.400,181.080,1000.0
2025-09-10T14:11:17.096832,0.170,2.540,113.140,-41.3,0.400,-0.400,181.080,1000.0
2025-09-10T14:11:17.100837,0.170,2.540,113.140,-41.3,0.400,-0.400,181.080,1000.0
2025-09-10T14:11:17.126881,0.170,2.540,113.140,-41.3,0.400,-0.400,181.080,1000.0
2025-09-10T14:11:17.127880,0.170,2.540,113.140,-41.3,0.400,-0.400,181.080,1000.0
2025-09-10T14:11:17.157111,0.170,2.540,113.140,-41.3,0.400,-0.400,181.080,1000.0
2025-09-10T14:11:17.202570,0.170,2.540,113.140,-41.3,0.400,-0.400,181.080,1000.0
2025-09-10T14:11:17.206568,0.170,2.540,113.140,-41.3,0.400,-0.400,181.080,1000.0
2025-09-10T14:11:17.232340,0.170,2.540,113.140,-41.3,0.400,-0.400,181.080,1000.0
2025-09-10T14:11:17.234348,0.170,2.540,113.140,-41.2,0.400,-0.400,181.080,1000.0
2025-09-10T14:11:17.277702,0.180,2.530,113.140,-41.2,0.400,-0.400,181.080,1000.0
2025-09-10T14:11:17.308107,0.180,2.530,113.140,-41.2,0.400,-0.400,181.080,1000.0
2025-09-10T14:11:17.312106,0.180,2.530,113.140,-41.2,0.400,-0.400,181.080,1000.0
2025-09-10T14:11:17.338427,0.180,2.530,113.140,-41.2,0.400,-0.400,181.080,1000.0
2025-09-10T14:11:17.340427,0.180,2.530,113.140,-41.2,0.400,-0.400,181.080,1000.0
2025-09-10T14:11:17.368184,0.170,2.530,113.140,-41.2,0.400,-0.400,181.080,1000.0
2025-09-10T14:11:17.398673,0.170,2.530,113.140,-41.2,0.400,-0.400,181.080,1000.0
2025-09-10T14:11:17.401679,0.180,2.520,113.140,-41.2,0.400,-0.400,181.080,1000.0
2025-09-10T14:11:17.428896,0.180,2.520,113.140,-41.2,0.400,-0.400,181.080,1000.0
2025-09-10T14:11:17.429895,0.180,2.530,113.140,-41.2,0.400,-0.400,181.080,1000.0
2025-09-10T14:11:17.474676,0.180,2.530,113.140,-41.2,0.400,-0.400,181.080,1000.0
2025-09-10T14:11:17.476676,0.190,2.520,113.140,-41.2,0.400,-0.400,181.080,1000.0
2025-09-10T14:11:17.504765,0.190,2.530,113.140,-41.2,0.400,-0.400,181.080,1000.0
2025-09-10T14:11:17.535916,0.190,2.530,113.140,-41.2,0.400,-0.400,181.080,1000.0
2025-09-10T14:11:17.538918,0.190,2.540,113.140,-41.2,0.400,-0.400,181.080,1000.0
2025-09-10T14:11:17.565867,0.180,2.540,113.140,-41.2,0.400,-0.400,181.080,1000.0
2025-09-10T14:11:17.610926,0.180,2.540,113.140,-41.2,0.400,-0.400,181.080,1000.0
2025-09-10T14:11:17.616927,0.190,2.550,113.140,-41.2,0.400,-0.400,181.080,1000.0
2025-09-10T14:11:17.641117,0.180,2.550,113.140,-41.2,0.400,-0.400,181.080,1000.0
2025-09-10T14:11:17.642099,0.180,2.550,113.140,-41.3,0.400,-0.400,181.080,1000.0
2025-09-10T14:11:17.671068,0.180,2.550,113.140,-41.3,0.400,-0.400,181.080,1000.0
2025-09-10T14:11:17.701311,0.180,2.550,113.140,-41.3,0.400,-0.400,181.080,1000.0
2025-09-10T14:11:17.706304,0.180,2.550,113.140,-41.3,0.400,-0.400,181.080,1000.0
2025-09-10T14:11:17.745643,0.180,2.550,113.140,-41.3,0.400,-0.400,181.080,1000.0
2025-09-10T14:11:17.747642,0.180,2.550,113.140,-41.3,0.400,-0.400,181.080,1000.0
2025-09-10T14:11:17.775881,0.180,2.550,113.140,-41.3,0.400,-0.400,181.080,1000.0
2025-09-10T14:11:17.806282,0.180,2.550,113.140,-41.2,0.400,-0.400,181.080,1000.0
2025-09-10T14:11:17.810282,0.180,2.550,113.140,-41.2,0.400,-0.400,181.080,1000.0
2025-09-10T14:11:17.836857,0.180,2.550,113.140,-41.2,0.400,-0.400,181.080,1000.0
2025-09-10T14:11:17.838858,0.180,2.550,113.140,-41.2,0.400,-0.400,181.080,1000.0
2025-09-10T14:11:17.867066,0.180,2.550,113.140,-41.2,0.400,-0.400,181.080,1000.0
2025-09-10T14:11:17.881120,0.180,2.550,113.140,-41.2,0.400,-0.400,181.080,1000.0
2025-09-10T14:11:17.896881,0.170,2.550,113.140,-41.2,0.400,-0.400,181.080,1000.0
2025-09-10T14:11:17.942879,0.170,2.550,113.140,-41.2,0.400,-0.400,181.080,1000.0
2025-09-10T14:11:17.943878,0.160,2.540,113.140,-41.2,0.400,-0.400,181.080,1000.0
2025-09-10T14:11:17.957943,0.150,2.550,113.140,-41.2,0.400,-0.400,181.080,1000.0
2025-09-10T14:11:18.004177,0.140,2.530,113.140,-41.2,0.400,-0.400,181.080,1000.0
2025-09-10T14:11:18.009176,0.130,2.540,113.140,-41.2,0.400,-0.400,181.080,1000.0
2025-09-10T14:11:18.049301,0.130,2.540,113.140,-41.2,0.400,-0.400,181.080,1000.0
2025-09-10T14:11:18.050301,0.130,2.550,113.140,-41.2,0.400,-0.400,181.080,1000.0
2025-09-10T14:11:18.079872,0.140,2.560,113.140,-41.2,0.400,-0.400,181.080,1000.0
2025-09-10T14:11:18.080872,0.130,2.550,113.140,-41.2,0.400,-0.400,181.080,1000.0
2025-09-10T14:11:18.109505,0.130,2.550,113.140,-41.2,0.400,-0.400,181.080,1000.0
2025-09-10T14:11:18.139776,0.120,2.540,113.140,-41.2,0.400,-0.400,181.080,1000.0
2025-09-10T14:11:18.141780,0.120,2.540,113.140,-41.2,0.400,-0.400,181.080,1000.0
2025-09-10T14:11:18.170183,0.120,2.540,113.140,-41.2,0.400,-0.400,181.080,1000.0
2025-09-10T14:11:18.172184,0.120,2.550,113.140,-41.2,0.400,-0.400,181.080,1000.0
2025-09-10T14:11:18.200424,0.130,2.550,113.140,-41.2,0.400,-0.400,181.080,1000.0
2025-09-10T14:11:18.231168,0.130,2.550,113.140,-41.2,0.400,-0.400,181.080,1000.0
2025-09-10T14:11:18.232173,0.120,2.540,113.130,-41.2,0.400,-0.400,181.080,1000.0
2025-09-10T14:11:18.261173,0.130,2.540,113.140,-41.2,0.400,-0.400,181.080,1000.0
2025-09-10T14:11:18.276716,0.130,2.540,113.130,-41.2,0.400,-0.400,181.080,1000.0
2025-09-10T14:11:18.291641,0.130,2.540,113.140,-41.2,0.400,-0.400,181.080,1000.0
2025-09-10T14:11:18.351504,0.130,2.540,113.140,-41.2,0.400,-0.400,181.080,1000.0
2025-09-10T14:11:18.352504,0.130,2.540,113.140,-41.2,0.400,-0.400,181.080,1000.0
2025-09-10T14:11:18.382195,0.130,2.540,113.140,-41.2,0.400,-0.400,181.080,1000.0
2025-09-10T14:11:18.383193,0.130,2.540,113.140,-41.2,0.400,-0.400,181.080,1000.0
2025-09-10T14:11:18.412661,0.130,2.530,113.140,-41.2,0.400,-0.400,181.080,1000.0
2025-09-10T14:11:18.443026,0.130,2.540,113.140,-41.2,0.400,-0.400,181.080,1000.0
2025-09-10T14:11:18.444026,0.130,2.540,113.140,-41.2,0.400,-0.400,181.080,1000.0
2025-09-10T14:11:18.472877,0.130,2.540,113.140,-41.2,0.400,-0.400,181.080,1000.0
2025-09-10T14:11:18.474317,0.130,2.540,113.140,-41.2,0.400,-0.400,181.080,1000.0
2025-09-10T14:11:18.503406,0.130,2.540,113.140,-41.2,0.400,-0.400,181.080,1000.0
2025-09-10T14:11:18.533413,0.130,2.540,113.150,-41.2,0.400,-0.400,181.080,1000.0
2025-09-10T14:11:18.534414,0.130,2.540,113.150,-41.2,0.400,-0.400,181.080,1000.0
2025-09-10T14:11:18.579242,0.130,2.530,113.150,-41.2,0.400,-0.400,181.080,1000.0
2025-09-10T14:11:18.581236,0.130,2.540,113.140,-41.2,0.400,-0.400,181.080,1000.0
2025-09-10T14:11:18.609233,0.130,2.540,113.140,-41.2,0.400,-0.400,181.080,1000.0
2025-09-10T14:11:18.654347,0.130,2.540,113.140,-41.2,0.400,-0.400,181.080,1000.0
2025-09-10T14:11:18.656347,0.130,2.540,113.140,-41.2,0.400,-0.400,181.080,1000.0
2025-09-10T14:11:18.684963,0.130,2.540,113.140,-41.2,0.400,-0.400,181.080,1000.0
2025-09-10T14:11:18.685962,0.120,2.530,113.140,-41.2,0.400,-0.400,181.080,1000.0
2025-09-10T14:11:18.715591,0.130,2.530,113.140,-41.2,0.400,-0.400,181.080,1000.0
2025-09-10T14:11:18.745900,0.130,2.530,113.140,-41.2,0.400,-0.400,181.080,1000.0
2025-09-10T14:11:18.746900,0.130,2.530,113.130,-41.2,0.400,-0.400,181.080,1000.0
2025-09-10T14:11:18.775901,0.130,2.540,113.130,-41.2,0.400,-0.400,181.080,1000.0
2025-09-10T14:11:18.776901,0.140,2.530,113.130,-41.2,0.400,-0.400,181.080,1000.0
2025-09-10T14:11:18.805900,0.140,2.520,113.130,-41.2,0.400,-0.400,181.080,1000.0
2025-09-10T14:11:18.807628,0.140,2.530,113.130,-41.2,0.400,-0.400,181.080,1000.0
2025-09-10T14:11:18.836101,0.140,2.530,113.130,-41.2,0.400,-0.400,181.080,1000.0
2025-09-10T14:11:18.881100,0.140,2.530,113.140,-41.2,0.400,-0.400,181.080,1000.0
2025-09-10T14:11:18.882101,0.150,2.530,113.130,-41.2,0.400,-0.400,181.080,1000.0
2025-09-10T14:11:18.911100,0.160,2.540,113.130,-41.2,0.400,-0.400,181.080,1000.0
2025-09-10T14:11:18.956100,0.160,2.540,113.130,-41.2,0.400,-0.400,181.080,1000.0
2025-09-10T14:11:18.957099,0.160,2.540,113.130,-41.2,0.400,-0.400,181.080,1000.0
2025-09-10T14:11:18.986099,0.160,2.540,113.130,-41.2,0.400,-0.400,181.080,1000.0
2025-09-10T14:11:18.988102,0.160,2.540,113.130,-41.2,0.400,-0.400,181.080,1000.0
2025-09-10T14:11:19.016108,0.160,2.530,113.130,-41.2,0.400,-0.400,181.080,1000.0
2025-09-10T14:11:19.018099,0.160,2.530,113.130,-41.2,0.400,-0.400,181.080,1000.0
2025-09-10T14:11:19.046102,0.170,2.540,113.130,-41.2,0.400,-0.400,181.080,1000.0
2025-09-10T14:11:19.076100,0.170,2.540,113.130,-41.2,0.400,-0.400,181.080,1000.0
2025-09-10T14:11:19.077099,0.170,2.540,113.120,-41.2,0.400,-0.400,181.080,1000.0
2025-09-10T14:11:19.121101,0.170,2.540,113.130,-41.2,0.400,-0.400,181.080,1000.0
2025-09-10T14:11:19.123102,0.170,2.540,113.130,-41.2,0.400,-0.400,181.080,1000.0
2025-09-10T14:11:19.150834,0.170,2.540,113.130,-41.2,0.400,-0.400,181.080,1000.0
2025-09-10T14:11:19.180835,0.170,2.540,113.130,-41.2,0.400,-0.400,181.080,1000.0
2025-09-10T14:11:19.181835,0.170,2.540,113.130,-41.2,0.400,-0.400,181.080,1000.0
2025-09-10T14:11:19.210834,0.170,2.540,113.130,-41.2,0.400,-0.400,181.080,1000.0
2025-09-10T14:11:19.212836,0.170,2.540,113.130,-41.2,0.400,-0.400,181.080,1000.0
2025-09-10T14:11:19.240834,0.170,2.540,113.130,-41.2,0.400,-0.400,181.080,1000.0
2025-09-10T14:11:19.270834,0.170,2.540,113.130,-41.2,0.400,-0.400,181.080,1000.0
2025-09-10T14:11:19.285835,0.170,2.540,113.130,-41.2,0.400,-0.400,181.080,1000.0
2025-09-10T14:11:19.300834,0.170,2.540,113.130,-41.2,0.400,-0.400,181.080,1000.0
2025-09-10T14:11:19.315834,0.180,2.540,113.130,-41.2,0.400,-0.400,181.080,1000.0
2025-09-10T14:11:19.360861,0.180,2.540,113.130,-41.2,0.400,-0.400,181.080,1000.0
2025-09-10T14:11:19.390860,0.180,2.540,113.130,-41.2,0.400,-0.400,181.080,1000.0
2025-09-10T14:11:19.391860,0.180,2.540,113.130,-41.2,0.400,-0.400,181.080,1000.0
2025-09-10T14:11:19.420868,0.180,2.540,113.130,-41.2,0.400,-0.400,181.080,1000.0
2025-09-10T14:11:19.422863,0.180,2.540,113.130,-41.2,0.400,-0.400,181.080,1000.0
2025-09-10T14:11:19.450860,0.180,2.540,113.130,-41.2,0.400,-0.400,181.080,1000.0
2025-09-10T14:11:19.480863,0.180,2.540,113.130,-41.2,0.400,-0.400,181.080,1000.0
2025-09-10T14:11:19.481859,0.180,2.540,113.130,-41.2,0.400,-0.400,181.080,1000.0
2025-09-10T14:11:19.510860,0.180,2.540,113.130,-41.2,0.400,-0.400,181.080,1000.0
2025-09-10T14:11:19.511860,0.180,2.540,113.130,-41.2,0.400,-0.400,181.080,1000.0
2025-09-10T14:11:19.540861,0.180,2.540,113.130,-41.2,0.400,-0.400,181.080,1000.0
2025-09-10T14:11:19.585344,0.180,2.540,113.130,-41.2,0.400,-0.400,181.080,1000.0
2025-09-10T14:11:19.905072,0.180,2.540,113.130,-41.2,0.400,-0.400,181.080,1000.0
2025-09-10T14:11:19.908064,0.180,2.540,113.130,-41.2,0.400,-0.400,181.080,1000.0
2025-09-10T14:11:19.909064,0.180,2.540,113.130,-41.2,0.400,-0.400,181.080,1000.0
2025-09-10T14:11:19.911064,0.180,2.540,113.130,-41.2,0.400,-0.400,181.080,1000.0
2025-09-10T14:11:19.912064,0.180,2.540,113.130,-41.2,0.400,-0.400,181.080,1000.0
2025-09-10T14:11:19.913064,0.180,2.540,113.130,-41.1,0.400,-0.400,181.080,1000.0
2025-09-10T14:11:19.919067,0.180,2.540,113.130,-41.1,0.400,-0.400,181.080,1000.0
2025-09-10T14:11:19.921371,0.180,2.540,113.130,-41.1,0.400,-0.400,181.080,1000.0
2025-09-10T14:11:19.923064,0.180,2.540,113.130,-41.1,0.400,-0.400,181.080,1000.0
2025-09-10T14:11:19.924064,0.180,2.540,113.130,-41.1,0.400,-0.400,181.080,1000.0
2025-09-10T14:11:19.925064,0.180,2.540,113.130,-41.1,0.400,-0.400,181.080,1000.0
2025-09-10T14:11:19.928066,0.180,2.540,113.130,-41.1,0.400,-0.400,181.080,1000.0
2025-09-10T14:11:19.929066,0.180,2.540,113.130,-41.1,0.400,-0.400,181.080,1000.0
2025-09-10T14:11:19.931064,0.180,2.540,113.130,-41.1,0.400,-0.400,181.080,1000.0
2025-09-10T14:11:19.932064,0.180,2.540,113.130,-41.1,0.400,-0.400,181.080,1000.0
2025-09-10T14:11:19.933064,0.180,2.540,113.130,-41.2,0.400,-0.400,181.080,1000.0
2025-09-10T14:11:19.936064,0.180,2.540,113.130,-41.2,0.400,-0.400,181.080,1000.0
2025-09-10T14:11:19.938085,0.180,2.540,113.130,-41.2,0.400,-0.400,181.080,1000.0
2025-09-10T14:11:19.939065,0.180,2.540,113.130,-41.2,0.400,-0.400,181.080,1000.0
2025-09-10T14:11:19.962097,0.180,2.540,113.130,-41.2,0.400,-0.400,181.080,1000.0
2025-09-10T14:11:19.977099,0.180,2.540,113.130,-41.2,0.400,-0.400,181.080,1000.0
2025-09-10T14:11:20.022100,0.180,2.540,113.130,-41.2,0.400,-0.400,181.080,1000.0
2025-09-10T14:11:20.023098,0.180,2.540,113.130,-41.2,0.400,-0.400,181.080,1000.0
2025-09-10T14:11:20.052084,0.180,2.540,113.120,-41.2,0.400,-0.400,181.080,1000.0
2025-09-10T14:11:20.053083,0.180,2.540,113.120,-41.2,0.400,-0.400,181.080,1000.0
2025-09-10T14:11:20.097085,0.170,2.540,113.130,-41.2,0.400,-0.400,181.080,1000.0
2025-09-10T14:11:20.127267,0.180,2.540,113.120,-41.2,0.400,-0.400,181.080,1000.0
2025-09-10T14:11:20.128267,0.180,2.540,113.120,-41.2,0.400,-0.400,181.080,1000.0
2025-09-10T14:11:20.158170,0.180,2.540,113.130,-41.2,0.400,-0.400,181.080,1000.0
2025-09-10T14:11:20.159156,0.180,2.540,113.130,-41.2,0.400,-0.400,181.080,1000.0
2025-09-10T14:11:20.188442,0.180,2.540,113.130,-41.2,0.400,-0.400,181.080,1000.0
2025-09-10T14:11:20.218137,0.180,2.540,113.130,-41.2,0.400,-0.400,181.080,1000.0
2025-09-10T14:11:20.220138,0.180,2.540,113.130,-41.2,0.400,-0.400,181.080,1000.0
2025-09-10T14:11:20.248136,0.180,2.540,113.130,-41.2,0.400,-0.400,181.080,1000.0
2025-09-10T14:11:20.249137,0.180,2.540,113.130,-41.2,0.400,-0.400,181.080,1000.0
2025-09-10T14:11:20.277889,0.180,2.540,113.140,-41.2,0.400,-0.400,181.080,1000.0
2025-09-10T14:11:20.308631,0.180,2.540,113.140,-41.2,0.400,-0.400,181.080,1000.0
2025-09-10T14:11:20.323371,0.180,2.540,113.140,-41.2,0.400,-0.400,181.080,1000.0
2025-09-10T14:11:20.368557,0.180,2.540,113.140,-41.2,0.400,-0.400,181.080,1000.0
2025-09-10T14:11:20.369559,0.180,2.540,113.140,-41.2,0.400,-0.400,181.080,1000.0
2025-09-10T14:11:20.398879,0.180,2.540,113.140,-41.2,0.400,-0.400,181.080,1000.0
2025-09-10T14:11:20.428859,0.180,2.540,113.140,-41.2,0.400,-0.400,181.080,1000.0
2025-09-10T14:11:20.429858,0.180,2.550,113.140,-41.2,0.400,-0.400,181.080,1000.0
2025-09-10T14:11:20.459050,0.180,2.550,113.130,-41.2,0.400,-0.400,181.080,1000.0
2025-09-10T14:11:20.460050,0.180,2.540,113.130,-41.2,0.400,-0.400,181.080,1000.0
2025-09-10T14:11:20.489408,0.180,2.550,113.130,-41.2,0.400,-0.400,181.080,1000.0
2025-09-10T14:11:20.492408,0.180,2.540,113.130,-41.2,0.400,-0.400,181.080,1000.0
2025-09-10T14:11:20.519919,0.180,2.550,113.130,-41.2,0.400,-0.400,181.080,1000.0
2025-09-10T14:11:20.549890,0.180,2.540,113.130,-41.2,0.400,-0.400,181.080,1000.0
2025-09-10T14:11:20.550877,0.170,2.540,113.130,-41.2,0.400,-0.400,181.080,1000.0
2025-09-10T14:11:20.579750,0.170,2.540,113.130,-41.2,0.400,-0.400,181.080,1000.0
2025-09-10T14:11:20.608863,0.170,2.540,113.130,-41.2,0.400,-0.400,181.080,1000.0
2025-09-10T14:11:20.610865,0.170,2.540,113.120,-41.2,0.400,-0.400,181.080,1000.0
2025-09-10T14:11:20.654919,0.170,2.530,113.120,-41.2,0.400,-0.400,181.080,1000.0
2025-09-10T14:11:20.669882,0.160,2.520,113.120,-41.2,0.400,-0.400,181.080,1000.0
2025-09-10T14:11:20.699868,0.170,2.530,113.120,-41.2,0.400,-0.400,181.080,1000.0
2025-09-10T14:11:20.702867,0.170,2.530,113.120,-41.2,0.400,-0.400,181.080,1000.0
2025-09-10T14:11:20.729663,0.170,2.530,113.120,-41.2,0.400,-0.400,181.080,1000.0
2025-09-10T14:11:20.759867,0.180,2.530,113.120,-41.2,0.400,-0.400,181.080,1000.0
2025-09-10T14:11:20.760869,0.170,2.540,113.120,-41.2,0.400,-0.400,181.080,1000.0
2025-09-10T14:11:20.789870,0.170,2.530,113.120,-41.2,0.400,-0.400,181.080,1000.0
2025-09-10T14:11:20.792867,0.170,2.530,113.130,-41.2,0.400,-0.400,181.080,1000.0
2025-09-10T14:11:20.819940,0.160,2.520,113.120,-41.2,0.400,-0.400,181.080,1000.0
2025-09-10T14:11:20.864888,0.160,2.520,113.130,-41.2,0.400,-0.400,181.080,1000.0
2025-09-10T14:11:20.865881,0.160,2.520,113.130,-41.2,0.400,-0.400,181.080,1000.0
2025-09-10T14:11:20.894843,0.160,2.520,113.130,-41.2,0.400,-0.400,181.080,1000.0
2025-09-10T14:11:20.898855,0.160,2.520,113.130,-41.2,0.400,-0.400,181.080,1000.0
2025-09-10T14:11:20.924846,0.170,2.530,113.140,-41.2,0.400,-0.400,181.080,1000.0
2025-09-10T14:11:20.954844,0.180,2.530,113.130,-41.2,0.400,-0.400,181.080,1000.0
2025-09-10T14:11:20.956844,0.180,2.530,113.140,-41.2,0.400,-0.400,181.080,1000.0
2025-09-10T14:11:20.984845,0.180,2.540,113.140,-41.2,0.400,-0.400,181.080,1000.0
2025-09-10T14:11:21.001478,0.180,2.540,113.140,-41.2,0.400,-0.400,181.080,1000.0
2025-09-10T14:11:21.029479,0.180,2.540,113.140,-41.2,0.400,-0.400,181.080,1000.0
2025-09-10T14:11:21.058486,0.180,2.540,113.140,-41.2,0.400,-0.400,181.080,1000.0
2025-09-10T14:11:21.060476,0.180,2.540,113.140,-41.2,0.400,-0.400,181.080,1000.0
2025-09-10T14:11:21.104224,0.180,2.540,113.140,-41.2,0.400,-0.400,181.080,1000.0
2025-09-10T14:11:21.108226,0.180,2.540,113.140,-41.2,0.400,-0.400,181.080,1000.0
2025-09-10T14:11:21.133946,0.180,2.530,113.140,-41.2,0.400,-0.400,181.080,1000.0
2025-09-10T14:11:21.164671,0.180,2.530,113.130,-41.2,0.400,-0.400,181.080,1000.0
2025-09-10T14:11:21.165684,0.180,2.530,113.130,-41.2,0.400,-0.400,181.080,1000.0
2025-09-10T14:11:21.194435,0.180,2.520,113.130,-41.2,0.400,-0.400,181.080,1000.0
2025-09-10T14:11:21.198453,0.180,2.520,113.130,-41.2,0.400,-0.400,181.080,1000.0
2025-09-10T14:11:21.224952,0.180,2.520,113.130,-41.2,0.400,-0.400,181.080,1000.0
2025-09-10T14:11:21.255335,0.180,2.520,113.130,-41.2,0.400,-0.400,181.080,1000.0
2025-09-10T14:11:21.257333,0.180,2.520,113.130,-41.2,0.400,-0.400,181.080,1000.0
2025-09-10T14:11:21.285742,0.180,2.520,113.130,-41.2,0.400,-0.400,181.080,1000.0
2025-09-10T14:11:21.299748,0.180,2.520,113.130,-41.2,0.400,-0.400,181.080,1000.0
2025-09-10T14:11:21.315743,0.180,2.520,113.130,-41.2,0.400,-0.400,181.080,1000.0
2025-09-10T14:11:21.375890,0.180,2.510,113.130,-41.2,0.400,-0.400,181.080,1000.0
2025-09-10T14:11:21.377890,0.180,2.510,113.130,-41.2,0.400,-0.400,181.080,1000.0
2025-09-10T14:11:21.405661,0.180,2.510,113.130,-41.2,0.400,-0.400,181.080,1000.0
2025-09-10T14:11:21.409658,0.180,2.510,113.130,-41.2,0.400,-0.400,181.080,1000.0
2025-09-10T14:11:21.435937,0.180,2.510,113.130,-41.2,0.400,-0.400,181.080,1000.0
2025-09-10T14:11:21.466200,0.180,2.510,113.130,-41.2,0.400,-0.400,181.080,1000.0
2025-09-10T14:11:21.467200,0.180,2.510,113.130,-41.2,0.400,-0.400,181.080,1000.0
2025-09-10T14:11:21.496844,0.180,2.510,113.130,-41.2,0.400,-0.400,181.080,1000.0
2025-09-10T14:11:21.499844,0.180,2.510,113.130,-41.2,0.400,-0.400,181.080,1000.0
2025-09-10T14:11:21.526879,0.180,2.510,113.130,-41.2,0.400,-0.400,181.080,1000.0
2025-09-10T14:11:21.557339,0.170,2.510,113.130,-41.2,0.400,-0.400,181.080,1000.0
2025-09-10T14:11:21.559328,0.170,2.510,113.130,-41.2,0.400,-0.400,181.080,1000.0
2025-09-10T14:11:21.587489,0.170,2.510,113.130,-41.2,0.400,-0.400,181.080,1000.0
2025-09-10T14:11:21.590490,0.170,2.510,113.130,-41.2,0.400,-0.400,181.080,1000.0
2025-09-10T14:11:21.631580,0.160,2.520,113.140,-41.2,0.400,-0.400,181.080,1000.0
2025-09-10T14:11:21.662655,0.160,2.520,113.140,-41.2,0.400,-0.400,181.080,1000.0
2025-09-10T14:11:21.663656,0.160,2.520,113.140,-41.2,0.400,-0.400,181.080,1000.0
2025-09-10T14:11:21.708177,0.150,2.520,113.140,-41.2,0.400,-0.400,181.080,1000.0
2025-09-10T14:11:21.711178,0.150,2.520,113.140,-41.3,0.400,-0.400,181.080,1000.0
2025-09-10T14:11:21.723178,0.150,2.520,113.140,-41.3,0.400,-0.400,181.080,1000.0
2025-09-10T14:11:21.768934,0.150,2.530,113.140,-41.3,0.400,-0.400,181.080,1000.0
2025-09-10T14:11:21.770925,0.150,2.530,113.140,-41.3,0.400,-0.400,181.080,1000.0
2025-09-10T14:11:21.798789,0.150,2.520,113.140,-41.3,0.400,-0.400,181.080,1000.0
2025-09-10T14:11:21.800801,0.150,2.520,113.140,-41.3,0.400,-0.400,181.080,1000.0
2025-09-10T14:11:21.829185,0.160,2.520,113.140,-41.3,0.400,-0.400,181.080,1000.0
2025-09-10T14:11:21.830185,0.160,2.520,113.140,-41.3,0.400,-0.400,181.080,1000.0
2025-09-10T14:11:21.859528,0.160,2.520,113.140,-41.3,0.400,-0.400,181.080,1000.0
2025-09-10T14:11:21.904281,0.160,2.510,113.140,-41.3,0.400,-0.400,181.080,1000.0
2025-09-10T14:11:21.909732,0.160,2.510,113.140,-41.3,0.400,-0.400,181.080,1000.0
2025-09-10T14:11:21.934485,0.160,2.510,113.140,-41.3,0.400,-0.400,181.080,1000.0
2025-09-10T14:11:21.935486,0.170,2.510,113.140,-41.3,0.400,-0.400,181.080,1000.0
2025-09-10T14:11:21.965553,0.160,2.520,113.140,-41.3,0.400,-0.400,181.080,1000.0
2025-09-10T14:11:21.996024,0.160,2.520,113.140,-41.3,0.400,-0.400,181.080,1000.0
2025-09-10T14:11:22.011524,0.170,2.530,113.140,-41.3,0.400,-0.400,181.080,1000.0
2025-09-10T14:11:22.041655,0.170,2.530,113.140,-41.3,0.400,-0.400,181.080,1000.0
2025-09-10T14:11:22.042662,0.170,2.540,113.140,-41.3,0.400,-0.400,181.080,1000.0
2025-09-10T14:11:22.056740,0.170,2.540,113.140,-41.3,0.400,-0.400,181.080,1000.0
2025-09-10T14:11:22.102384,0.170,2.540,113.140,-41.3,0.400,-0.400,181.080,1000.0
2025-09-10T14:11:22.105390,0.170,2.540,113.140,-41.3,0.400,-0.400,181.080,1000.0
2025-09-10T14:11:22.132404,0.170,2.550,113.140,-41.3,0.400,-0.400,181.080,1000.0
2025-09-10T14:11:22.133404,0.170,2.550,113.130,-41.3,0.400,-0.400,181.080,1000.0
2025-09-10T14:11:22.162992,0.180,2.560,113.130,-41.3,0.400,-0.400,181.080,1000.0
2025-09-10T14:11:22.209211,0.170,2.570,113.140,-41.3,0.400,-0.400,181.080,1000.0
2025-09-10T14:11:22.214707,0.170,2.560,113.140,-41.3,0.400,-0.400,181.080,1000.0
2025-09-10T14:11:22.239901,0.170,2.560,113.140,-41.3,0.400,-0.400,181.080,1000.0
2025-09-10T14:11:22.241902,0.170,2.560,113.140,-41.3,0.400,-0.400,181.080,1000.0
2025-09-10T14:11:22.270977,0.170,2.550,113.140,-41.3,0.400,-0.400,181.080,1000.0
2025-09-10T14:11:22.300893,0.170,2.550,113.140,-41.2,0.400,-0.400,181.080,1000.0
2025-09-10T14:11:22.314946,0.170,2.550,113.140,-41.2,0.400,-0.400,181.080,1000.0
2025-09-10T14:11:22.331379,0.170,2.550,113.140,-41.2,0.400,-0.400,181.080,1000.0
2025-09-10T14:11:22.332379,0.170,2.550,113.140,-41.2,0.400,-0.400,181.080,1000.0
2025-09-10T14:11:22.361405,0.170,2.550,113.140,-41.2,0.400,-0.400,181.080,1000.0
2025-09-10T14:11:22.406876,0.170,2.540,113.140,-41.2,0.400,-0.400,181.080,1000.0
2025-09-10T14:11:22.409873,0.170,2.540,113.140,-41.2,0.400,-0.400,181.080,1000.0
2025-09-10T14:11:22.436881,0.170,2.540,113.140,-41.2,0.400,-0.400,181.080,1000.0
2025-09-10T14:11:22.437883,0.170,2.530,113.140,-41.2,0.400,-0.400,181.080,1000.0
2025-09-10T14:11:22.481597,0.170,2.530,113.140,-41.2,0.400,-0.400,181.080,1000.0
2025-09-10T14:11:22.511488,0.170,2.530,113.140,-41.2,0.400,-0.400,181.080,1000.0
2025-09-10T14:11:22.517487,0.170,2.530,113.140,-41.2,0.400,-0.400,181.080,1000.0
2025-09-10T14:11:22.541484,0.170,2.530,113.140,-41.2,0.400,-0.400,181.080,1000.0
2025-09-10T14:11:22.542484,0.180,2.520,113.140,-41.2,0.400,-0.400,181.080,1000.0
2025-09-10T14:11:22.571516,0.170,2.530,113.140,-41.2,0.400,-0.400,181.080,1000.0
2025-09-10T14:11:22.572518,0.180,2.530,113.140,-41.2,0.400,-0.400,181.080,1000.0
2025-09-10T14:11:22.601604,0.180,2.520,113.140,-41.2,0.400,-0.400,181.080,1000.0
2025-09-10T14:11:22.631566,0.170,2.530,113.140,-41.2,0.400,-0.400,181.080,1000.0
2025-09-10T14:11:22.632565,0.170,2.530,113.140,-41.2,0.400,-0.400,181.080,1000.0
2025-09-10T14:11:22.661185,0.170,2.540,113.140,-41.2,0.400,-0.400,181.080,1000.0
2025-09-10T14:11:22.691186,0.170,2.540,113.140,-41.2,0.400,-0.400,181.080,1000.0
2025-09-10T14:11:22.723732,0.170,2.540,113.140,-41.2,0.400,-0.400,181.080,1000.0
2025-09-10T14:11:22.724733,0.170,2.540,113.150,-41.2,0.400,-0.400,181.080,1000.0
2025-09-10T14:11:22.750838,0.170,2.540,113.150,-41.2,0.400,-0.400,181.080,1000.0
2025-09-10T14:11:22.781803,0.180,2.530,113.150,-41.2,0.400,-0.400,181.080,1000.0
2025-09-10T14:11:22.782803,0.180,2.540,113.150,-41.2,0.400,-0.400,181.080,1000.0
2025-09-10T14:11:22.811802,0.180,2.530,113.150,-41.2,0.400,-0.400,181.080,1000.0
2025-09-10T14:11:22.841848,0.180,2.530,113.150,-41.2,0.400,-0.400,181.080,1000.0
2025-09-10T14:11:22.842848,0.170,2.540,113.150,-41.2,0.400,-0.400,181.080,1000.0
2025-09-10T14:11:22.871848,0.170,2.540,113.150,-41.2,0.400,-0.400,181.080,1000.0
2025-09-10T14:11:22.872850,0.170,2.540,113.150,-41.2,0.400,-0.400,181.080,1000.0
2025-09-10T14:11:22.901894,0.170,2.540,113.150,-41.2,0.400,-0.400,181.080,1000.0
2025-09-10T14:11:22.931896,0.160,2.540,113.150,-41.2,0.400,-0.400,181.080,1000.0
2025-09-10T14:11:22.933894,0.160,2.540,113.150,-41.2,0.400,-0.400,181.080,1000.0
2025-09-10T14:11:22.976892,0.160,2.540,113.150,-41.2,0.400,-0.400,181.080,1000.0
2025-09-10T14:11:22.977894,0.160,2.540,113.150,-41.2,0.400,-0.400,181.080,1000.0
2025-09-10T14:11:23.006896,0.160,2.540,113.150,-41.2,0.400,-0.400,181.080,1000.0
2025-09-10T14:11:23.037416,0.160,2.540,113.150,-41.2,0.400,-0.400,181.080,1000.0
2025-09-10T14:11:23.052426,0.150,2.540,113.150,-41.2,0.400,-0.400,181.080,1000.0
2025-09-10T14:11:23.067426,0.150,2.540,113.150,-41.2,0.400,-0.400,181.080,1000.0
2025-09-10T14:11:23.081422,0.150,2.540,113.160,-41.2,0.400,-0.400,181.080,1000.0
2025-09-10T14:11:23.112416,0.150,2.540,113.160,-41.2,0.400,-0.400,181.080,1000.0
2025-09-10T14:11:23.142417,0.150,2.540,113.160,-41.2,0.400,-0.400,181.080,1000.0
2025-09-10T14:11:23.143416,0.150,2.540,113.150,-41.2,0.400,-0.400,181.080,1000.0
2025-09-10T14:11:23.172421,0.150,2.540,113.150,-41.2,0.400,-0.400,181.080,1000.0
2025-09-10T14:11:23.173417,0.150,2.540,113.150,-41.2,0.400,-0.400,181.080,1000.0
2025-09-10T14:11:23.217450,0.150,2.540,113.150,-41.2,0.400,-0.400,181.080,1000.0
2025-09-10T14:11:23.247461,0.140,2.540,113.150,-41.2,0.400,-0.400,181.080,1000.0
2025-09-10T14:11:23.249417,0.140,2.540,113.150,-41.2,0.400,-0.400,181.080,1000.0
2025-09-10T14:11:23.277972,0.140,2.540,113.150,-41.2,0.400,-0.400,181.080,1000.0
2025-09-10T14:11:23.278962,0.140,2.540,113.150,-41.2,0.400,-0.400,181.080,1000.0
2025-09-10T14:11:23.308023,0.140,2.540,113.150,-41.2,0.400,-0.400,181.080,1000.0
2025-09-10T14:11:23.338705,0.140,2.540,113.150,-41.2,0.400,-0.400,181.080,1000.0
2025-09-10T14:11:23.340709,0.140,2.540,113.150,-41.2,0.400,-0.400,181.080,1000.0
2025-09-10T14:11:23.369095,0.140,2.540,113.150,-41.2,0.400,-0.400,181.080,1000.0
2025-09-10T14:11:23.384100,0.140,2.540,113.150,-41.2,0.400,-0.400,181.080,1000.0
2025-09-10T14:11:23.399726,0.140,2.540,113.150,-41.2,0.400,-0.400,181.080,1000.0
2025-09-10T14:11:23.445861,0.140,2.540,113.150,-41.2,0.400,-0.400,181.080,1000.0
2025-09-10T14:11:23.447853,0.140,2.540,113.150,-41.2,0.400,-0.400,181.080,1000.0
2025-09-10T14:11:23.475895,0.140,2.540,113.150,-41.2,0.400,-0.400,181.080,1000.0
2025-09-10T14:11:23.477895,0.130,2.540,113.150,-41.2,0.400,-0.400,181.080,1000.0
2025-09-10T14:11:23.520953,0.130,2.540,113.150,-41.2,0.400,-0.400,181.080,1000.0
2025-09-10T14:11:23.550802,0.130,2.540,113.150,-41.2,0.400,-0.400,181.080,1000.0
2025-09-10T14:11:23.552805,0.130,2.540,113.150,-41.2,0.400,-0.400,181.080,1000.0
2025-09-10T14:11:23.580823,0.130,2.540,113.150,-41.2,0.400,-0.400,181.080,1000.0
2025-09-10T14:11:23.581825,0.130,2.540,113.150,-41.2,0.400,-0.400,181.080,1000.0
2025-09-10T14:11:23.612004,0.130,2.540,113.150,-41.2,0.400,-0.400,181.080,1000.0
2025-09-10T14:11:23.642151,0.130,2.540,113.150,-41.2,0.400,-0.400,181.080,1000.0
2025-09-10T14:11:23.643151,0.130,2.540,113.150,-41.2,0.400,-0.400,181.080,1000.0
2025-09-10T14:11:23.672889,0.130,2.540,113.150,-41.2,0.400,-0.400,181.080,1000.0
2025-09-10T14:11:23.674888,0.130,2.540,113.150,-41.2,0.400,-0.400,181.080,1000.0
2025-09-10T14:11:23.702602,0.130,2.540,113.150,-41.2,0.400,-0.400,181.080,1000.0
2025-09-10T14:11:23.716608,0.130,2.540,113.150,-41.2,0.400,-0.400,181.080,1000.0
2025-09-10T14:11:23.732429,0.130,2.540,113.150,-41.2,0.400,-0.400,181.080,1000.0
2025-09-10T14:11:23.793117,0.140,2.540,113.150,-41.2,0.400,-0.400,181.080,1000.0
2025-09-10T14:11:23.795126,0.140,2.540,113.150,-41.2,0.400,-0.400,181.080,1000.0
2025-09-10T14:11:23.823326,0.140,2.540,113.150,-41.2,0.400,-0.400,181.080,1000.0
2025-09-10T14:11:23.853900,0.150,2.540,113.150,-41.2,0.400,-0.400,181.080,1000.0
2025-09-10T14:11:23.855901,0.150,2.540,113.150,-41.2,0.400,-0.400,181.080,1000.0
2025-09-10T14:11:23.883019,0.150,2.540,113.150,-41.2,0.400,-0.400,181.080,1000.0
2025-09-10T14:11:23.885020,0.150,2.540,113.150,-41.2,0.400,-0.400,181.080,1000.0
2025-09-10T14:11:23.914256,0.160,2.540,113.150,-41.2,0.400,-0.400,181.080,1000.0
2025-09-10T14:11:23.915255,0.160,2.540,113.150,-41.2,0.400,-0.400,181.080,1000.0
2025-09-10T14:11:23.944223,0.160,2.540,113.150,-41.2,0.400,-0.400,181.080,1000.0
2025-09-10T14:11:23.974370,0.160,2.540,113.150,-41.2,0.400,-0.400,181.080,1000.0
2025-09-10T14:11:23.975370,0.160,2.540,113.150,-41.2,0.400,-0.400,181.080,1000.0
2025-09-10T14:11:24.004308,0.160,2.540,113.150,-41.2,0.400,-0.400,181.080,1000.0
2025-09-10T14:11:24.005308,0.160,2.540,113.150,-41.2,0.400,-0.400,181.080,1000.0
2025-09-10T14:11:24.034698,0.160,2.540,113.150,-41.2,0.400,-0.400,181.080,1000.0
2025-09-10T14:11:24.079931,0.160,2.540,113.150,-41.2,0.400,-0.400,181.080,1000.0
2025-09-10T14:11:24.094533,0.160,2.540,113.150,-41.2,0.400,-0.400,181.080,1000.0
2025-09-10T14:11:24.125332,0.160,2.540,113.150,-41.2,0.400,-0.400,181.080,1000.0
2025-09-10T14:11:24.126699,0.160,2.540,113.150,-41.2,0.400,-0.400,181.080,1000.0
2025-09-10T14:11:24.155920,0.160,2.540,113.150,-41.2,0.400,-0.400,181.080,1000.0
2025-09-10T14:11:24.186785,0.160,2.540,113.150,-41.2,0.400,-0.400,181.080,1000.0
2025-09-10T14:11:24.188790,0.160,2.540,113.150,-41.2,0.400,-0.400,181.080,1000.0
2025-09-10T14:11:24.216787,0.160,2.540,113.150,-41.2,0.400,-0.400,181.080,1000.0
2025-09-10T14:11:24.219789,0.160,2.540,113.150,-41.2,0.400,-0.400,181.080,1000.0
2025-09-10T14:11:24.248006,0.170,2.540,113.150,-41.2,0.400,-0.400,181.080,1000.0
2025-09-10T14:11:24.277775,0.170,2.540,113.150,-41.2,0.400,-0.400,181.080,1000.0
2025-09-10T14:11:24.279774,0.170,2.540,113.150,-41.2,0.400,-0.400,181.080,1000.0
2025-09-10T14:11:24.309061,0.170,2.540,113.150,-41.2,0.400,-0.400,181.080,1000.0
2025-09-10T14:11:24.311063,0.170,2.540,113.150,-41.2,0.400,-0.400,181.080,1000.0
2025-09-10T14:11:24.338831,0.170,2.540,113.150,-41.2,0.400,-0.400,181.080,1000.0
2025-09-10T14:11:24.383641,0.170,2.540,113.150,-41.2,0.400,-0.400,181.080,1000.0
2025-09-10T14:11:24.384633,0.170,2.540,113.150,-41.2,0.400,-0.400,181.080,1000.0
2025-09-10T14:11:24.413628,0.170,2.540,113.150,-41.2,0.400,-0.400,181.080,1000.0
2025-09-10T14:11:24.415629,0.170,2.540,113.150,-41.2,0.400,-0.400,181.080,1000.0
2025-09-10T14:11:24.443257,0.170,2.540,113.150,-41.2,0.400,-0.400,181.080,1000.0
2025-09-10T14:11:24.488993,0.170,2.540,113.150,-41.2,0.400,-0.400,181.080,1000.0
2025-09-10T14:11:24.489981,0.170,2.540,113.150,-41.2,0.400,-0.400,181.080,1000.0
2025-09-10T14:11:24.518211,0.170,2.540,113.150,-41.2,0.400,-0.400,181.080,1000.0
2025-09-10T14:11:24.520212,0.170,2.540,113.150,-41.2,0.400,-0.400,181.080,1000.0
2025-09-10T14:11:24.549810,0.170,2.540,113.150,-41.2,0.400,-0.400,181.080,1000.0
2025-09-10T14:11:24.580016,0.170,2.540,113.150,-41.2,0.400,-0.400,181.080,1000.0
2025-09-10T14:11:24.581017,0.170,2.540,113.150,-41.2,0.400,-0.400,181.080,1000.0
2025-09-10T14:11:24.625688,0.170,2.540,113.150,-41.2,0.400,-0.400,181.080,1000.0
2025-09-10T14:11:24.627689,0.170,2.540,113.150,-41.2,0.400,-0.400,181.080,1000.0
2025-09-10T14:11:24.655547,0.170,2.540,113.150,-41.2,0.400,-0.400,181.080,1000.0
2025-09-10T14:11:24.686081,0.170,2.540,113.150,-41.2,0.400,-0.400,181.080,1000.0
2025-09-10T14:11:24.687089,0.170,2.540,113.150,-41.2,0.400,-0.400,181.080,1000.0
2025-09-10T14:11:24.716031,0.170,2.540,113.150,-41.2,0.400,-0.400,181.080,1000.0
2025-09-10T14:11:24.718032,0.170,2.540,113.150,-41.2,0.400,-0.400,181.080,1000.0
2025-09-10T14:11:24.746232,0.170,2.540,113.150,-41.2,0.400,-0.400,181.080,1000.0
2025-09-10T14:11:24.791614,0.170,2.540,113.150,-41.2,0.400,-0.400,181.080,1000.0
2025-09-10T14:11:24.792616,0.170,2.540,113.150,-41.2,0.400,-0.400,181.080,1000.0
2025-09-10T14:11:24.821247,0.170,2.540,113.150,-41.2,0.400,-0.400,181.080,1000.0
2025-09-10T14:11:24.823242,0.170,2.540,113.150,-41.2,0.400,-0.400,181.080,1000.0
2025-09-10T14:11:24.852268,0.170,2.540,113.150,-41.2,0.400,-0.400,181.080,1000.0
2025-09-10T14:11:24.853268,0.170,2.540,113.150,-41.2,0.400,-0.400,181.080,1000.0
2025-09-10T14:11:24.896186,0.170,2.540,113.150,-41.2,0.400,-0.400,181.080,1000.0
2025-09-10T14:11:24.927503,0.170,2.540,113.150,-41.2,0.400,-0.400,181.080,1000.0
2025-09-10T14:11:24.928504,0.170,2.540,113.150,-41.2,0.400,-0.400,181.080,1000.0
2025-09-10T14:11:24.957626,0.170,2.540,113.150,-41.2,0.400,-0.400,181.080,1000.0
2025-09-10T14:11:24.958620,0.170,2.540,113.150,-41.2,0.400,-0.400,181.080,1000.0
2025-09-10T14:11:24.987307,0.170,2.540,113.150,-41.2,0.400,-0.400,181.080,1000.0
2025-09-10T14:11:25.017619,0.170,2.540,113.150,-41.2,0.400,-0.400,181.080,1000.0
2025-09-10T14:11:25.019619,0.170,2.540,113.150,-41.2,0.400,-0.400,181.080,1000.0
2025-09-10T14:11:25.047723,0.170,2.540,113.150,-41.2,0.400,-0.400,181.080,1000.0
2025-09-10T14:11:25.048718,0.170,2.540,113.150,-41.2,0.400,-0.400,181.080,1000.0
2025-09-10T14:11:25.077378,0.170,2.540,113.150,-41.2,0.400,-0.400,181.080,1000.0
2025-09-10T14:11:25.123424,0.170,2.540,113.150,-41.2,0.400,-0.400,181.080,1000.0
2025-09-10T14:11:25.125427,0.170,2.540,113.150,-41.2,0.400,-0.400,181.080,1000.0
2025-09-10T14:11:25.138647,0.170,2.540,113.150,-41.2,0.400,-0.400,181.080,1000.0
2025-09-10T14:11:25.168406,0.170,2.540,113.150,-41.2,0.400,-0.400,181.080,1000.0
2025-09-10T14:11:25.199111,0.170,2.540,113.150,-41.2,0.400,-0.400,181.080,1000.0
2025-09-10T14:11:25.229036,0.170,2.540,113.150,-41.2,0.400,-0.400,181.080,1000.0
2025-09-10T14:11:25.229652,0.170,2.540,113.150,-41.2,0.400,-0.400,181.080,1000.0
2025-09-10T14:11:25.260370,0.170,2.540,113.150,-41.2,0.400,-0.400,181.080,1000.0
2025-09-10T14:11:25.261370,0.170,2.540,113.150,-41.2,0.400,-0.400,181.080,1000.0
2025-09-10T14:11:25.291044,0.170,2.540,113.150,-41.3,0.400,-0.400,181.080,1000.0
2025-09-10T14:11:25.321590,0.170,2.540,113.150,-41.3,0.400,-0.400,181.080,1000.0
2025-09-10T14:11:25.322590,0.170,2.540,113.150,-41.3,0.400,-0.400,181.080,1000.0
2025-09-10T14:11:25.352282,0.170,2.540,113.150,-41.3,0.400,-0.400,181.080,1000.0
2025-09-10T14:11:25.353281,0.170,2.540,113.150,-41.3,0.400,-0.400,181.080,1000.0
2025-09-10T14:11:25.382282,0.170,2.540,113.150,-41.2,0.400,-0.400,181.080,1000.0
2025-09-10T14:11:25.412283,0.170,2.540,113.150,-41.2,0.400,-0.400,181.080,1000.0
2025-09-10T14:11:25.414282,0.170,2.540,113.150,-41.2,0.400,-0.400,181.080,1000.0
2025-09-10T14:11:25.457316,0.170,2.540,113.150,-41.2,0.400,-0.400,181.080,1000.0
2025-09-10T14:11:25.459315,0.170,2.540,113.150,-41.2,0.400,-0.400,181.080,1000.0
2025-09-10T14:11:25.502314,0.170,2.540,113.150,-41.2,0.400,-0.400,181.080,1000.0
2025-09-10T14:11:25.532315,0.170,2.540,113.150,-41.2,0.400,-0.400,181.080,1000.0
2025-09-10T14:11:25.533314,0.170,2.540,113.150,-41.2,0.400,-0.400,181.080,1000.0
2025-09-10T14:11:25.561530,0.170,2.540,113.150,-41.2,0.400,-0.400,181.080,1000.0
2025-09-10T14:11:25.563530,0.170,2.540,113.150,-41.2,0.400,-0.400,181.080,1000.0
2025-09-10T14:11:25.592540,0.170,2.540,113.150,-41.2,0.400,-0.400,181.080,1000.0
2025-09-10T14:11:25.595136,0.170,2.540,113.150,-41.2,0.400,-0.400,181.080,1000.0
2025-09-10T14:11:25.622685,0.170,2.540,113.150,-41.2,0.400,-0.400,181.080,1000.0
2025-09-10T14:11:25.653052,0.170,2.540,113.150,-41.2,0.400,-0.400,181.080,1000.0
2025-09-10T14:11:25.654051,0.170,2.540,113.150,-41.2,0.400,-0.400,181.080,1000.0
2025-09-10T14:11:25.683591,0.170,2.540,113.150,-41.2,0.400,-0.400,181.080,1000.0
2025-09-10T14:11:25.687590,0.170,2.540,113.150,-41.2,0.400,-0.400,181.080,1000.0
2025-09-10T14:11:25.728944,0.170,2.540,113.150,-41.2,0.400,-0.400,181.080,1000.0
2025-09-10T14:11:25.759088,0.180,2.530,113.150,-41.2,0.400,-0.400,181.080,1000.0
2025-09-10T14:11:25.761086,0.180,2.530,113.150,-41.2,0.400,-0.400,181.080,1000.0
2025-09-10T14:11:25.789892,0.180,2.530,113.150,-41.2,0.400,-0.400,181.080,1000.0
2025-09-10T14:11:25.806556,0.170,2.530,113.150,-41.2,0.400,-0.400,181.080,1000.0
2025-09-10T14:11:25.818555,0.170,2.530,113.150,-41.2,0.400,-0.400,181.080,1000.0
2025-09-10T14:11:25.865292,0.190,2.550,113.150,-41.2,0.400,-0.400,181.080,1000.0
2025-09-10T14:11:25.866292,0.220,2.570,113.160,-41.2,0.400,-0.400,181.080,1000.0
2025-09-10T14:11:25.895383,0.240,2.580,113.160,-41.2,0.400,-0.400,181.080,1000.0
2025-09-10T14:11:25.898383,0.250,2.600,113.160,-41.2,0.400,-0.400,181.080,1000.0
2025-09-10T14:11:25.925632,0.240,2.580,113.160,-41.2,0.400,-0.400,181.080,1000.0
2025-09-10T14:11:25.955724,0.210,2.560,113.160,-41.2,0.400,-0.400,181.080,1000.0
2025-09-10T14:11:25.956725,0.200,2.540,113.150,-41.2,0.400,-0.400,181.080,1000.0
2025-09-10T14:11:26.000907,0.200,2.540,113.150,-41.2,0.400,-0.400,181.080,1000.0
2025-09-10T14:11:26.003908,0.200,2.550,113.160,-41.2,0.400,-0.400,181.080,1000.0
2025-09-10T14:11:26.029910,0.210,2.560,113.160,-41.2,0.400,-0.400,181.080,1000.0
2025-09-10T14:11:26.060692,0.230,2.580,113.160,-41.2,0.400,-0.400,181.080,1000.0
2025-09-10T14:11:26.061693,0.220,2.580,113.160,-41.2,0.400,-0.400,181.080,1000.0
2025-09-10T14:11:26.090785,0.210,2.560,113.160,-41.2,0.400,-0.400,181.080,1000.0
2025-09-10T14:11:26.104791,0.200,2.540,113.150,-41.2,0.400,-0.400,181.080,1000.0
2025-09-10T14:11:26.119731,0.190,2.540,113.150,-41.2,0.400,-0.400,181.080,1000.0
2025-09-10T14:11:26.150486,0.190,2.550,113.150,-41.2,0.400,-0.400,181.080,1000.0
2025-09-10T14:11:26.166101,0.200,2.550,113.150,-41.2,0.400,-0.400,181.080,1000.0
2025-09-10T14:11:26.196844,0.210,2.560,113.150,-41.2,0.400,-0.400,181.080,1000.0
2025-09-10T14:11:26.199844,0.210,2.570,113.150,-41.2,0.400,-0.400,181.080,1000.0
2025-09-10T14:11:26.226846,0.200,2.560,113.150,-41.2,0.400,-0.400,181.080,1000.0
2025-09-10T14:11:26.272533,0.190,2.550,113.150,-41.2,0.400,-0.400,181.080,1000.0
2025-09-10T14:11:26.274536,0.180,2.540,113.140,-41.2,0.400,-0.400,181.080,1000.0
2025-09-10T14:11:26.302945,0.180,2.540,113.140,-41.2,0.400,-0.400,181.080,1000.0
2025-09-10T14:11:26.305944,0.190,2.550,113.150,-41.2,0.400,-0.400,181.080,1000.0
2025-09-10T14:11:26.332944,0.200,2.550,113.140,-41.2,0.400,-0.400,181.080,1000.0
2025-09-10T14:11:26.362875,0.200,2.550,113.150,-41.2,0.400,-0.400,181.080,1000.0
2025-09-10T14:11:26.363874,0.190,2.550,113.150,-41.2,0.400,-0.400,181.080,1000.0
2025-09-10T14:11:26.392873,0.180,2.540,113.150,-41.2,0.400,-0.400,181.080,1000.0
2025-09-10T14:11:26.395876,0.180,2.540,113.150,-41.2,0.400,-0.400,181.080,1000.0
2025-09-10T14:11:26.422875,0.190,2.530,113.150,-41.2,0.400,-0.400,181.080,1000.0
2025-09-10T14:11:26.451872,0.190,2.540,113.150,-41.2,0.400,-0.400,181.080,1000.0
2025-09-10T14:11:26.466873,0.190,2.540,113.150,-41.2,0.400,-0.400,181.080,1000.0
2025-09-10T14:11:26.482875,0.190,2.540,113.140,-41.2,0.400,-0.400,181.080,1000.0
2025-09-10T14:11:26.514883,0.190,2.540,113.140,-41.2,0.400,-0.400,181.080,1000.0
2025-09-10T14:11:26.542874,0.190,2.530,113.140,-41.2,0.400,-0.400,181.080,1000.0
2025-09-10T14:11:26.572879,0.180,2.530,113.150,-41.2,0.400,-0.400,181.080,1000.0
2025-09-10T14:11:26.574875,0.170,2.530,113.140,-41.2,0.400,-0.400,181.080,1000.0
2025-09-10T14:11:26.603379,0.170,2.530,113.140,-41.2,0.400,-0.400,181.080,1000.0
2025-09-10T14:11:26.606390,0.180,2.530,113.140,-41.2,0.400,-0.400,181.080,1000.0
2025-09-10T14:11:26.633437,0.180,2.540,113.140,-41.2,0.400,-0.400,181.080,1000.0
2025-09-10T14:11:26.663381,0.180,2.540,113.140,-41.2,0.400,-0.400,181.080,1000.0
2025-09-10T14:11:26.665378,0.180,2.540,113.140,-41.2,0.400,-0.400,181.080,1000.0
2025-09-10T14:11:26.693379,0.180,2.540,113.140,-41.2,0.400,-0.400,181.080,1000.0
2025-09-10T14:11:26.698381,0.180,2.530,113.140,-41.2,0.400,-0.400,181.080,1000.0
2025-09-10T14:11:26.723379,0.180,2.530,113.140,-41.2,0.400,-0.400,181.080,1000.0
2025-09-10T14:11:26.725380,0.180,2.530,113.140,-41.2,0.400,-0.400,181.080,1000.0
2025-09-10T14:11:26.768899,0.180,2.530,113.140,-41.2,0.400,-0.400,181.080,1000.0
2025-09-10T14:11:26.798899,0.180,2.540,113.140,-41.2,0.400,-0.400,181.080,1000.0
2025-09-10T14:11:26.815907,0.180,2.540,113.140,-41.2,0.400,-0.400,181.080,1000.0
2025-09-10T14:11:26.828900,0.180,2.540,113.140,-41.2,0.400,-0.400,181.080,1000.0
2025-09-10T14:11:26.842936,0.180,2.540,113.140,-41.2,0.400,-0.400,181.080,1000.0
2025-09-10T14:11:26.873994,0.180,2.540,113.140,-41.2,0.400,-0.400,181.080,1000.0
2025-09-10T14:11:26.903999,0.180,2.540,113.140,-41.2,0.400,-0.400,181.080,1000.0
2025-09-10T14:11:26.906962,0.180,2.540,113.150,-41.2,0.400,-0.400,181.080,1000.0
2025-09-10T14:11:26.933961,0.180,2.540,113.150,-41.2,0.400,-0.400,181.080,1000.0
2025-09-10T14:11:26.934963,0.180,2.540,113.150,-41.2,0.400,-0.400,181.080,1000.0
2025-09-10T14:11:26.963964,0.180,2.540,113.150,-41.2,0.400,-0.400,181.080,1000.0
2025-09-10T14:11:26.993512,0.180,2.530,113.150,-41.2,0.400,-0.400,181.080,1000.0
2025-09-10T14:11:26.997554,0.180,2.540,113.150,-41.2,0.400,-0.400,181.080,1000.0
2025-09-10T14:11:27.039832,0.180,2.540,113.150,-41.2,0.400,-0.400,181.080,1000.0
2025-09-10T14:11:27.041823,0.180,2.540,113.150,-41.2,0.400,-0.400,181.080,1000.0
2025-09-10T14:11:27.070120,0.180,2.540,113.150,-41.2,0.400,-0.400,181.080,1000.0
2025-09-10T14:11:27.100878,0.180,2.530,113.150,-41.3,0.400,-0.400,181.080,1000.0
2025-09-10T14:11:27.104877,0.180,2.530,113.150,-41.3,0.400,-0.400,181.080,1000.0
2025-09-10T14:11:27.131032,0.180,2.530,113.150,-41.3,0.400,-0.400,181.080,1000.0
2025-09-10T14:11:27.132032,0.180,2.530,113.150,-41.3,0.400,-0.400,181.080,1000.0
2025-09-10T14:11:27.161015,0.180,2.540,113.150,-41.3,0.400,-0.400,181.080,1000.0
2025-09-10T14:11:27.206538,0.180,2.540,113.150,-41.3,0.400,-0.400,181.080,1000.0
2025-09-10T14:11:27.211500,0.180,2.540,113.150,-41.3,0.400,-0.400,181.080,1000.0
2025-09-10T14:11:27.236931,0.180,2.540,113.150,-41.3,0.400,-0.400,181.080,1000.0
2025-09-10T14:11:27.238928,0.180,2.530,113.150,-41.3,0.400,-0.400,181.080,1000.0
2025-09-10T14:11:27.267619,0.170,2.540,113.150,-41.3,0.400,-0.400,181.080,1000.0
2025-09-10T14:11:27.312469,0.170,2.540,113.140,-41.3,0.400,-0.400,181.080,1000.0
2025-09-10T14:11:27.316467,0.170,2.540,113.140,-41.3,0.400,-0.400,181.080,1000.0
2025-09-10T14:11:27.342570,0.170,2.540,113.140,-41.3,0.400,-0.400,181.080,1000.0
