Timestamp,Roll_Angle,Pitch_Angle,Yaw_Angle,Altitude,Roll_Setpoint,Pitch_Setpoint,Yaw_Setpoint,Altitude_Setpoint
2025-09-16T15:47:12.097521,5.870,1.820,139.100,-60.4,0.400,-0.400,181.080,1000.0
2025-09-16T15:47:12.099519,5.870,1.820,139.100,-60.4,0.400,-0.400,181.080,1000.0
2025-09-16T15:47:12.127576,5.860,1.810,139.100,-60.4,0.400,-0.400,181.080,1000.0
2025-09-16T15:47:12.129571,5.860,1.810,139.100,-60.4,0.400,-0.400,181.080,1000.0
2025-09-16T15:47:12.172312,5.860,1.810,139.100,-60.4,0.400,-0.400,181.080,1000.0
2025-09-16T15:47:12.176317,5.860,1.810,139.100,-60.4,0.400,-0.400,181.080,1000.0
2025-09-16T15:47:12.202035,5.860,1.810,139.100,-60.4,0.400,-0.400,181.080,1000.0
2025-09-16T15:47:12.233342,5.860,1.810,139.100,-60.4,0.400,-0.400,181.080,1000.0
2025-09-16T15:47:12.235341,5.870,1.820,139.100,-60.4,0.400,-0.400,181.080,1000.0
2025-09-16T15:47:12.263317,5.870,1.810,139.100,-60.4,0.400,-0.400,181.080,1000.0
2025-09-16T15:47:12.293608,5.870,1.810,139.100,-60.4,0.400,-0.400,181.080,1000.0
2025-09-16T15:47:12.294616,5.870,1.810,139.100,-60.4,0.400,-0.400,181.080,1000.0
2025-09-16T15:47:12.323607,5.870,1.810,139.100,-60.4,0.400,-0.400,181.080,1000.0
2025-09-16T15:47:12.324607,5.870,1.810,139.100,-60.4,0.400,-0.400,181.080,1000.0
2025-09-16T15:47:12.354103,5.880,1.810,139.100,-60.4,0.400,-0.400,181.080,1000.0
2025-09-16T15:47:12.384588,5.880,1.810,139.100,-60.4,0.400,-0.400,181.080,1000.0
2025-09-16T15:47:12.414592,5.880,1.810,139.100,-60.4,0.400,-0.400,181.080,1000.0
2025-09-16T15:47:12.444645,5.880,1.810,139.100,-60.4,0.400,-0.400,181.080,1000.0
2025-09-16T15:47:12.445588,5.880,1.800,139.100,-60.4,0.400,-0.400,181.080,1000.0
2025-09-16T15:47:12.474589,5.880,1.800,139.100,-60.4,0.400,-0.400,181.080,1000.0
2025-09-16T15:47:12.504588,5.880,1.800,139.100,-60.4,0.400,-0.400,181.080,1000.0
2025-09-16T15:47:12.505594,5.880,1.800,139.100,-60.4,0.400,-0.400,181.080,1000.0
2025-09-16T15:47:12.535662,5.880,1.800,139.110,-60.4,0.400,-0.400,181.080,1000.0
2025-09-16T15:47:12.536662,5.880,1.800,139.110,-60.4,0.400,-0.400,181.080,1000.0
2025-09-16T15:47:12.565783,5.880,1.800,139.110,-60.4,0.400,-0.400,181.080,1000.0
2025-09-16T15:47:12.568782,5.880,1.810,139.110,-60.4,0.400,-0.400,181.080,1000.0
2025-09-16T15:47:12.594597,5.880,1.810,139.110,-60.4,0.400,-0.400,181.080,1000.0
2025-09-16T15:47:12.626282,5.870,1.810,139.100,-60.4,0.400,-0.400,181.080,1000.0
2025-09-16T15:47:12.627281,5.870,1.810,139.100,-60.4,0.400,-0.400,181.080,1000.0
2025-09-16T15:47:12.656564,5.870,1.800,139.100,-60.4,0.400,-0.400,181.080,1000.0
2025-09-16T15:47:12.659563,5.880,1.800,139.100,-60.4,0.400,-0.400,181.080,1000.0
2025-09-16T15:47:12.701581,5.880,1.800,139.100,-60.4,0.400,-0.400,181.080,1000.0
2025-09-16T15:47:12.731643,5.870,1.800,139.100,-60.4,0.400,-0.400,181.080,1000.0
2025-09-16T15:47:12.746640,5.870,1.790,139.100,-60.4,0.400,-0.400,181.080,1000.0
2025-09-16T15:47:12.775969,5.870,1.790,139.110,-60.4,0.400,-0.400,181.080,1000.0
2025-09-16T15:47:12.779974,5.870,1.790,139.110,-60.4,0.400,-0.400,181.080,1000.0
2025-09-16T15:47:12.807003,5.870,1.790,139.110,-60.4,0.400,-0.400,181.080,1000.0
2025-09-16T15:47:12.838026,5.870,1.790,139.110,-60.4,0.400,-0.400,181.080,1000.0
2025-09-16T15:47:12.839027,5.860,1.790,139.110,-60.4,0.400,-0.400,181.080,1000.0
2025-09-16T15:47:12.868261,5.870,1.790,139.110,-60.4,0.400,-0.400,181.080,1000.0
2025-09-16T15:47:12.872264,5.860,1.790,139.110,-60.4,0.400,-0.400,181.080,1000.0
2025-09-16T15:47:12.898300,5.860,1.790,139.110,-60.4,0.400,-0.400,181.080,1000.0
2025-09-16T15:47:12.930262,5.870,1.790,139.110,-60.4,0.400,-0.400,181.080,1000.0
2025-09-16T15:47:12.931261,5.870,1.790,139.110,-60.4,0.400,-0.400,181.080,1000.0
2025-09-16T15:47:12.960260,5.860,1.780,139.110,-60.4,0.400,-0.400,181.080,1000.0
2025-09-16T15:47:12.963261,5.860,1.780,139.110,-60.4,0.400,-0.400,181.080,1000.0
2025-09-16T15:47:13.005267,5.860,1.780,139.100,-60.4,0.400,-0.400,181.080,1000.0
2025-09-16T15:47:13.034260,5.860,1.780,139.100,-60.4,0.400,-0.400,181.080,1000.0
2025-09-16T15:47:13.036259,5.860,1.780,139.110,-60.4,0.400,-0.400,181.080,1000.0
2025-09-16T15:47:13.065011,5.860,1.780,139.110,-60.4,0.400,-0.400,181.080,1000.0
2025-09-16T15:47:13.082013,5.860,1.780,139.110,-60.4,0.400,-0.400,181.080,1000.0
2025-09-16T15:47:13.109278,5.860,1.780,139.100,-60.4,0.400,-0.400,181.080,1000.0
2025-09-16T15:47:13.139349,5.850,1.780,139.100,-60.4,0.400,-0.400,181.080,1000.0
2025-09-16T15:47:13.141352,5.850,1.790,139.110,-60.4,0.400,-0.400,181.080,1000.0
2025-09-16T15:47:13.170355,5.850,1.790,139.110,-60.4,0.400,-0.400,181.080,1000.0
2025-09-16T15:47:13.172344,5.850,1.790,139.110,-60.4,0.400,-0.400,181.080,1000.0
2025-09-16T15:47:13.200148,5.850,1.790,139.110,-60.4,0.400,-0.400,181.080,1000.0
2025-09-16T15:47:13.244236,5.850,1.790,139.100,-60.4,0.400,-0.400,181.080,1000.0
2025-09-16T15:47:13.246241,5.850,1.790,139.100,-60.4,0.400,-0.400,181.080,1000.0
2025-09-16T15:47:13.273940,5.850,1.790,139.100,-60.4,0.400,-0.400,181.080,1000.0
2025-09-16T15:47:13.276939,5.840,1.790,139.100,-60.4,0.400,-0.400,181.080,1000.0
2025-09-16T15:47:13.304938,5.840,1.790,139.100,-60.4,0.400,-0.400,181.080,1000.0
2025-09-16T15:47:13.334970,5.840,1.790,139.100,-60.4,0.400,-0.400,181.080,1000.0
2025-09-16T15:47:13.335970,5.840,1.790,139.100,-60.4,0.400,-0.400,181.080,1000.0
2025-09-16T15:47:13.365143,5.840,1.790,139.100,-60.4,0.400,-0.400,181.080,1000.0
2025-09-16T15:47:13.379906,5.830,1.790,139.100,-60.4,0.400,-0.400,181.080,1000.0
2025-09-16T15:47:13.394914,5.830,1.790,139.100,-60.4,0.400,-0.400,181.080,1000.0
2025-09-16T15:47:13.438908,5.830,1.790,139.100,-60.4,0.400,-0.400,181.080,1000.0
2025-09-16T15:47:13.440908,5.830,1.800,139.110,-60.4,0.400,-0.400,181.080,1000.0
2025-09-16T15:47:13.485635,5.830,1.790,139.100,-60.4,0.400,-0.400,181.080,1000.0
2025-09-16T15:47:13.490622,5.840,1.780,139.100,-60.4,0.400,-0.400,181.080,1000.0
2025-09-16T15:47:13.515693,5.840,1.780,139.100,-60.4,0.400,-0.400,181.080,1000.0
2025-09-16T15:47:13.545775,5.840,1.780,139.100,-60.5,0.400,-0.400,181.080,1000.0
2025-09-16T15:47:13.547777,5.840,1.780,139.100,-60.5,0.400,-0.400,181.080,1000.0
2025-09-16T15:47:13.576642,5.840,1.780,139.100,-60.5,0.400,-0.400,181.080,1000.0
2025-09-16T15:47:13.579643,5.840,1.770,139.100,-60.5,0.400,-0.400,181.080,1000.0
2025-09-16T15:47:13.606641,5.850,1.780,139.100,-60.5,0.400,-0.400,181.080,1000.0
2025-09-16T15:47:13.636624,5.850,1.780,139.100,-60.5,0.400,-0.400,181.080,1000.0
2025-09-16T15:47:13.638632,5.850,1.780,139.100,-60.5,0.400,-0.400,181.080,1000.0
2025-09-16T15:47:13.666599,5.860,1.780,139.100,-60.5,0.400,-0.400,181.080,1000.0
2025-09-16T15:47:13.668604,5.860,1.780,139.100,-60.5,0.400,-0.400,181.080,1000.0
2025-09-16T15:47:13.697653,5.860,1.790,139.100,-60.5,0.400,-0.400,181.080,1000.0
2025-09-16T15:47:13.713313,5.860,1.790,139.100,-60.5,0.400,-0.400,181.080,1000.0
2025-09-16T15:47:13.728779,5.870,1.790,139.100,-60.5,0.400,-0.400,181.080,1000.0
2025-09-16T15:47:13.789564,5.870,1.790,139.100,-60.5,0.400,-0.400,181.080,1000.0
2025-09-16T15:47:13.794563,5.880,1.800,139.100,-60.5,0.400,-0.400,181.080,1000.0
2025-09-16T15:47:13.795564,5.880,1.800,139.100,-60.5,0.400,-0.400,181.080,1000.0
2025-09-16T15:47:13.819226,5.880,1.800,139.100,-60.4,0.400,-0.400,181.080,1000.0
2025-09-16T15:47:13.849119,5.870,1.800,139.100,-60.4,0.400,-0.400,181.080,1000.0
2025-09-16T15:47:13.879668,5.870,1.810,139.100,-60.4,0.400,-0.400,181.080,1000.0
2025-09-16T15:47:13.884668,5.870,1.810,139.100,-60.4,0.400,-0.400,181.080,1000.0
2025-09-16T15:47:13.909898,5.870,1.810,139.100,-60.4,0.400,-0.400,181.080,1000.0
2025-09-16T15:47:13.911145,5.870,1.800,139.100,-60.4,0.400,-0.400,181.080,1000.0
2025-09-16T15:47:13.940773,5.870,1.800,139.100,-60.4,0.400,-0.400,181.080,1000.0
2025-09-16T15:47:13.970924,5.870,1.800,139.100,-60.4,0.400,-0.400,181.080,1000.0
2025-09-16T15:47:13.973925,5.870,1.800,139.100,-60.4,0.400,-0.400,181.080,1000.0
2025-09-16T15:47:14.001050,5.870,1.800,139.100,-60.4,0.400,-0.400,181.080,1000.0
2025-09-16T15:47:14.002049,5.870,1.800,139.100,-60.4,0.400,-0.400,181.080,1000.0
2025-09-16T15:47:14.031766,5.870,1.790,139.100,-60.4,0.400,-0.400,181.080,1000.0
2025-09-16T15:47:14.077316,5.870,1.790,139.100,-60.4,0.400,-0.400,181.080,1000.0
2025-09-16T15:47:14.094515,5.870,1.790,139.100,-60.4,0.400,-0.400,181.080,1000.0
2025-09-16T15:47:14.121593,5.880,1.790,139.100,-60.4,0.400,-0.400,181.080,1000.0
2025-09-16T15:47:14.123584,5.880,1.790,139.100,-60.4,0.400,-0.400,181.080,1000.0
2025-09-16T15:47:14.136585,5.880,1.790,139.100,-60.4,0.400,-0.400,181.080,1000.0
2025-09-16T15:47:14.181985,5.880,1.790,139.100,-60.4,0.400,-0.400,181.080,1000.0
2025-09-16T15:47:14.185964,5.890,1.790,139.100,-60.4,0.400,-0.400,181.080,1000.0
2025-09-16T15:47:14.212936,5.890,1.790,139.100,-60.4,0.400,-0.400,181.080,1000.0
2025-09-16T15:47:14.214936,5.890,1.790,139.100,-60.4,0.400,-0.400,181.080,1000.0
2025-09-16T15:47:14.242931,5.890,1.790,139.100,-60.4,0.400,-0.400,181.080,1000.0
2025-09-16T15:47:14.243932,5.890,1.790,139.100,-60.4,0.400,-0.400,181.080,1000.0
2025-09-16T15:47:14.272370,5.890,1.790,139.100,-60.5,0.400,-0.400,181.080,1000.0
2025-09-16T15:47:14.317987,5.890,1.790,139.100,-60.5,0.400,-0.400,181.080,1000.0
2025-09-16T15:47:14.318992,5.890,1.790,139.100,-60.5,0.400,-0.400,181.080,1000.0
2025-09-16T15:47:14.348030,5.890,1.790,139.100,-60.5,0.400,-0.400,181.080,1000.0
2025-09-16T15:47:14.377931,5.890,1.800,139.100,-60.5,0.400,-0.400,181.080,1000.0
2025-09-16T15:47:14.392050,5.890,1.800,139.100,-60.5,0.400,-0.400,181.080,1000.0
2025-09-16T15:47:14.408099,5.890,1.800,139.100,-60.5,0.400,-0.400,181.080,1000.0
2025-09-16T15:47:14.409098,5.890,1.800,139.100,-60.5,0.400,-0.400,181.080,1000.0
2025-09-16T15:47:14.438201,5.890,1.810,139.100,-60.5,0.400,-0.400,181.080,1000.0
2025-09-16T15:47:14.483475,5.890,1.810,139.100,-60.5,0.400,-0.400,181.080,1000.0
2025-09-16T15:47:14.487476,5.890,1.810,139.100,-60.4,0.400,-0.400,181.080,1000.0
2025-09-16T15:47:14.513305,5.890,1.810,139.100,-60.4,0.400,-0.400,181.080,1000.0
2025-09-16T15:47:14.515308,5.890,1.810,139.100,-60.4,0.400,-0.400,181.080,1000.0
2025-09-16T15:47:14.558564,5.900,1.810,139.100,-60.4,0.400,-0.400,181.080,1000.0
2025-09-16T15:47:14.559562,5.900,1.810,139.100,-60.4,0.400,-0.400,181.080,1000.0
2025-09-16T15:47:14.588545,5.900,1.810,139.100,-60.4,0.400,-0.400,181.080,1000.0
2025-09-16T15:47:14.618270,5.900,1.810,139.100,-60.4,0.400,-0.400,181.080,1000.0
2025-09-16T15:47:14.619269,5.900,1.810,139.100,-60.4,0.400,-0.400,181.080,1000.0
2025-09-16T15:47:14.649007,5.900,1.810,139.100,-60.4,0.400,-0.400,181.080,1000.0
2025-09-16T15:47:14.650007,5.900,1.810,139.100,-60.4,0.400,-0.400,181.080,1000.0
2025-09-16T15:47:14.679573,5.900,1.810,139.100,-60.4,0.400,-0.400,181.080,1000.0
2025-09-16T15:47:14.709771,5.900,1.820,139.100,-60.4,0.400,-0.400,181.080,1000.0
2025-09-16T15:47:14.710769,5.900,1.820,139.100,-60.4,0.400,-0.400,181.080,1000.0
2025-09-16T15:47:14.740339,5.900,1.820,139.100,-60.4,0.400,-0.400,181.080,1000.0
2025-09-16T15:47:14.741339,5.900,1.820,139.100,-60.4,0.400,-0.400,181.080,1000.0
2025-09-16T15:47:14.770715,5.900,1.820,139.100,-60.5,0.400,-0.400,181.080,1000.0
2025-09-16T15:47:14.800764,5.900,1.810,139.100,-60.5,0.400,-0.400,181.080,1000.0
2025-09-16T15:47:14.816248,5.900,1.810,139.100,-60.5,0.400,-0.400,181.080,1000.0
2025-09-16T15:47:14.861725,5.900,1.810,139.100,-60.4,0.400,-0.400,181.080,1000.0
2025-09-16T15:47:14.862725,5.900,1.810,139.100,-60.4,0.400,-0.400,181.080,1000.0
2025-09-16T15:47:14.891555,5.900,1.810,139.100,-60.4,0.400,-0.400,181.080,1000.0
2025-09-16T15:47:14.921998,5.900,1.810,139.100,-60.4,0.400,-0.400,181.080,1000.0
2025-09-16T15:47:14.923998,5.900,1.810,139.100,-60.5,0.400,-0.400,181.080,1000.0
2025-09-16T15:47:14.953190,5.900,1.810,139.100,-60.5,0.400,-0.400,181.080,1000.0
2025-09-16T15:47:14.954179,5.900,1.810,139.100,-60.5,0.400,-0.400,181.080,1000.0
2025-09-16T15:47:14.983262,5.900,1.810,139.100,-60.5,0.400,-0.400,181.080,1000.0
2025-09-16T15:47:15.013234,5.900,1.810,139.100,-60.5,0.400,-0.400,181.080,1000.0
2025-09-16T15:47:15.015236,5.900,1.810,139.100,-60.5,0.400,-0.400,181.080,1000.0
2025-09-16T15:47:15.042970,5.900,1.810,139.100,-60.5,0.400,-0.400,181.080,1000.0
2025-09-16T15:47:15.043963,5.900,1.820,139.100,-60.5,0.400,-0.400,181.080,1000.0
2025-09-16T15:47:15.072912,5.900,1.820,139.100,-60.5,0.400,-0.400,181.080,1000.0
2025-09-16T15:47:15.118239,5.900,1.820,139.100,-60.4,0.400,-0.400,181.080,1000.0
2025-09-16T15:47:15.119239,5.900,1.820,139.100,-60.4,0.400,-0.400,181.080,1000.0
2025-09-16T15:47:15.148571,5.900,1.820,139.100,-60.4,0.400,-0.400,181.080,1000.0
2025-09-16T15:47:15.163975,5.900,1.820,139.100,-60.4,0.400,-0.400,181.080,1000.0
2025-09-16T15:47:15.194714,5.900,1.820,139.100,-60.4,0.400,-0.400,181.080,1000.0
2025-09-16T15:47:15.224787,5.900,1.820,139.100,-60.4,0.400,-0.400,181.080,1000.0
2025-09-16T15:47:15.225786,5.900,1.820,139.100,-60.4,0.400,-0.400,181.080,1000.0
2025-09-16T15:47:15.255081,5.900,1.820,139.100,-60.4,0.400,-0.400,181.080,1000.0
2025-09-16T15:47:15.256081,5.900,1.820,139.100,-60.4,0.400,-0.400,181.080,1000.0
2025-09-16T15:47:15.285674,5.900,1.820,139.100,-60.4,0.400,-0.400,181.080,1000.0
2025-09-16T15:47:15.315833,5.900,1.820,139.100,-60.4,0.400,-0.400,181.080,1000.0
2025-09-16T15:47:15.316831,5.900,1.820,139.100,-60.4,0.400,-0.400,181.080,1000.0
2025-09-16T15:47:15.346357,5.900,1.820,139.100,-60.4,0.400,-0.400,181.080,1000.0
2025-09-16T15:47:15.347360,5.900,1.820,139.100,-60.4,0.400,-0.400,181.080,1000.0
2025-09-16T15:47:15.377293,5.900,1.820,139.100,-60.4,0.400,-0.400,181.080,1000.0
2025-09-16T15:47:15.422463,5.900,1.820,139.100,-60.4,0.400,-0.400,181.080,1000.0
2025-09-16T15:47:15.423465,5.900,1.820,139.100,-60.4,0.400,-0.400,181.080,1000.0
2025-09-16T15:47:15.452287,5.900,1.820,139.100,-60.4,0.400,-0.400,181.080,1000.0
2025-09-16T15:47:15.466341,5.900,1.820,139.100,-60.4,0.400,-0.400,181.080,1000.0
2025-09-16T15:47:15.482342,5.900,1.820,139.100,-60.4,0.400,-0.400,181.080,1000.0
2025-09-16T15:47:15.527394,5.900,1.820,139.100,-60.4,0.400,-0.400,181.080,1000.0
2025-09-16T15:47:15.528342,5.900,1.820,139.100,-60.4,0.400,-0.400,181.080,1000.0
2025-09-16T15:47:15.557621,5.900,1.820,139.100,-60.4,0.400,-0.400,181.080,1000.0
2025-09-16T15:47:15.558621,5.900,1.820,139.100,-60.4,0.400,-0.400,181.080,1000.0
2025-09-16T15:47:15.587612,5.900,1.820,139.090,-60.4,0.400,-0.400,181.080,1000.0
2025-09-16T15:47:15.589613,5.900,1.820,139.090,-60.4,0.400,-0.400,181.080,1000.0
2025-09-16T15:47:15.616623,5.900,1.820,139.090,-60.4,0.400,-0.400,181.080,1000.0
2025-09-16T15:47:15.648142,5.900,1.820,139.090,-60.4,0.400,-0.400,181.080,1000.0
2025-09-16T15:47:15.650142,5.890,1.820,139.090,-60.4,0.400,-0.400,181.080,1000.0
2025-09-16T15:47:15.693355,5.890,1.820,139.090,-60.4,0.400,-0.400,181.080,1000.0
2025-09-16T15:47:15.695354,5.890,1.820,139.090,-60.4,0.400,-0.400,181.080,1000.0
2025-09-16T15:47:15.724018,5.890,1.820,139.090,-60.4,0.400,-0.400,181.080,1000.0
2025-09-16T15:47:15.754070,5.890,1.810,139.080,-60.4,0.400,-0.400,181.080,1000.0
2025-09-16T15:47:15.755070,5.890,1.810,139.090,-60.4,0.400,-0.400,181.080,1000.0
2025-09-16T15:47:15.784176,5.890,1.810,139.080,-60.4,0.400,-0.400,181.080,1000.0
2025-09-16T15:47:15.799179,5.890,1.810,139.080,-60.4,0.400,-0.400,181.080,1000.0
2025-09-16T15:47:15.814120,5.880,1.800,139.080,-60.4,0.400,-0.400,181.080,1000.0
2025-09-16T15:47:15.859385,5.890,1.800,139.080,-60.4,0.400,-0.400,181.080,1000.0
2025-09-16T15:47:15.861384,5.890,1.800,139.080,-60.4,0.400,-0.400,181.080,1000.0
2025-09-16T15:47:15.889149,5.890,1.800,139.080,-60.4,0.400,-0.400,181.080,1000.0
2025-09-16T15:47:15.891159,5.890,1.800,139.080,-60.4,0.400,-0.400,181.080,1000.0
2025-09-16T15:47:15.934745,5.890,1.800,139.080,-60.4,0.400,-0.400,181.080,1000.0
2025-09-16T15:47:15.965265,5.880,1.800,139.080,-60.4,0.400,-0.400,181.080,1000.0
2025-09-16T15:47:15.967229,5.880,1.810,139.080,-60.4,0.400,-0.400,181.080,1000.0
2025-09-16T15:47:15.995406,5.880,1.810,139.080,-60.4,0.400,-0.400,181.080,1000.0
2025-09-16T15:47:15.998419,5.880,1.810,139.080,-60.4,0.400,-0.400,181.080,1000.0
2025-09-16T15:47:16.026526,5.870,1.810,139.090,-60.4,0.400,-0.400,181.080,1000.0
2025-09-16T15:47:16.056451,5.870,1.810,139.090,-60.4,0.400,-0.400,181.080,1000.0
2025-09-16T15:47:16.057442,5.880,1.810,139.090,-60.4,0.400,-0.400,181.080,1000.0
2025-09-16T15:47:16.086505,5.870,1.810,139.090,-60.4,0.400,-0.400,181.080,1000.0
2025-09-16T15:47:16.088505,5.870,1.800,139.090,-60.4,0.400,-0.400,181.080,1000.0
2025-09-16T15:47:16.116504,5.870,1.800,139.090,-60.4,0.400,-0.400,181.080,1000.0
2025-09-16T15:47:16.146584,5.870,1.800,139.090,-60.4,0.400,-0.400,181.080,1000.0
2025-09-16T15:47:16.161761,5.860,1.800,139.090,-60.4,0.400,-0.400,181.080,1000.0
2025-09-16T15:47:16.207402,5.870,1.800,139.090,-60.4,0.400,-0.400,181.080,1000.0
2025-09-16T15:47:16.209404,5.870,1.800,139.090,-60.4,0.400,-0.400,181.080,1000.0
2025-09-16T15:47:16.236616,5.870,1.800,139.090,-60.4,0.400,-0.400,181.080,1000.0
2025-09-16T15:47:16.267663,5.860,1.800,139.090,-60.4,0.400,-0.400,181.080,1000.0
2025-09-16T15:47:16.268664,5.860,1.800,139.090,-60.4,0.400,-0.400,181.080,1000.0
2025-09-16T15:47:16.297913,5.860,1.800,139.090,-60.4,0.400,-0.400,181.080,1000.0
2025-09-16T15:47:16.299914,5.860,1.790,139.090,-60.4,0.400,-0.400,181.080,1000.0
2025-09-16T15:47:16.328624,5.850,1.790,139.100,-60.4,0.400,-0.400,181.080,1000.0
2025-09-16T15:47:16.358669,5.860,1.790,139.100,-60.4,0.400,-0.400,181.080,1000.0
2025-09-16T15:47:16.360682,5.850,1.780,139.100,-60.4,0.400,-0.400,181.080,1000.0
2025-09-16T15:47:16.389423,5.850,1.780,139.100,-60.4,0.400,-0.400,181.080,1000.0
2025-09-16T15:47:16.391424,5.860,1.790,139.100,-60.4,0.400,-0.400,181.080,1000.0
2025-09-16T15:47:16.419107,5.850,1.790,139.100,-60.4,0.400,-0.400,181.080,1000.0
2025-09-16T15:47:16.449390,5.840,1.800,139.100,-60.4,0.400,-0.400,181.080,1000.0
2025-09-16T15:47:16.450389,5.840,1.790,139.100,-60.4,0.400,-0.400,181.080,1000.0
2025-09-16T15:47:16.480543,5.840,1.790,139.100,-60.4,0.400,-0.400,181.080,1000.0
2025-09-16T15:47:16.482546,5.840,1.790,139.090,-60.4,0.400,-0.400,181.080,1000.0
2025-09-16T15:47:16.524543,5.840,1.790,139.090,-60.4,0.400,-0.400,181.080,1000.0
2025-09-16T15:47:16.539920,5.830,1.790,139.090,-60.4,0.400,-0.400,181.080,1000.0
2025-09-16T15:47:16.571257,5.830,1.790,139.090,-60.4,0.400,-0.400,181.080,1000.0
2025-09-16T15:47:16.601210,5.830,1.790,139.090,-60.4,0.400,-0.400,181.080,1000.0
2025-09-16T15:47:16.602207,5.830,1.790,139.090,-60.4,0.400,-0.400,181.080,1000.0
2025-09-16T15:47:16.631156,5.830,1.790,139.090,-60.4,0.400,-0.400,181.080,1000.0
2025-09-16T15:47:16.633154,5.820,1.790,139.090,-60.4,0.400,-0.400,181.080,1000.0
2025-09-16T15:47:16.660247,5.820,1.790,139.090,-60.4,0.400,-0.400,181.080,1000.0
2025-09-16T15:47:16.691207,5.820,1.790,139.090,-60.4,0.400,-0.400,181.080,1000.0
2025-09-16T15:47:16.693217,5.820,1.790,139.090,-60.5,0.400,-0.400,181.080,1000.0
2025-09-16T15:47:16.721206,5.820,1.780,139.090,-60.4,0.400,-0.400,181.080,1000.0
2025-09-16T15:47:16.722207,5.820,1.780,139.090,-60.4,0.400,-0.400,181.080,1000.0
2025-09-16T15:47:16.766074,5.820,1.780,139.090,-60.4,0.400,-0.400,181.080,1000.0
2025-09-16T15:47:16.795164,5.820,1.780,139.090,-60.4,0.400,-0.400,181.080,1000.0
2025-09-16T15:47:16.797175,5.820,1.780,139.090,-60.4,0.400,-0.400,181.080,1000.0
2025-09-16T15:47:16.825135,5.820,1.780,139.090,-60.4,0.400,-0.400,181.080,1000.0
2025-09-16T15:47:16.827129,5.820,1.780,139.090,-60.4,0.400,-0.400,181.080,1000.0
2025-09-16T15:47:16.870656,5.820,1.780,139.090,-60.4,0.400,-0.400,181.080,1000.0
2025-09-16T15:47:16.900842,5.820,1.780,139.090,-60.4,0.400,-0.400,181.080,1000.0
2025-09-16T15:47:16.902840,5.820,1.780,139.090,-60.4,0.400,-0.400,181.080,1000.0
2025-09-16T15:47:16.931843,5.820,1.780,139.090,-60.4,0.400,-0.400,181.080,1000.0
2025-09-16T15:47:16.933839,5.820,1.780,139.090,-60.4,0.400,-0.400,181.080,1000.0
2025-09-16T15:47:16.961888,5.820,1.780,139.090,-60.4,0.400,-0.400,181.080,1000.0
2025-09-16T15:47:16.992668,5.820,1.780,139.090,-60.4,0.400,-0.400,181.080,1000.0
2025-09-16T15:47:16.993662,5.820,1.780,139.090,-60.4,0.400,-0.400,181.080,1000.0
2025-09-16T15:47:17.037881,5.810,1.780,139.090,-60.4,0.400,-0.400,181.080,1000.0
2025-09-16T15:47:17.038386,5.810,1.780,139.090,-60.4,0.400,-0.400,181.080,1000.0
2025-09-16T15:47:17.068331,5.810,1.780,139.090,-60.4,0.400,-0.400,181.080,1000.0
2025-09-16T15:47:17.098760,5.810,1.790,139.090,-60.4,0.400,-0.400,181.080,1000.0
2025-09-16T15:47:17.100757,5.820,1.780,139.090,-60.4,0.400,-0.400,181.080,1000.0
2025-09-16T15:47:17.129535,5.820,1.790,139.090,-60.4,0.400,-0.400,181.080,1000.0
2025-09-16T15:47:17.131520,5.820,1.790,139.090,-60.4,0.400,-0.400,181.080,1000.0
2025-09-16T15:47:17.159520,5.820,1.800,139.090,-60.4,0.400,-0.400,181.080,1000.0
2025-09-16T15:47:17.189749,5.830,1.790,139.090,-60.4,0.400,-0.400,181.080,1000.0
2025-09-16T15:47:17.203989,5.830,1.800,139.090,-60.4,0.400,-0.400,181.080,1000.0
2025-09-16T15:47:17.235785,5.830,1.800,139.090,-60.4,0.400,-0.400,181.080,1000.0
2025-09-16T15:47:17.236783,5.830,1.810,139.090,-60.4,0.400,-0.400,181.080,1000.0
2025-09-16T15:47:17.265981,5.830,1.810,139.090,-60.4,0.400,-0.400,181.080,1000.0
2025-09-16T15:47:17.269010,5.840,1.810,139.090,-60.4,0.400,-0.400,181.080,1000.0
2025-09-16T15:47:17.295295,5.840,1.820,139.090,-60.4,0.400,-0.400,181.080,1000.0
2025-09-16T15:47:17.341104,5.840,1.820,139.090,-60.4,0.400,-0.400,181.080,1000.0
2025-09-16T15:47:17.342105,5.840,1.830,139.100,-60.4,0.400,-0.400,181.080,1000.0
2025-09-16T15:47:17.371636,5.840,1.830,139.100,-60.4,0.400,-0.400,181.080,1000.0
2025-09-16T15:47:17.402190,5.850,1.830,139.100,-60.4,0.400,-0.400,181.080,1000.0
2025-09-16T15:47:17.403187,5.850,1.830,139.100,-60.4,0.400,-0.400,181.080,1000.0
2025-09-16T15:47:17.432154,5.850,1.830,139.100,-60.4,0.400,-0.400,181.080,1000.0
2025-09-16T15:47:17.434395,5.850,1.830,139.100,-60.4,0.400,-0.400,181.080,1000.0
2025-09-16T15:47:17.463299,5.850,1.830,139.100,-60.4,0.400,-0.400,181.080,1000.0
2025-09-16T15:47:17.467397,5.850,1.820,139.090,-60.4,0.400,-0.400,181.080,1000.0
2025-09-16T15:47:17.493998,5.850,1.820,139.090,-60.4,0.400,-0.400,181.080,1000.0
2025-09-16T15:47:17.524007,5.850,1.820,139.090,-60.4,0.400,-0.400,181.080,1000.0
2025-09-16T15:47:17.538998,5.850,1.820,139.090,-60.4,0.400,-0.400,181.080,1000.0
2025-09-16T15:47:17.553999,5.850,1.810,139.090,-60.4,0.400,-0.400,181.080,1000.0
2025-09-16T15:47:17.570998,5.850,1.810,139.090,-60.4,0.400,-0.400,181.080,1000.0
2025-09-16T15:47:17.614010,5.850,1.810,139.090,-60.4,0.400,-0.400,181.080,1000.0
2025-09-16T15:47:17.643999,5.850,1.800,139.090,-60.4,0.400,-0.400,181.080,1000.0
2025-09-16T15:47:17.644996,5.850,1.800,139.090,-60.4,0.400,-0.400,181.080,1000.0
2025-09-16T15:47:17.673998,5.850,1.800,139.090,-60.4,0.400,-0.400,181.080,1000.0
2025-09-16T15:47:17.676998,5.850,1.800,139.090,-60.4,0.400,-0.400,181.080,1000.0
2025-09-16T15:47:17.703999,5.850,1.800,139.090,-60.4,0.400,-0.400,181.080,1000.0
2025-09-16T15:47:17.733999,5.850,1.800,139.090,-60.4,0.400,-0.400,181.080,1000.0
2025-09-16T15:47:17.735997,5.850,1.800,139.090,-60.4,0.400,-0.400,181.080,1000.0
2025-09-16T15:47:17.763997,5.850,1.800,139.090,-60.4,0.400,-0.400,181.080,1000.0
2025-09-16T15:47:17.767000,5.850,1.800,139.090,-60.4,0.400,-0.400,181.080,1000.0
2025-09-16T15:47:17.793999,5.850,1.800,139.090,-60.4,0.400,-0.400,181.080,1000.0
2025-09-16T15:47:17.838998,5.850,1.800,139.090,-60.4,0.400,-0.400,181.080,1000.0
2025-09-16T15:47:17.839997,5.850,1.800,139.090,-60.4,0.400,-0.400,181.080,1000.0
2025-09-16T15:47:17.868997,5.850,1.800,139.090,-60.4,0.400,-0.400,181.080,1000.0
2025-09-16T15:47:17.887998,5.850,1.800,139.090,-60.4,0.400,-0.400,181.080,1000.0
2025-09-16T15:47:17.890006,5.850,1.790,139.090,-60.4,0.400,-0.400,181.080,1000.0
2025-09-16T15:47:17.945384,5.850,1.790,139.090,-60.4,0.400,-0.400,181.080,1000.0
2025-09-16T15:47:17.947384,5.850,1.790,139.090,-60.4,0.400,-0.400,181.080,1000.0
2025-09-16T15:47:17.975996,5.850,1.790,139.090,-60.4,0.400,-0.400,181.080,1000.0
2025-09-16T15:47:17.978995,5.860,1.790,139.090,-60.4,0.400,-0.400,181.080,1000.0
2025-09-16T15:47:18.006000,5.860,1.790,139.090,-60.4,0.400,-0.400,181.080,1000.0
2025-09-16T15:47:18.036171,5.860,1.790,139.090,-60.4,0.400,-0.400,181.080,1000.0
2025-09-16T15:47:18.037171,5.850,1.780,139.090,-60.4,0.400,-0.400,181.080,1000.0
2025-09-16T15:47:18.066421,5.850,1.780,139.090,-60.4,0.400,-0.400,181.080,1000.0
2025-09-16T15:47:18.069418,5.850,1.780,139.090,-60.4,0.400,-0.400,181.080,1000.0
2025-09-16T15:47:18.096187,5.850,1.780,139.090,-60.4,0.400,-0.400,181.080,1000.0
2025-09-16T15:47:18.141412,5.850,1.780,139.090,-60.4,0.400,-0.400,181.080,1000.0
2025-09-16T15:47:18.142410,5.850,1.780,139.090,-60.4,0.400,-0.400,181.080,1000.0
2025-09-16T15:47:18.171449,5.850,1.780,139.090,-60.4,0.400,-0.400,181.080,1000.0
2025-09-16T15:47:18.186732,5.850,1.780,139.090,-60.4,0.400,-0.400,181.080,1000.0
2025-09-16T15:47:18.201407,5.850,1.780,139.090,-60.4,0.400,-0.400,181.080,1000.0
2025-09-16T15:47:18.232110,5.850,1.780,139.090,-60.4,0.400,-0.400,181.080,1000.0
2025-09-16T15:47:18.247724,5.850,1.780,139.090,-60.4,0.400,-0.400,181.080,1000.0
2025-09-16T15:47:18.278874,5.850,1.780,139.090,-60.4,0.400,-0.400,181.080,1000.0
2025-09-16T15:47:18.280874,5.850,1.780,139.090,-60.4,0.400,-0.400,181.080,1000.0
2025-09-16T15:47:18.309428,5.850,1.780,139.090,-60.4,0.400,-0.400,181.080,1000.0
2025-09-16T15:47:18.339672,5.850,1.780,139.090,-60.4,0.400,-0.400,181.080,1000.0
2025-09-16T15:47:18.340672,5.850,1.780,139.090,-60.4,0.400,-0.400,181.080,1000.0
2025-09-16T15:47:18.370277,5.850,1.780,139.090,-60.4,0.400,-0.400,181.080,1000.0
2025-09-16T15:47:18.372277,5.850,1.780,139.090,-60.4,0.400,-0.400,181.080,1000.0
2025-09-16T15:47:18.400522,5.850,1.780,139.090,-60.4,0.400,-0.400,181.080,1000.0
2025-09-16T15:47:18.401523,5.850,1.780,139.090,-60.4,0.400,-0.400,181.080,1000.0
2025-09-16T15:47:18.445762,5.850,1.780,139.090,-60.4,0.400,-0.400,181.080,1000.0
2025-09-16T15:47:18.475944,5.850,1.780,139.090,-60.4,0.400,-0.400,181.080,1000.0
2025-09-16T15:47:18.478943,5.850,1.780,139.090,-60.4,0.400,-0.400,181.080,1000.0
2025-09-16T15:47:18.504893,5.850,1.780,139.090,-60.4,0.400,-0.400,181.080,1000.0
2025-09-16T15:47:18.506895,5.850,1.780,139.090,-60.4,0.400,-0.400,181.080,1000.0
2025-09-16T15:47:18.535882,5.850,1.780,139.090,-60.4,0.400,-0.400,181.080,1000.0
2025-09-16T15:47:18.565882,5.850,1.780,139.090,-60.4,0.400,-0.400,181.080,1000.0
2025-09-16T15:47:18.582887,5.850,1.780,139.090,-60.4,0.400,-0.400,181.080,1000.0
2025-09-16T15:47:18.610890,5.850,1.780,139.090,-60.4,0.400,-0.400,181.080,1000.0
2025-09-16T15:47:18.611879,5.850,1.780,139.090,-60.4,0.400,-0.400,181.080,1000.0
2025-09-16T15:47:18.640880,5.850,1.780,139.090,-60.4,0.400,-0.400,181.080,1000.0
2025-09-16T15:47:18.685880,5.840,1.780,139.090,-60.4,0.400,-0.400,181.080,1000.0
2025-09-16T15:47:18.690882,5.840,1.780,139.090,-60.4,0.400,-0.400,181.080,1000.0
2025-09-16T15:47:18.715688,5.840,1.780,139.090,-60.4,0.400,-0.400,181.080,1000.0
2025-09-16T15:47:18.717689,5.830,1.780,139.090,-60.4,0.400,-0.400,181.080,1000.0
2025-09-16T15:47:18.745765,5.830,1.780,139.090,-60.4,0.400,-0.400,181.080,1000.0
2025-09-16T15:47:18.775875,5.830,1.780,139.090,-60.4,0.400,-0.400,181.080,1000.0
2025-09-16T15:47:18.779872,5.830,1.780,139.090,-60.4,0.400,-0.400,181.080,1000.0
2025-09-16T15:47:18.805862,5.830,1.780,139.090,-60.4,0.400,-0.400,181.080,1000.0
2025-09-16T15:47:18.806862,5.820,1.780,139.090,-60.4,0.400,-0.400,181.080,1000.0
2025-09-16T15:47:18.835925,5.820,1.780,139.090,-60.4,0.400,-0.400,181.080,1000.0
2025-09-16T15:47:18.866452,5.820,1.780,139.090,-60.4,0.400,-0.400,181.080,1000.0
2025-09-16T15:47:18.884899,5.820,1.780,139.090,-60.4,0.400,-0.400,181.080,1000.0
2025-09-16T15:47:18.896886,5.820,1.780,139.090,-60.3,0.400,-0.400,181.080,1000.0
2025-09-16T15:47:18.926705,5.820,1.780,139.090,-60.3,0.400,-0.400,181.080,1000.0
2025-09-16T15:47:18.957098,5.820,1.780,139.090,-60.3,0.400,-0.400,181.080,1000.0
2025-09-16T15:47:18.987371,5.820,1.780,139.090,-60.3,0.400,-0.400,181.080,1000.0
2025-09-16T15:47:18.992371,5.820,1.780,139.090,-60.3,0.400,-0.400,181.080,1000.0
2025-09-16T15:47:19.017665,5.820,1.780,139.090,-60.3,0.400,-0.400,181.080,1000.0
2025-09-16T15:47:19.019671,5.820,1.780,139.090,-60.3,0.400,-0.400,181.080,1000.0
2025-09-16T15:47:19.047684,5.820,1.780,139.090,-60.3,0.400,-0.400,181.080,1000.0
2025-09-16T15:47:19.078282,5.820,1.780,139.090,-60.3,0.400,-0.400,181.080,1000.0
2025-09-16T15:47:19.081281,5.830,1.790,139.090,-60.3,0.400,-0.400,181.080,1000.0
2025-09-16T15:47:19.109265,5.830,1.790,139.090,-60.4,0.400,-0.400,181.080,1000.0
2025-09-16T15:47:19.110267,5.840,1.790,139.090,-60.4,0.400,-0.400,181.080,1000.0
2025-09-16T15:47:19.139609,5.840,1.800,139.090,-60.4,0.400,-0.400,181.080,1000.0
2025-09-16T15:47:19.169894,5.840,1.800,139.090,-60.4,0.400,-0.400,181.080,1000.0
2025-09-16T15:47:19.172892,5.840,1.800,139.090,-60.4,0.400,-0.400,181.080,1000.0
2025-09-16T15:47:19.215004,5.840,1.800,139.090,-60.4,0.400,-0.400,181.080,1000.0
2025-09-16T15:47:19.217004,5.850,1.810,139.090,-60.4,0.400,-0.400,181.080,1000.0
2025-09-16T15:47:19.245528,5.850,1.810,139.090,-60.4,0.400,-0.400,181.080,1000.0
2025-09-16T15:47:19.290886,5.850,1.820,139.090,-60.4,0.400,-0.400,181.080,1000.0
2025-09-16T15:47:19.294887,5.850,1.820,139.090,-60.4,0.400,-0.400,181.080,1000.0
2025-09-16T15:47:19.321144,5.850,1.820,139.100,-60.4,0.400,-0.400,181.080,1000.0
2025-09-16T15:47:19.322143,5.850,1.820,139.100,-60.4,0.400,-0.400,181.080,1000.0
2025-09-16T15:47:19.351308,5.850,1.820,139.100,-60.4,0.400,-0.400,181.080,1000.0
2025-09-16T15:47:19.353298,5.850,1.820,139.100,-60.4,0.400,-0.400,181.080,1000.0
2025-09-16T15:47:19.381957,5.850,1.820,139.100,-60.4,0.400,-0.400,181.080,1000.0
2025-09-16T15:47:19.411908,5.850,1.820,139.100,-60.4,0.400,-0.400,181.080,1000.0
2025-09-16T15:47:19.412918,5.850,1.820,139.100,-60.4,0.400,-0.400,181.080,1000.0
2025-09-16T15:47:19.442551,5.850,1.820,139.100,-60.4,0.400,-0.400,181.080,1000.0
2025-09-16T15:47:19.443551,5.850,1.820,139.100,-60.4,0.400,-0.400,181.080,1000.0
2025-09-16T15:47:19.472561,5.850,1.830,139.100,-60.4,0.400,-0.400,181.080,1000.0
2025-09-16T15:47:19.518107,5.850,1.820,139.100,-60.4,0.400,-0.400,181.080,1000.0
2025-09-16T15:47:19.520107,5.860,1.830,139.100,-60.4,0.400,-0.400,181.080,1000.0
2025-09-16T15:47:19.548434,5.850,1.830,139.100,-60.4,0.400,-0.400,181.080,1000.0
2025-09-16T15:47:19.551431,5.850,1.830,139.100,-60.4,0.400,-0.400,181.080,1000.0
2025-09-16T15:47:19.578287,5.850,1.830,139.100,-60.4,0.400,-0.400,181.080,1000.0
2025-09-16T15:47:19.622294,5.850,1.830,139.100,-60.4,0.400,-0.400,181.080,1000.0
2025-09-16T15:47:19.624287,5.850,1.830,139.100,-60.4,0.400,-0.400,181.080,1000.0
2025-09-16T15:47:19.638287,5.850,1.830,139.100,-60.4,0.400,-0.400,181.080,1000.0
2025-09-16T15:47:19.653696,5.850,1.830,139.100,-60.4,0.400,-0.400,181.080,1000.0
2025-09-16T15:47:19.683699,5.860,1.830,139.100,-60.3,0.400,-0.400,181.080,1000.0
2025-09-16T15:47:19.713696,5.850,1.830,139.100,-60.3,0.400,-0.400,181.080,1000.0
2025-09-16T15:47:19.714696,5.850,1.820,139.090,-60.3,0.400,-0.400,181.080,1000.0
2025-09-16T15:47:19.758710,5.850,1.830,139.100,-60.3,0.400,-0.400,181.080,1000.0
2025-09-16T15:47:19.760695,5.850,1.820,139.090,-60.3,0.400,-0.400,181.080,1000.0
2025-09-16T15:47:19.788694,5.850,1.820,139.090,-60.4,0.400,-0.400,181.080,1000.0
2025-09-16T15:47:19.818696,5.850,1.820,139.090,-60.4,0.400,-0.400,181.080,1000.0
2025-09-16T15:47:19.819695,5.850,1.820,139.090,-60.4,0.400,-0.400,181.080,1000.0
2025-09-16T15:47:19.848696,5.850,1.830,139.090,-60.4,0.400,-0.400,181.080,1000.0
2025-09-16T15:47:19.850704,5.850,1.830,139.090,-60.4,0.400,-0.400,181.080,1000.0
2025-09-16T15:47:19.878694,5.850,1.830,139.090,-60.4,0.400,-0.400,181.080,1000.0
2025-09-16T15:47:19.893695,5.850,1.830,139.090,-60.4,0.400,-0.400,181.080,1000.0
2025-09-16T15:47:19.908695,5.860,1.830,139.090,-60.4,0.400,-0.400,181.080,1000.0
2025-09-16T15:47:19.952695,5.850,1.820,139.090,-60.4,0.400,-0.400,181.080,1000.0
2025-09-16T15:47:19.954695,5.850,1.830,139.090,-60.4,0.400,-0.400,181.080,1000.0
2025-09-16T15:47:19.968696,5.850,1.820,139.090,-60.4,0.400,-0.400,181.080,1000.0
2025-09-16T15:47:20.028694,5.850,1.820,139.090,-60.4,0.400,-0.400,181.080,1000.0
2025-09-16T15:47:20.029694,5.850,1.820,139.090,-60.4,0.400,-0.400,181.080,1000.0
2025-09-16T15:47:20.058697,5.850,1.820,139.090,-60.4,0.400,-0.400,181.080,1000.0
2025-09-16T15:47:20.059696,5.850,1.820,139.090,-60.4,0.400,-0.400,181.080,1000.0
2025-09-16T15:47:20.088695,5.850,1.820,139.090,-60.4,0.400,-0.400,181.080,1000.0
2025-09-16T15:47:20.118698,5.850,1.820,139.090,-60.4,0.400,-0.400,181.080,1000.0
2025-09-16T15:47:20.120696,5.850,1.820,139.090,-60.4,0.400,-0.400,181.080,1000.0
2025-09-16T15:47:20.147694,5.850,1.820,139.090,-60.4,0.400,-0.400,181.080,1000.0
2025-09-16T15:47:20.149694,5.850,1.820,139.090,-60.4,0.400,-0.400,181.080,1000.0
2025-09-16T15:47:20.178698,5.850,1.820,139.090,-60.4,0.400,-0.400,181.080,1000.0
2025-09-16T15:47:20.179696,5.850,1.820,139.090,-60.4,0.400,-0.400,181.080,1000.0
2025-09-16T15:47:20.207996,5.850,1.820,139.090,-60.4,0.400,-0.400,181.080,1000.0
2025-09-16T15:47:20.254558,5.850,1.820,139.090,-60.4,0.400,-0.400,181.080,1000.0
2025-09-16T15:47:20.255558,5.850,1.820,139.090,-60.4,0.400,-0.400,181.080,1000.0
2025-09-16T15:47:20.284558,5.850,1.820,139.090,-60.4,0.400,-0.400,181.080,1000.0
2025-09-16T15:47:20.299566,5.850,1.820,139.090,-60.4,0.400,-0.400,181.080,1000.0
2025-09-16T15:47:20.314568,5.850,1.820,139.090,-60.4,0.400,-0.400,181.080,1000.0
2025-09-16T15:47:20.358571,5.850,1.820,139.090,-60.4,0.400,-0.400,181.080,1000.0
2025-09-16T15:47:20.360566,5.850,1.820,139.090,-60.4,0.400,-0.400,181.080,1000.0
2025-09-16T15:47:20.390834,5.850,1.820,139.090,-60.4,0.400,-0.400,181.080,1000.0
2025-09-16T15:47:20.419461,5.850,1.820,139.090,-60.4,0.400,-0.400,181.080,1000.0
2025-09-16T15:47:20.421452,5.850,1.820,139.090,-60.4,0.400,-0.400,181.080,1000.0
2025-09-16T15:47:20.450834,5.850,1.820,139.090,-60.4,0.400,-0.400,181.080,1000.0
2025-09-16T15:47:20.453240,5.850,1.820,139.090,-60.4,0.400,-0.400,181.080,1000.0
2025-09-16T15:47:20.481285,5.850,1.820,139.090,-60.4,0.400,-0.400,181.080,1000.0
2025-09-16T15:47:20.483284,5.850,1.820,139.090,-60.4,0.400,-0.400,181.080,1000.0
2025-09-16T15:47:20.526604,5.850,1.820,139.090,-60.4,0.400,-0.400,181.080,1000.0
2025-09-16T15:47:20.556818,5.850,1.820,139.090,-60.4,0.400,-0.400,181.080,1000.0
2025-09-16T15:47:20.557806,5.850,1.820,139.090,-60.4,0.400,-0.400,181.080,1000.0
2025-09-16T15:47:20.587270,5.850,1.820,139.090,-60.4,0.400,-0.400,181.080,1000.0
2025-09-16T15:47:20.589271,5.850,1.820,139.090,-60.4,0.400,-0.400,181.080,1000.0
2025-09-16T15:47:20.617950,5.850,1.820,139.090,-60.4,0.400,-0.400,181.080,1000.0
2025-09-16T15:47:20.662843,5.850,1.820,139.090,-60.4,0.400,-0.400,181.080,1000.0
2025-09-16T15:47:20.663842,5.850,1.820,139.090,-60.4,0.400,-0.400,181.080,1000.0
2025-09-16T15:47:20.693525,5.850,1.820,139.090,-60.4,0.400,-0.400,181.080,1000.0
2025-09-16T15:47:20.694525,5.850,1.820,139.090,-60.4,0.400,-0.400,181.080,1000.0
2025-09-16T15:47:20.723607,5.850,1.820,139.090,-60.4,0.400,-0.400,181.080,1000.0
2025-09-16T15:47:20.753931,5.850,1.820,139.090,-60.4,0.400,-0.400,181.080,1000.0
2025-09-16T15:47:20.754930,5.850,1.830,139.090,-60.4,0.400,-0.400,181.080,1000.0
2025-09-16T15:47:20.784429,5.850,1.820,139.090,-60.4,0.400,-0.400,181.080,1000.0
2025-09-16T15:47:20.787424,5.850,1.820,139.090,-60.4,0.400,-0.400,181.080,1000.0
2025-09-16T15:47:20.829485,5.850,1.830,139.100,-60.4,0.400,-0.400,181.080,1000.0
2025-09-16T15:47:20.860697,5.850,1.830,139.100,-60.4,0.400,-0.400,181.080,1000.0
2025-09-16T15:47:20.861699,5.850,1.820,139.090,-60.4,0.400,-0.400,181.080,1000.0
2025-09-16T15:47:20.890317,5.850,1.820,139.090,-60.4,0.400,-0.400,181.080,1000.0
2025-09-16T15:47:20.892309,5.850,1.820,139.090,-60.4,0.400,-0.400,181.080,1000.0
2025-09-16T15:47:20.921707,5.860,1.830,139.090,-60.4,0.400,-0.400,181.080,1000.0
2025-09-16T15:47:20.952473,5.860,1.830,139.090,-60.4,0.400,-0.400,181.080,1000.0
2025-09-16T15:47:20.967472,5.850,1.820,139.090,-60.4,0.400,-0.400,181.080,1000.0
2025-09-16T15:47:20.982544,5.850,1.820,139.100,-60.4,0.400,-0.400,181.080,1000.0
2025-09-16T15:47:20.996456,5.850,1.820,139.100,-60.4,0.400,-0.400,181.080,1000.0
2025-09-16T15:47:21.027639,5.860,1.820,139.100,-60.3,0.400,-0.400,181.080,1000.0
2025-09-16T15:47:21.057975,5.860,1.810,139.100,-60.3,0.400,-0.400,181.080,1000.0
2025-09-16T15:47:21.058972,5.860,1.810,139.100,-60.3,0.400,-0.400,181.080,1000.0
2025-09-16T15:47:21.102817,5.860,1.810,139.100,-60.3,0.400,-0.400,181.080,1000.0
2025-09-16T15:47:21.103815,5.860,1.810,139.100,-60.3,0.400,-0.400,181.080,1000.0
2025-09-16T15:47:21.132844,5.850,1.800,139.100,-60.3,0.400,-0.400,181.080,1000.0
2025-09-16T15:47:21.163034,5.860,1.810,139.100,-60.3,0.400,-0.400,181.080,1000.0
2025-09-16T15:47:21.165033,5.850,1.800,139.100,-60.3,0.400,-0.400,181.080,1000.0
2025-09-16T15:47:21.193083,5.850,1.800,139.100,-60.3,0.400,-0.400,181.080,1000.0
2025-09-16T15:47:21.194083,5.850,1.800,139.100,-60.3,0.400,-0.400,181.080,1000.0
2025-09-16T15:47:21.222621,5.860,1.800,139.090,-60.3,0.400,-0.400,181.080,1000.0
2025-09-16T15:47:21.223621,5.860,1.800,139.100,-60.3,0.400,-0.400,181.080,1000.0
2025-09-16T15:47:21.252376,5.860,1.790,139.100,-60.3,0.400,-0.400,181.080,1000.0
2025-09-16T15:47:21.282681,5.860,1.790,139.100,-60.3,0.400,-0.400,181.080,1000.0
2025-09-16T15:47:21.296680,5.860,1.790,139.090,-60.3,0.400,-0.400,181.080,1000.0
2025-09-16T15:47:21.312544,5.850,1.790,139.100,-60.3,0.400,-0.400,181.080,1000.0
2025-09-16T15:47:21.373342,5.850,1.790,139.100,-60.3,0.400,-0.400,181.080,1000.0
2025-09-16T15:47:21.374349,5.850,1.780,139.090,-60.3,0.400,-0.400,181.080,1000.0
2025-09-16T15:47:21.403134,5.850,1.790,139.090,-60.3,0.400,-0.400,181.080,1000.0
2025-09-16T15:47:21.405131,5.860,1.790,139.090,-60.3,0.400,-0.400,181.080,1000.0
2025-09-16T15:47:21.433818,5.860,1.790,139.090,-60.3,0.400,-0.400,181.080,1000.0
2025-09-16T15:47:21.435818,5.860,1.800,139.090,-60.3,0.400,-0.400,181.080,1000.0
2025-09-16T15:47:21.463839,5.850,1.800,139.100,-60.3,0.400,-0.400,181.080,1000.0
2025-09-16T15:47:21.494414,5.860,1.800,139.090,-60.3,0.400,-0.400,181.080,1000.0
2025-09-16T15:47:21.495415,5.850,1.800,139.090,-60.3,0.400,-0.400,181.080,1000.0
2025-09-16T15:47:21.524320,5.860,1.810,139.090,-60.3,0.400,-0.400,181.080,1000.0
2025-09-16T15:47:21.526319,5.860,1.800,139.100,-60.3,0.400,-0.400,181.080,1000.0
2025-09-16T15:47:21.554320,5.860,1.800,139.100,-60.3,0.400,-0.400,181.080,1000.0
2025-09-16T15:47:21.599016,5.860,1.810,139.100,-60.3,0.400,-0.400,181.080,1000.0
2025-09-16T15:47:21.601018,5.860,1.810,139.100,-60.3,0.400,-0.400,181.080,1000.0
2025-09-16T15:47:21.629036,5.860,1.810,139.090,-60.4,0.400,-0.400,181.080,1000.0
2025-09-16T15:47:21.630035,5.860,1.800,139.090,-60.4,0.400,-0.400,181.080,1000.0
2025-09-16T15:47:21.659211,5.870,1.810,139.090,-60.4,0.400,-0.400,181.080,1000.0
2025-09-16T15:47:21.703908,5.860,1.810,139.090,-60.4,0.400,-0.400,181.080,1000.0
2025-09-16T15:47:21.705909,5.870,1.810,139.090,-60.4,0.400,-0.400,181.080,1000.0
2025-09-16T15:47:21.735359,5.870,1.810,139.090,-60.4,0.400,-0.400,181.080,1000.0
2025-09-16T15:47:21.737356,5.870,1.810,139.090,-60.4,0.400,-0.400,181.080,1000.0
2025-09-16T15:47:21.765430,5.870,1.810,139.090,-60.4,0.400,-0.400,181.080,1000.0
2025-09-16T15:47:21.795582,5.870,1.820,139.090,-60.4,0.400,-0.400,181.080,1000.0
2025-09-16T15:47:21.796583,5.870,1.820,139.090,-60.3,0.400,-0.400,181.080,1000.0
2025-09-16T15:47:21.825644,5.870,1.810,139.090,-60.3,0.400,-0.400,181.080,1000.0
2025-09-16T15:47:21.826643,5.870,1.810,139.090,-60.3,0.400,-0.400,181.080,1000.0
2025-09-16T15:47:21.856461,5.870,1.810,139.090,-60.4,0.400,-0.400,181.080,1000.0
2025-09-16T15:47:21.902576,5.860,1.800,139.090,-60.4,0.400,-0.400,181.080,1000.0
2025-09-16T15:47:21.903575,5.860,1.800,139.090,-60.4,0.400,-0.400,181.080,1000.0
2025-09-16T15:47:21.932871,5.860,1.800,139.090,-60.4,0.400,-0.400,181.080,1000.0
2025-09-16T15:47:21.934871,5.860,1.800,139.090,-60.4,0.400,-0.400,181.080,1000.0
2025-09-16T15:47:21.964291,5.860,1.800,139.090,-60.4,0.400,-0.400,181.080,1000.0
2025-09-16T15:47:21.992291,5.870,1.810,139.090,-60.4,0.400,-0.400,181.080,1000.0
2025-09-16T15:47:21.994292,5.860,1.810,139.090,-60.4,0.400,-0.400,181.080,1000.0
2025-09-16T15:47:22.038782,5.860,1.820,139.090,-60.4,0.400,-0.400,181.080,1000.0
2025-09-16T15:47:22.040782,5.860,1.820,139.090,-60.3,0.400,-0.400,181.080,1000.0
2025-09-16T15:47:22.069726,5.860,1.830,139.090,-60.3,0.400,-0.400,181.080,1000.0
2025-09-16T15:47:22.099968,5.860,1.830,139.090,-60.3,0.400,-0.400,181.080,1000.0
2025-09-16T15:47:22.101965,5.860,1.840,139.090,-60.3,0.400,-0.400,181.080,1000.0
2025-09-16T15:47:22.129904,5.860,1.840,139.090,-60.4,0.400,-0.400,181.080,1000.0
2025-09-16T15:47:22.131906,5.860,1.840,139.090,-60.4,0.400,-0.400,181.080,1000.0
2025-09-16T15:47:22.175701,5.860,1.840,139.090,-60.4,0.400,-0.400,181.080,1000.0
2025-09-16T15:47:22.178700,5.860,1.840,139.090,-60.4,0.400,-0.400,181.080,1000.0
2025-09-16T15:47:22.205565,5.860,1.840,139.090,-60.4,0.400,-0.400,181.080,1000.0
2025-09-16T15:47:22.235597,5.860,1.830,139.090,-60.4,0.400,-0.400,181.080,1000.0
2025-09-16T15:47:22.237602,5.860,1.830,139.090,-60.4,0.400,-0.400,181.080,1000.0
2025-09-16T15:47:22.266495,5.860,1.830,139.090,-60.4,0.400,-0.400,181.080,1000.0
2025-09-16T15:47:22.271495,5.860,1.820,139.090,-60.4,0.400,-0.400,181.080,1000.0
2025-09-16T15:47:22.296526,5.860,1.820,139.090,-60.4,0.400,-0.400,181.080,1000.0
2025-09-16T15:47:22.326729,5.860,1.810,139.090,-60.4,0.400,-0.400,181.080,1000.0
2025-09-16T15:47:22.328728,5.860,1.810,139.090,-60.4,0.400,-0.400,181.080,1000.0
2025-09-16T15:47:22.372390,5.860,1.810,139.090,-60.4,0.400,-0.400,181.080,1000.0
2025-09-16T15:47:22.376404,5.860,1.810,139.090,-60.4,0.400,-0.400,181.080,1000.0
2025-09-16T15:47:22.402670,5.860,1.810,139.090,-60.4,0.400,-0.400,181.080,1000.0
2025-09-16T15:47:22.432791,5.860,1.810,139.090,-60.4,0.400,-0.400,181.080,1000.0
2025-09-16T15:47:22.434792,5.860,1.820,139.090,-60.4,0.400,-0.400,181.080,1000.0
2025-09-16T15:47:22.478149,5.860,1.820,139.090,-60.4,0.400,-0.400,181.080,1000.0
2025-09-16T15:47:22.481149,5.860,1.820,139.090,-60.4,0.400,-0.400,181.080,1000.0
2025-09-16T15:47:22.507167,5.860,1.820,139.090,-60.3,0.400,-0.400,181.080,1000.0
2025-09-16T15:47:22.538031,5.860,1.820,139.090,-60.4,0.400,-0.400,181.080,1000.0
2025-09-16T15:47:22.539034,5.860,1.820,139.090,-60.4,0.400,-0.400,181.080,1000.0
2025-09-16T15:47:22.567753,5.850,1.820,139.090,-60.4,0.400,-0.400,181.080,1000.0
2025-09-16T15:47:22.570752,5.850,1.820,139.090,-60.4,0.400,-0.400,181.080,1000.0
2025-09-16T15:47:22.597839,5.850,1.820,139.090,-60.4,0.400,-0.400,181.080,1000.0
2025-09-16T15:47:22.628118,5.840,1.810,139.090,-60.4,0.400,-0.400,181.080,1000.0
2025-09-16T15:47:22.630118,5.840,1.810,139.090,-60.4,0.400,-0.400,181.080,1000.0
2025-09-16T15:47:22.658154,5.850,1.810,139.090,-60.4,0.400,-0.400,181.080,1000.0
2025-09-16T15:47:22.677220,5.850,1.800,139.090,-60.4,0.400,-0.400,181.080,1000.0
2025-09-16T15:47:22.703223,5.850,1.800,139.090,-60.4,0.400,-0.400,181.080,1000.0
2025-09-16T15:47:22.748221,5.850,1.800,139.090,-60.4,0.400,-0.400,181.080,1000.0
2025-09-16T15:47:22.749228,5.850,1.800,139.090,-60.4,0.400,-0.400,181.080,1000.0
2025-09-16T15:47:22.778219,5.850,1.790,139.090,-60.3,0.400,-0.400,181.080,1000.0
2025-09-16T15:47:22.780770,5.850,1.790,139.090,-60.3,0.400,-0.400,181.080,1000.0
2025-09-16T15:47:22.808894,5.850,1.790,139.090,-60.3,0.400,-0.400,181.080,1000.0
2025-09-16T15:47:22.839426,5.850,1.800,139.090,-60.3,0.400,-0.400,181.080,1000.0
2025-09-16T15:47:22.840417,5.850,1.800,139.090,-60.3,0.400,-0.400,181.080,1000.0
2025-09-16T15:47:22.869651,5.850,1.800,139.090,-60.3,0.400,-0.400,181.080,1000.0
2025-09-16T15:47:22.873652,5.850,1.800,139.090,-60.3,0.400,-0.400,181.080,1000.0
2025-09-16T15:47:22.899687,5.850,1.810,139.090,-60.3,0.400,-0.400,181.080,1000.0
2025-09-16T15:47:22.929770,5.850,1.810,139.090,-60.3,0.400,-0.400,181.080,1000.0
2025-09-16T15:47:22.930772,5.850,1.810,139.090,-60.3,0.400,-0.400,181.080,1000.0
2025-09-16T15:47:22.974877,5.850,1.810,139.090,-60.3,0.400,-0.400,181.080,1000.0
2025-09-16T15:47:22.977874,5.850,1.810,139.090,-60.3,0.400,-0.400,181.080,1000.0
2025-09-16T15:47:23.005106,5.850,1.820,139.090,-60.3,0.400,-0.400,181.080,1000.0
2025-09-16T15:47:23.034812,5.850,1.820,139.090,-60.3,0.400,-0.400,181.080,1000.0
2025-09-16T15:47:23.049850,5.850,1.820,139.090,-60.3,0.400,-0.400,181.080,1000.0
2025-09-16T15:47:23.079706,5.850,1.820,139.090,-60.3,0.400,-0.400,181.080,1000.0
2025-09-16T15:47:23.082707,5.850,1.810,139.090,-60.3,0.400,-0.400,181.080,1000.0
2025-09-16T15:47:23.109967,5.860,1.810,139.090,-60.3,0.400,-0.400,181.080,1000.0
2025-09-16T15:47:23.110964,5.860,1.810,139.090,-60.3,0.400,-0.400,181.080,1000.0
2025-09-16T15:47:23.140566,5.850,1.800,139.090,-60.3,0.400,-0.400,181.080,1000.0
2025-09-16T15:47:23.170165,5.850,1.800,139.090,-60.3,0.400,-0.400,181.080,1000.0
2025-09-16T15:47:23.173173,5.850,1.800,139.090,-60.3,0.400,-0.400,181.080,1000.0
2025-09-16T15:47:23.201246,5.850,1.800,139.090,-60.3,0.400,-0.400,181.080,1000.0
2025-09-16T15:47:23.246282,5.850,1.800,139.090,-60.3,0.400,-0.400,181.080,1000.0
2025-09-16T15:47:23.247282,5.850,1.790,139.090,-60.3,0.400,-0.400,181.080,1000.0
2025-09-16T15:47:23.276804,5.850,1.790,139.090,-60.3,0.400,-0.400,181.080,1000.0
2025-09-16T15:47:23.279803,5.850,1.790,139.090,-60.3,0.400,-0.400,181.080,1000.0
2025-09-16T15:47:23.307153,5.850,1.790,139.090,-60.3,0.400,-0.400,181.080,1000.0
2025-09-16T15:47:23.308154,5.850,1.800,139.090,-60.3,0.400,-0.400,181.080,1000.0
2025-09-16T15:47:23.337685,5.850,1.800,139.090,-60.3,0.400,-0.400,181.080,1000.0
2025-09-16T15:47:23.367706,5.850,1.800,139.090,-60.3,0.400,-0.400,181.080,1000.0
2025-09-16T15:47:23.384954,5.860,1.810,139.090,-60.3,0.400,-0.400,181.080,1000.0
2025-09-16T15:47:23.397954,5.860,1.810,139.090,-60.3,0.400,-0.400,181.080,1000.0
2025-09-16T15:47:23.412956,5.860,1.810,139.090,-60.3,0.400,-0.400,181.080,1000.0
2025-09-16T15:47:23.443012,5.850,1.820,139.090,-60.3,0.400,-0.400,181.080,1000.0
2025-09-16T15:47:23.473320,5.850,1.820,139.090,-60.3,0.400,-0.400,181.080,1000.0
2025-09-16T15:47:23.476313,5.850,1.820,139.090,-60.3,0.400,-0.400,181.080,1000.0
2025-09-16T15:47:23.518453,5.860,1.830,139.090,-60.3,0.400,-0.400,181.080,1000.0
2025-09-16T15:47:23.520455,5.860,1.830,139.090,-60.3,0.400,-0.400,181.080,1000.0
2025-09-16T15:47:23.547887,5.860,1.840,139.090,-60.3,0.400,-0.400,181.080,1000.0
2025-09-16T15:47:23.579266,5.860,1.840,139.090,-60.3,0.400,-0.400,181.080,1000.0
2025-09-16T15:47:23.582267,5.850,1.840,139.090,-60.3,0.400,-0.400,181.080,1000.0
2025-09-16T15:47:23.608264,5.860,1.840,139.090,-60.3,0.400,-0.400,181.080,1000.0
2025-09-16T15:47:23.610264,5.860,1.840,139.090,-60.3,0.400,-0.400,181.080,1000.0
2025-09-16T15:47:23.639332,5.860,1.840,139.100,-60.3,0.400,-0.400,181.080,1000.0
2025-09-16T15:47:23.669651,5.860,1.840,139.100,-60.3,0.400,-0.400,181.080,1000.0
2025-09-16T15:47:23.685223,5.860,1.840,139.090,-60.3,0.400,-0.400,181.080,1000.0
2025-09-16T15:47:23.700223,5.850,1.840,139.100,-60.3,0.400,-0.400,181.080,1000.0
2025-09-16T15:47:23.715223,5.860,1.840,139.100,-60.3,0.400,-0.400,181.080,1000.0
2025-09-16T15:47:23.729220,5.860,1.840,139.090,-60.3,0.400,-0.400,181.080,1000.0
2025-09-16T15:47:23.790127,5.860,1.840,139.090,-60.3,0.400,-0.400,181.080,1000.0
2025-09-16T15:47:23.793127,5.860,1.840,139.090,-60.3,0.400,-0.400,181.080,1000.0
2025-09-16T15:47:23.820444,5.870,1.830,139.090,-60.3,0.400,-0.400,181.080,1000.0
2025-09-16T15:47:23.821445,5.870,1.830,139.090,-60.3,0.400,-0.400,181.080,1000.0
2025-09-16T15:47:23.850484,5.870,1.830,139.090,-60.3,0.400,-0.400,181.080,1000.0
2025-09-16T15:47:23.880217,5.870,1.830,139.090,-60.3,0.400,-0.400,181.080,1000.0
2025-09-16T15:47:23.882215,5.870,1.830,139.090,-60.3,0.400,-0.400,181.080,1000.0
2025-09-16T15:47:23.910277,5.870,1.830,139.090,-60.3,0.400,-0.400,181.080,1000.0
2025-09-16T15:47:23.911276,5.870,1.820,139.090,-60.3,0.400,-0.400,181.080,1000.0
2025-09-16T15:47:23.940597,5.870,1.820,139.090,-60.3,0.400,-0.400,181.080,1000.0
2025-09-16T15:47:23.970282,5.870,1.820,139.090,-60.3,0.400,-0.400,181.080,1000.0
2025-09-16T15:47:23.985282,5.870,1.810,139.090,-60.3,0.400,-0.400,181.080,1000.0
2025-09-16T15:47:24.015993,5.870,1.810,139.090,-60.3,0.400,-0.400,181.080,1000.0
2025-09-16T15:47:24.018001,5.870,1.810,139.090,-60.3,0.400,-0.400,181.080,1000.0
2025-09-16T15:47:24.046066,5.880,1.810,139.090,-60.3,0.400,-0.400,181.080,1000.0
2025-09-16T15:47:24.061065,5.880,1.810,139.090,-60.3,0.400,-0.400,181.080,1000.0
2025-09-16T15:47:24.076031,5.870,1.800,139.080,-60.3,0.400,-0.400,181.080,1000.0
2025-09-16T15:47:24.120592,5.860,1.800,139.090,-60.3,0.400,-0.400,181.080,1000.0
2025-09-16T15:47:24.122590,5.850,1.800,139.090,-60.3,0.400,-0.400,181.080,1000.0
2025-09-16T15:47:24.150835,5.850,1.800,139.090,-60.3,0.400,-0.400,181.080,1000.0
2025-09-16T15:47:24.180836,5.850,1.800,139.090,-60.3,0.400,-0.400,181.080,1000.0
2025-09-16T15:47:24.183836,5.850,1.800,139.090,-60.3,0.400,-0.400,181.080,1000.0
2025-09-16T15:47:24.210837,5.840,1.800,139.090,-60.3,0.400,-0.400,181.080,1000.0
2025-09-16T15:47:24.211836,5.840,1.800,139.090,-60.3,0.400,-0.400,181.080,1000.0
2025-09-16T15:47:24.240834,5.840,1.800,139.090,-60.3,0.400,-0.400,181.080,1000.0
2025-09-16T15:47:24.241835,5.840,1.790,139.090,-60.3,0.400,-0.400,181.080,1000.0
2025-09-16T15:47:24.285840,5.840,1.790,139.090,-60.3,0.400,-0.400,181.080,1000.0
2025-09-16T15:47:24.315835,5.840,1.790,139.090,-60.3,0.400,-0.400,181.080,1000.0
2025-09-16T15:47:24.316834,5.830,1.790,139.090,-60.3,0.400,-0.400,181.080,1000.0
2025-09-16T15:47:24.345835,5.830,1.790,139.090,-60.3,0.400,-0.400,181.080,1000.0
2025-09-16T15:47:24.346838,5.830,1.790,139.090,-60.3,0.400,-0.400,181.080,1000.0
2025-09-16T15:47:24.374842,5.830,1.790,139.090,-60.3,0.400,-0.400,181.080,1000.0
2025-09-16T15:47:24.405835,5.820,1.790,139.090,-60.3,0.400,-0.400,181.080,1000.0
2025-09-16T15:47:24.420837,5.820,1.790,139.100,-60.3,0.400,-0.400,181.080,1000.0
2025-09-16T15:47:24.450847,5.820,1.790,139.100,-60.3,0.400,-0.400,181.080,1000.0
2025-09-16T15:47:24.452837,5.820,1.780,139.100,-60.3,0.400,-0.400,181.080,1000.0
2025-09-16T15:47:24.480880,5.820,1.780,139.100,-60.4,0.400,-0.400,181.080,1000.0
2025-09-16T15:47:24.526105,5.820,1.780,139.100,-60.4,0.400,-0.400,181.080,1000.0
2025-09-16T15:47:24.527105,5.820,1.780,139.100,-60.4,0.400,-0.400,181.080,1000.0
2025-09-16T15:47:24.556615,5.820,1.780,139.090,-60.4,0.400,-0.400,181.080,1000.0
2025-09-16T15:47:24.557616,5.820,1.780,139.090,-60.4,0.400,-0.400,181.080,1000.0
2025-09-16T15:47:24.586558,5.820,1.780,139.090,-60.4,0.400,-0.400,181.080,1000.0
2025-09-16T15:47:24.616557,5.820,1.780,139.090,-60.4,0.400,-0.400,181.080,1000.0
2025-09-16T15:47:24.617554,5.820,1.780,139.090,-60.4,0.400,-0.400,181.080,1000.0
2025-09-16T15:47:24.647313,5.820,1.770,139.090,-60.4,0.400,-0.400,181.080,1000.0
2025-09-16T15:47:24.648313,5.820,1.780,139.090,-60.4,0.400,-0.400,181.080,1000.0
2025-09-16T15:47:24.677378,5.820,1.780,139.090,-60.4,0.400,-0.400,181.080,1000.0
2025-09-16T15:47:24.706633,5.820,1.780,139.090,-60.4,0.400,-0.400,181.080,1000.0
2025-09-16T15:47:24.708632,5.820,1.780,139.090,-60.4,0.400,-0.400,181.080,1000.0
2025-09-16T15:47:24.737673,5.820,1.780,139.090,-60.3,0.400,-0.400,181.080,1000.0
2025-09-16T15:47:24.767932,5.820,1.780,139.090,-60.3,0.400,-0.400,181.080,1000.0
2025-09-16T15:47:24.796943,5.820,1.780,139.090,-60.3,0.400,-0.400,181.080,1000.0
2025-09-16T15:47:24.827931,5.820,1.780,139.090,-60.3,0.400,-0.400,181.080,1000.0
2025-09-16T15:47:24.828935,5.820,1.780,139.090,-60.3,0.400,-0.400,181.080,1000.0
2025-09-16T15:47:24.857603,5.820,1.780,139.090,-60.3,0.400,-0.400,181.080,1000.0
2025-09-16T15:47:24.858602,5.810,1.790,139.090,-60.3,0.400,-0.400,181.080,1000.0
2025-09-16T15:47:24.887671,5.810,1.790,139.090,-60.3,0.400,-0.400,181.080,1000.0
2025-09-16T15:47:24.917555,5.810,1.790,139.090,-60.3,0.400,-0.400,181.080,1000.0
2025-09-16T15:47:24.918556,5.810,1.790,139.090,-60.3,0.400,-0.400,181.080,1000.0
2025-09-16T15:47:24.947651,5.810,1.790,139.090,-60.3,0.400,-0.400,181.080,1000.0
2025-09-16T15:47:24.949638,5.820,1.800,139.090,-60.3,0.400,-0.400,181.080,1000.0
2025-09-16T15:47:24.977950,5.820,1.800,139.090,-60.3,0.400,-0.400,181.080,1000.0
2025-09-16T15:47:24.978939,5.820,1.800,139.090,-60.3,0.400,-0.400,181.080,1000.0
2025-09-16T15:47:25.024040,5.820,1.810,139.090,-60.3,0.400,-0.400,181.080,1000.0
2025-09-16T15:47:25.055124,5.820,1.810,139.100,-60.3,0.400,-0.400,181.080,1000.0
2025-09-16T15:47:25.056122,5.830,1.810,139.100,-60.3,0.400,-0.400,181.080,1000.0
2025-09-16T15:47:25.085533,5.830,1.810,139.100,-60.3,0.400,-0.400,181.080,1000.0
2025-09-16T15:47:25.130857,5.830,1.810,139.100,-60.3,0.400,-0.400,181.080,1000.0
2025-09-16T15:47:25.131859,5.830,1.810,139.100,-60.3,0.400,-0.400,181.080,1000.0
2025-09-16T15:47:25.161305,5.830,1.820,139.100,-60.3,0.400,-0.400,181.080,1000.0
2025-09-16T15:47:25.162305,5.830,1.820,139.100,-60.3,0.400,-0.400,181.080,1000.0
2025-09-16T15:47:25.192316,5.830,1.820,139.100,-60.3,0.400,-0.400,181.080,1000.0
2025-09-16T15:47:25.194297,5.830,1.820,139.100,-60.3,0.400,-0.400,181.080,1000.0
2025-09-16T15:47:25.222349,5.830,1.820,139.100,-60.3,0.400,-0.400,181.080,1000.0
2025-09-16T15:47:25.252997,5.820,1.820,139.100,-60.3,0.400,-0.400,181.080,1000.0
2025-09-16T15:47:25.254996,5.820,1.820,139.100,-60.3,0.400,-0.400,181.080,1000.0
2025-09-16T15:47:25.283189,5.820,1.820,139.100,-60.3,0.400,-0.400,181.080,1000.0
2025-09-16T15:47:25.285188,5.820,1.820,139.100,-60.3,0.400,-0.400,181.080,1000.0
2025-09-16T15:47:25.313021,5.820,1.820,139.100,-60.3,0.400,-0.400,181.080,1000.0
2025-09-16T15:47:25.358485,5.820,1.820,139.100,-60.3,0.400,-0.400,181.080,1000.0
2025-09-16T15:47:25.359491,5.820,1.820,139.100,-60.3,0.400,-0.400,181.080,1000.0
2025-09-16T15:47:25.389012,5.820,1.820,139.100,-60.3,0.400,-0.400,181.080,1000.0
2025-09-16T15:47:25.393013,5.820,1.820,139.100,-60.3,0.400,-0.400,181.080,1000.0
2025-09-16T15:47:25.419092,5.820,1.820,139.100,-60.3,0.400,-0.400,181.080,1000.0
2025-09-16T15:47:25.464277,5.820,1.820,139.100,-60.3,0.400,-0.400,181.080,1000.0
2025-09-16T15:47:25.466277,5.820,1.820,139.100,-60.3,0.400,-0.400,181.080,1000.0
2025-09-16T15:47:25.493315,5.810,1.820,139.100,-60.3,0.400,-0.400,181.080,1000.0
2025-09-16T15:47:25.495308,5.820,1.820,139.100,-60.3,0.400,-0.400,181.080,1000.0
2025-09-16T15:47:25.523685,5.820,1.820,139.100,-60.3,0.400,-0.400,181.080,1000.0
2025-09-16T15:47:25.525590,5.820,1.820,139.100,-60.3,0.400,-0.400,181.080,1000.0
2025-09-16T15:47:25.554370,5.820,1.820,139.100,-60.3,0.400,-0.400,181.080,1000.0
2025-09-16T15:47:25.600208,5.820,1.820,139.100,-60.3,0.400,-0.400,181.080,1000.0
2025-09-16T15:47:25.601207,5.820,1.820,139.090,-60.3,0.400,-0.400,181.080,1000.0
2025-09-16T15:47:25.631278,5.820,1.820,139.100,-60.3,0.400,-0.400,181.080,1000.0
2025-09-16T15:47:25.661341,5.830,1.820,139.100,-60.3,0.400,-0.400,181.080,1000.0
2025-09-16T15:47:25.662340,5.830,1.820,139.100,-60.3,0.400,-0.400,181.080,1000.0
2025-09-16T15:47:25.691931,5.830,1.820,139.100,-60.3,0.400,-0.400,181.080,1000.0
2025-09-16T15:47:25.693931,5.840,1.820,139.100,-60.3,0.400,-0.400,181.080,1000.0
2025-09-16T15:47:25.721961,5.840,1.820,139.100,-60.3,0.400,-0.400,181.080,1000.0
2025-09-16T15:47:25.753005,5.840,1.820,139.100,-60.3,0.400,-0.400,181.080,1000.0
2025-09-16T15:47:25.755017,5.840,1.820,139.100,-60.3,0.400,-0.400,181.080,1000.0
2025-09-16T15:47:25.783420,5.840,1.820,139.100,-60.3,0.400,-0.400,181.080,1000.0
2025-09-16T15:47:25.798442,5.850,1.820,139.100,-60.3,0.400,-0.400,181.080,1000.0
2025-09-16T15:47:25.813446,5.840,1.820,139.100,-60.3,0.400,-0.400,181.080,1000.0
2025-09-16T15:47:25.857970,5.840,1.820,139.100,-60.3,0.400,-0.400,181.080,1000.0
2025-09-16T15:47:25.859970,5.850,1.820,139.100,-60.3,0.400,-0.400,181.080,1000.0
2025-09-16T15:47:25.889227,5.850,1.820,139.100,-60.3,0.400,-0.400,181.080,1000.0
2025-09-16T15:47:25.891226,5.840,1.820,139.100,-60.3,0.400,-0.400,181.080,1000.0
2025-09-16T15:47:25.934466,5.850,1.820,139.100,-60.3,0.400,-0.400,181.080,1000.0
2025-09-16T15:47:25.965899,5.850,1.820,139.100,-60.3,0.400,-0.400,181.080,1000.0
2025-09-16T15:47:25.966906,5.850,1.820,139.100,-60.3,0.400,-0.400,181.080,1000.0
2025-09-16T15:47:25.995925,5.850,1.820,139.100,-60.3,0.400,-0.400,181.080,1000.0
2025-09-16T15:47:25.996925,5.840,1.810,139.100,-60.3,0.400,-0.400,181.080,1000.0
2025-09-16T15:47:26.025699,5.840,1.810,139.100,-60.3,0.400,-0.400,181.080,1000.0
2025-09-16T15:47:26.055952,5.840,1.810,139.100,-60.3,0.400,-0.400,181.080,1000.0
2025-09-16T15:47:26.056952,5.830,1.820,139.100,-60.3,0.400,-0.400,181.080,1000.0
2025-09-16T15:47:26.086110,5.830,1.820,139.100,-60.3,0.400,-0.400,181.080,1000.0
2025-09-16T15:47:26.089109,5.830,1.820,139.100,-60.3,0.400,-0.400,181.080,1000.0
2025-09-16T15:47:26.116793,5.830,1.820,139.090,-60.3,0.400,-0.400,181.080,1000.0
2025-09-16T15:47:26.131886,5.830,1.820,139.090,-60.3,0.400,-0.400,181.080,1000.0
2025-09-16T15:47:26.162111,5.830,1.820,139.090,-60.3,0.400,-0.400,181.080,1000.0
2025-09-16T15:47:26.206991,5.830,1.820,139.090,-60.3,0.400,-0.400,181.080,1000.0
2025-09-16T15:47:26.208989,5.840,1.810,139.090,-60.3,0.400,-0.400,181.080,1000.0
2025-09-16T15:47:26.237571,5.840,1.820,139.080,-60.3,0.400,-0.400,181.080,1000.0
2025-09-16T15:47:26.239569,5.840,1.810,139.090,-60.3,0.400,-0.400,181.080,1000.0
2025-09-16T15:47:26.267569,5.840,1.810,139.080,-60.3,0.400,-0.400,181.080,1000.0
2025-09-16T15:47:26.298726,5.840,1.820,139.080,-60.3,0.400,-0.400,181.080,1000.0
2025-09-16T15:47:26.299725,5.850,1.820,139.080,-60.3,0.400,-0.400,181.080,1000.0
2025-09-16T15:47:26.328751,5.840,1.820,139.080,-60.3,0.400,-0.400,181.080,1000.0
2025-09-16T15:47:26.329753,5.840,1.820,139.080,-60.3,0.400,-0.400,181.080,1000.0
2025-09-16T15:47:26.359197,5.840,1.830,139.090,-60.3,0.400,-0.400,181.080,1000.0
2025-09-16T15:47:26.389153,5.840,1.830,139.090,-60.3,0.400,-0.400,181.080,1000.0
2025-09-16T15:47:26.392151,5.850,1.820,139.090,-60.3,0.400,-0.400,181.080,1000.0
2025-09-16T15:47:26.418954,5.840,1.830,139.090,-60.3,0.400,-0.400,181.080,1000.0
2025-09-16T15:47:26.419954,5.840,1.830,139.090,-60.3,0.400,-0.400,181.080,1000.0
2025-09-16T15:47:26.463824,5.850,1.820,139.090,-60.3,0.400,-0.400,181.080,1000.0
2025-09-16T15:47:26.495047,5.850,1.830,139.090,-60.3,0.400,-0.400,181.080,1000.0
2025-09-16T15:47:26.508883,5.850,1.820,139.090,-60.3,0.400,-0.400,181.080,1000.0
2025-09-16T15:47:26.540566,5.850,1.820,139.090,-60.3,0.400,-0.400,181.080,1000.0
2025-09-16T15:47:26.541566,5.850,1.820,139.090,-60.3,0.400,-0.400,181.080,1000.0
2025-09-16T15:47:26.570910,5.850,1.820,139.090,-60.3,0.400,-0.400,181.080,1000.0
2025-09-16T15:47:26.600937,5.850,1.820,139.090,-60.3,0.400,-0.400,181.080,1000.0
2025-09-16T15:47:26.601938,5.840,1.820,139.090,-60.3,0.400,-0.400,181.080,1000.0
2025-09-16T15:47:26.631610,5.840,1.820,139.090,-60.3,0.400,-0.400,181.080,1000.0
2025-09-16T15:47:26.632610,5.840,1.830,139.090,-60.3,0.400,-0.400,181.080,1000.0
2025-09-16T15:47:26.661663,5.840,1.820,139.090,-60.3,0.400,-0.400,181.080,1000.0
2025-09-16T15:47:26.691468,5.830,1.830,139.090,-60.3,0.400,-0.400,181.080,1000.0
2025-09-16T15:47:26.693467,5.830,1.830,139.090,-60.3,0.400,-0.400,181.080,1000.0
2025-09-16T15:47:26.721282,5.830,1.820,139.090,-60.3,0.400,-0.400,181.080,1000.0
2025-09-16T15:47:26.722280,5.830,1.830,139.080,-60.3,0.400,-0.400,181.080,1000.0
2025-09-16T15:47:26.765988,5.820,1.830,139.080,-60.3,0.400,-0.400,181.080,1000.0
2025-09-16T15:47:26.796032,5.830,1.830,139.090,-60.3,0.400,-0.400,181.080,1000.0
2025-09-16T15:47:26.811023,5.820,1.830,139.090,-60.3,0.400,-0.400,181.080,1000.0
2025-09-16T15:47:26.825733,5.820,1.830,139.090,-60.3,0.400,-0.400,181.080,1000.0
2025-09-16T15:47:26.840898,5.820,1.830,139.090,-60.3,0.400,-0.400,181.080,1000.0
