Timestamp,Roll_Angle,Pitch_Angle,Yaw_Angle,Altitude,Roll_Setpoint,Pitch_Setpoint,Yaw_Setpoint,Altitude_Setpoint
2025-09-04T16:26:35.425363,-1.360,-2.500,0.350,-84.7,0.200,-0.300,180.360,1000.0
2025-09-04T16:26:35.427364,-1.360,-2.500,0.350,-84.7,0.200,-0.300,180.360,1000.0
2025-09-04T16:26:35.455395,-1.360,-2.500,0.350,-84.7,0.200,-0.300,180.360,1000.0
2025-09-04T16:26:35.486396,-1.360,-2.500,0.350,-84.7,0.200,-0.300,180.360,1000.0
2025-09-04T16:26:35.487395,-1.360,-2.500,0.350,-84.7,0.200,-0.300,180.360,1000.0
2025-09-04T16:26:35.594458,-1.360,-2.500,0.350,-84.7,0.200,-0.300,180.360,1000.0
2025-09-04T16:26:35.596446,-1.360,-2.500,0.350,-84.7,0.200,-0.300,180.360,1000.0
2025-09-04T16:26:35.597446,-1.360,-2.500,0.350,-84.7,0.200,-0.300,180.360,1000.0
2025-09-04T16:26:35.599452,-1.360,-2.500,0.350,-84.7,0.200,-0.300,180.360,1000.0
2025-09-04T16:26:35.600446,-1.360,-2.500,0.350,-84.7,0.200,-0.300,180.360,1000.0
2025-09-04T16:26:35.718289,-1.360,-2.500,0.350,-84.7,0.200,-0.300,180.360,1000.0
2025-09-04T16:26:35.719284,-1.360,-2.500,0.350,-84.7,0.200,-0.300,180.360,1000.0
2025-09-04T16:26:35.721284,-1.360,-2.500,0.350,-84.7,0.200,-0.300,180.360,1000.0
2025-09-04T16:26:35.722286,-1.350,-2.500,0.350,-84.7,0.200,-0.300,180.360,1000.0
2025-09-04T16:26:35.724285,-1.350,-2.500,0.350,-84.7,0.200,-0.300,180.360,1000.0
2025-09-04T16:26:35.830286,-1.350,-2.500,0.350,-84.7,0.200,-0.300,180.360,1000.0
2025-09-04T16:26:35.832285,-1.350,-2.500,0.350,-84.7,0.200,-0.300,180.360,1000.0
2025-09-04T16:26:35.833286,-1.350,-2.500,0.350,-84.7,0.200,-0.300,180.360,1000.0
2025-09-04T16:26:35.834285,-1.340,-2.500,0.350,-84.7,0.200,-0.300,180.360,1000.0
2025-09-04T16:26:35.836286,-1.340,-2.500,0.350,-84.7,0.200,-0.300,180.360,1000.0
2025-09-04T16:26:35.955500,-1.340,-2.500,0.350,-84.8,0.200,-0.300,180.360,1000.0
2025-09-04T16:26:35.958509,-1.340,-2.500,0.350,-84.8,0.200,-0.300,180.360,1000.0
2025-09-04T16:26:35.960494,-1.340,-2.500,0.350,-84.8,0.200,-0.300,180.360,1000.0
2025-09-04T16:26:35.962490,-1.340,-2.500,0.350,-84.8,0.200,-0.300,180.360,1000.0
2025-09-04T16:26:35.964491,-1.340,-2.500,0.350,-84.8,0.200,-0.300,180.360,1000.0
2025-09-04T16:26:36.076493,-1.330,-2.500,0.350,-84.8,0.200,-0.300,180.360,1000.0
2025-09-04T16:26:36.078491,-1.330,-2.500,0.350,-84.8,0.200,-0.300,180.360,1000.0
2025-09-04T16:26:36.080491,-1.330,-2.500,0.350,-84.8,0.200,-0.300,180.360,1000.0
2025-09-04T16:26:36.081489,-1.330,-2.500,0.350,-84.8,0.200,-0.300,180.360,1000.0
2025-09-04T16:26:36.082490,-1.330,-2.500,0.350,-84.8,0.200,-0.300,180.360,1000.0
2025-09-04T16:26:36.188490,-1.330,-2.500,0.350,-84.8,0.200,-0.300,180.360,1000.0
2025-09-04T16:26:36.190489,-1.330,-2.500,0.350,-84.8,0.200,-0.300,180.360,1000.0
2025-09-04T16:26:36.191495,-1.330,-2.500,0.350,-84.8,0.200,-0.300,180.360,1000.0
2025-09-04T16:26:36.193493,-1.330,-2.500,0.350,-84.8,0.200,-0.300,180.360,1000.0
2025-09-04T16:26:36.195491,-1.330,-2.500,0.350,-84.8,0.200,-0.300,180.360,1000.0
2025-09-04T16:26:36.312492,-1.320,-2.500,0.350,-84.8,0.200,-0.300,180.360,1000.0
2025-09-04T16:26:36.314492,-1.320,-2.500,0.350,-84.8,0.200,-0.300,180.360,1000.0
2025-09-04T16:26:36.315492,-1.320,-2.490,0.350,-84.8,0.200,-0.300,180.360,1000.0
2025-09-04T16:26:36.316493,-1.320,-2.490,0.350,-84.8,0.200,-0.300,180.360,1000.0
2025-09-04T16:26:36.318495,-1.320,-2.490,0.350,-84.8,0.200,-0.300,180.360,1000.0
2025-09-04T16:26:36.436004,-1.320,-2.480,0.350,-84.8,0.200,-0.300,180.360,1000.0
2025-09-04T16:26:36.438004,-1.320,-2.480,0.350,-84.8,0.200,-0.300,180.360,1000.0
2025-09-04T16:26:36.439004,-1.320,-2.480,0.350,-84.8,0.200,-0.300,180.360,1000.0
2025-09-04T16:26:36.442005,-1.320,-2.480,0.350,-84.8,0.200,-0.300,180.360,1000.0
2025-09-04T16:26:36.443007,-1.320,-2.480,0.350,-84.8,0.200,-0.300,180.360,1000.0
2025-09-04T16:26:36.559757,-1.320,-2.480,0.350,-84.8,0.200,-0.300,180.360,1000.0
2025-09-04T16:26:36.561752,-1.320,-2.480,0.350,-84.8,0.200,-0.300,180.360,1000.0
2025-09-04T16:26:36.562752,-1.320,-2.480,0.350,-84.8,0.200,-0.300,180.360,1000.0
2025-09-04T16:26:36.563751,-1.310,-2.470,0.350,-84.8,0.200,-0.300,180.360,1000.0
2025-09-04T16:26:36.564755,-1.310,-2.470,0.350,-84.8,0.200,-0.300,180.360,1000.0
2025-09-04T16:26:36.669509,-1.310,-2.470,0.350,-84.8,0.200,-0.300,180.360,1000.0
2025-09-04T16:26:36.670515,-1.310,-2.470,0.350,-84.8,0.200,-0.300,180.360,1000.0
2025-09-04T16:26:36.672510,-1.310,-2.480,0.350,-84.8,0.200,-0.300,180.360,1000.0
2025-09-04T16:26:36.673510,-1.310,-2.480,0.350,-84.8,0.200,-0.300,180.360,1000.0
2025-09-04T16:26:36.675511,-1.310,-2.480,0.350,-84.8,0.200,-0.300,180.360,1000.0
2025-09-04T16:26:36.794337,-1.310,-2.480,0.350,-84.8,0.200,-0.300,180.360,1000.0
2025-09-04T16:26:36.796339,-1.310,-2.480,0.350,-84.8,0.200,-0.300,180.360,1000.0
2025-09-04T16:26:36.798341,-1.320,-2.490,0.350,-84.8,0.200,-0.300,180.360,1000.0
2025-09-04T16:26:36.799348,-1.320,-2.500,0.350,-84.8,0.200,-0.300,180.360,1000.0
2025-09-04T16:26:36.800337,-1.320,-2.500,0.350,-84.8,0.200,-0.300,180.360,1000.0
2025-09-04T16:26:36.919104,-1.320,-2.500,0.350,-84.8,0.200,-0.300,180.360,1000.0
2025-09-04T16:26:36.920104,-1.310,-2.500,0.350,-84.8,0.200,-0.300,180.360,1000.0
2025-09-04T16:26:36.922104,-1.320,-2.490,0.350,-84.8,0.200,-0.300,180.360,1000.0
2025-09-04T16:26:36.923105,-1.320,-2.490,0.350,-84.8,0.200,-0.300,180.360,1000.0
2025-09-04T16:26:36.925108,-1.320,-2.490,0.350,-84.8,0.200,-0.300,180.360,1000.0
2025-09-04T16:26:37.029259,-1.320,-2.490,0.350,-84.8,0.200,-0.300,180.360,1000.0
2025-09-04T16:26:37.030259,-1.310,-2.480,0.350,-84.8,0.200,-0.300,180.360,1000.0
2025-09-04T16:26:37.032258,-1.310,-2.480,0.350,-84.8,0.200,-0.300,180.360,1000.0
2025-09-04T16:26:37.033259,-1.310,-2.480,0.340,-84.8,0.200,-0.300,180.360,1000.0
2025-09-04T16:26:37.034261,-1.310,-2.480,0.340,-84.8,0.200,-0.300,180.360,1000.0
2025-09-04T16:26:37.151259,-1.310,-2.480,0.340,-84.7,0.200,-0.300,180.360,1000.0
2025-09-04T16:26:37.152260,-1.310,-2.480,0.340,-84.7,0.200,-0.300,180.360,1000.0
2025-09-04T16:26:37.153262,-1.310,-2.480,0.340,-84.7,0.200,-0.300,180.360,1000.0
2025-09-04T16:26:37.154261,-1.310,-2.480,0.340,-84.7,0.200,-0.300,180.360,1000.0
2025-09-04T16:26:37.156262,-1.310,-2.480,0.340,-84.7,0.200,-0.300,180.360,1000.0
2025-09-04T16:26:37.273260,-1.310,-2.480,0.340,-84.7,0.200,-0.300,180.360,1000.0
2025-09-04T16:26:37.274259,-1.310,-2.480,0.340,-84.7,0.200,-0.300,180.360,1000.0
2025-09-04T16:26:37.275263,-1.300,-2.480,0.340,-84.7,0.200,-0.300,180.360,1000.0
2025-09-04T16:26:37.277264,-1.300,-2.480,0.340,-84.7,0.200,-0.300,180.360,1000.0
2025-09-04T16:26:37.278703,-1.300,-2.480,0.350,-84.8,0.200,-0.300,180.360,1000.0
2025-09-04T16:26:37.396042,-1.300,-2.480,0.350,-84.8,0.200,-0.300,180.360,1000.0
2025-09-04T16:26:37.398041,-1.290,-2.480,0.350,-84.8,0.200,-0.300,180.360,1000.0
2025-09-04T16:26:37.399051,-1.300,-2.480,0.350,-84.8,0.200,-0.300,180.360,1000.0
2025-09-04T16:26:37.400053,-1.300,-2.480,0.350,-84.8,0.200,-0.300,180.360,1000.0
2025-09-04T16:26:37.401047,-1.290,-2.490,0.350,-84.8,0.200,-0.300,180.360,1000.0
2025-09-04T16:26:37.520161,-1.290,-2.490,0.350,-84.8,0.200,-0.300,180.360,1000.0
2025-09-04T16:26:37.521167,-1.280,-2.490,0.350,-84.8,0.200,-0.300,180.360,1000.0
2025-09-04T16:26:37.522168,-1.280,-2.490,0.350,-84.8,0.200,-0.300,180.360,1000.0
2025-09-04T16:26:37.524168,-1.280,-2.490,0.350,-84.8,0.200,-0.300,180.360,1000.0
2025-09-04T16:26:37.525170,-1.280,-2.490,0.350,-84.8,0.200,-0.300,180.360,1000.0
2025-09-04T16:26:37.629989,-1.280,-2.490,0.350,-84.8,0.200,-0.300,180.360,1000.0
2025-09-04T16:26:37.630991,-1.280,-2.500,0.350,-84.8,0.200,-0.300,180.360,1000.0
2025-09-04T16:26:37.631990,-1.280,-2.500,0.350,-84.8,0.200,-0.300,180.360,1000.0
2025-09-04T16:26:37.632990,-1.280,-2.500,0.350,-84.8,0.200,-0.300,180.360,1000.0
2025-09-04T16:26:37.633992,-1.290,-2.500,0.350,-84.8,0.200,-0.300,180.360,1000.0
2025-09-04T16:26:37.752460,-1.290,-2.500,0.350,-84.8,0.200,-0.300,180.360,1000.0
2025-09-04T16:26:37.755462,-1.290,-2.500,0.350,-84.8,0.200,-0.300,180.360,1000.0
2025-09-04T16:26:37.756462,-1.290,-2.500,0.350,-84.8,0.200,-0.300,180.360,1000.0
2025-09-04T16:26:37.759461,-1.290,-2.500,0.350,-84.8,0.200,-0.300,180.360,1000.0
2025-09-04T16:26:37.760462,-1.290,-2.500,0.350,-84.8,0.200,-0.300,180.360,1000.0
2025-09-04T16:26:37.875825,-1.290,-2.500,0.360,-84.8,0.200,-0.300,180.360,1000.0
2025-09-04T16:26:37.877826,-1.290,-2.500,0.360,-84.8,0.200,-0.300,180.360,1000.0
2025-09-04T16:26:37.879827,-1.290,-2.500,0.350,-84.8,0.200,-0.300,180.360,1000.0
2025-09-04T16:26:37.880824,-1.290,-2.500,0.350,-84.8,0.200,-0.300,180.360,1000.0
2025-09-04T16:26:37.881824,-1.290,-2.500,0.350,-84.8,0.200,-0.300,180.360,1000.0
2025-09-04T16:26:37.996596,-1.300,-2.500,0.350,-84.8,0.200,-0.300,180.360,1000.0
2025-09-04T16:26:37.997597,-1.300,-2.500,0.350,-84.8,0.200,-0.300,180.360,1000.0
2025-09-04T16:26:37.999599,-1.300,-2.500,0.360,-84.8,0.200,-0.300,180.360,1000.0
2025-09-04T16:26:38.001598,-1.300,-2.500,0.360,-84.8,0.200,-0.300,180.360,1000.0
2025-09-04T16:26:38.003601,-1.300,-2.500,0.360,-84.8,0.200,-0.300,180.360,1000.0
2025-09-04T16:26:38.119643,-1.300,-2.500,0.370,-84.8,0.200,-0.300,180.360,1000.0
2025-09-04T16:26:38.121595,-1.300,-2.500,0.370,-84.8,0.200,-0.300,180.360,1000.0
2025-09-04T16:26:38.122638,-1.300,-2.500,0.370,-84.8,0.200,-0.300,180.360,1000.0
2025-09-04T16:26:38.123630,-1.300,-2.500,0.370,-84.8,0.200,-0.300,180.360,1000.0
2025-09-04T16:26:38.124597,-1.300,-2.500,0.370,-84.8,0.200,-0.300,180.360,1000.0
2025-09-04T16:26:38.239594,-1.300,-2.500,0.370,-84.8,0.200,-0.300,180.360,1000.0
2025-09-04T16:26:38.240594,-1.300,-2.500,0.370,-84.7,0.200,-0.300,180.360,1000.0
2025-09-04T16:26:38.241593,-1.300,-2.500,0.370,-84.7,0.200,-0.300,180.360,1000.0
2025-09-04T16:26:38.243597,-1.300,-2.500,0.370,-84.7,0.200,-0.300,180.360,1000.0
2025-09-04T16:26:38.244595,-1.300,-2.500,0.370,-84.7,0.200,-0.300,180.360,1000.0
2025-09-04T16:26:38.360595,-1.300,-2.500,0.370,-84.7,0.200,-0.300,180.360,1000.0
2025-09-04T16:26:38.362596,-1.300,-2.500,0.370,-84.7,0.200,-0.300,180.360,1000.0
2025-09-04T16:26:38.363594,-1.310,-2.500,0.370,-84.7,0.200,-0.300,180.360,1000.0
2025-09-04T16:26:38.364594,-1.310,-2.500,0.370,-84.7,0.200,-0.300,180.360,1000.0
2025-09-04T16:26:38.366594,-1.310,-2.500,0.370,-84.7,0.200,-0.300,180.360,1000.0
2025-09-04T16:26:38.470379,-1.310,-2.500,0.370,-84.7,0.200,-0.300,180.360,1000.0
2025-09-04T16:26:38.471379,-1.310,-2.500,0.370,-84.7,0.200,-0.300,180.360,1000.0
2025-09-04T16:26:38.472379,-1.310,-2.500,0.370,-84.7,0.200,-0.300,180.360,1000.0
2025-09-04T16:26:38.473379,-1.310,-2.500,0.370,-84.7,0.200,-0.300,180.360,1000.0
2025-09-04T16:26:38.474379,-1.310,-2.500,0.370,-84.7,0.200,-0.300,180.360,1000.0
2025-09-04T16:26:38.593368,-1.310,-2.500,0.370,-84.7,0.200,-0.300,180.360,1000.0
2025-09-04T16:26:38.596369,-1.310,-2.500,0.370,-84.7,0.200,-0.300,180.360,1000.0
2025-09-04T16:26:38.598369,-1.310,-2.500,0.370,-84.7,0.200,-0.300,180.360,1000.0
2025-09-04T16:26:38.600367,-1.310,-2.500,0.370,-84.8,0.200,-0.300,180.360,1000.0
2025-09-04T16:26:38.601365,-1.310,-2.500,0.370,-84.8,0.200,-0.300,180.360,1000.0
2025-09-04T16:26:38.715919,-1.310,-2.500,0.370,-84.8,0.200,-0.300,180.360,1000.0
2025-09-04T16:26:38.716911,-1.310,-2.500,0.370,-84.8,0.200,-0.300,180.360,1000.0
2025-09-04T16:26:38.717912,-1.310,-2.500,0.370,-84.8,0.200,-0.300,180.360,1000.0
2025-09-04T16:26:38.719911,-1.310,-2.500,0.370,-84.8,0.200,-0.300,180.360,1000.0
2025-09-04T16:26:38.720910,-1.310,-2.500,0.370,-84.8,0.200,-0.300,180.360,1000.0
2025-09-04T16:26:38.825205,-1.310,-2.500,0.360,-84.8,0.200,-0.300,180.360,1000.0
2025-09-04T16:26:38.827202,-1.310,-2.500,0.360,-84.8,0.200,-0.300,180.360,1000.0
2025-09-04T16:26:38.828203,-1.310,-2.500,0.360,-84.8,0.200,-0.300,180.360,1000.0
2025-09-04T16:26:38.830202,-1.310,-2.500,0.360,-84.8,0.200,-0.300,180.360,1000.0
2025-09-04T16:26:38.831204,-1.310,-2.500,0.360,-84.8,0.200,-0.300,180.360,1000.0
2025-09-04T16:26:38.949440,-1.310,-2.500,0.360,-84.8,0.200,-0.300,180.360,1000.0
2025-09-04T16:26:38.950438,-1.310,-2.500,0.360,-84.8,0.200,-0.300,180.360,1000.0
2025-09-04T16:26:38.951442,-1.310,-2.500,0.360,-84.8,0.200,-0.300,180.360,1000.0
2025-09-04T16:26:38.952488,-1.310,-2.500,0.370,-84.8,0.200,-0.300,180.360,1000.0
2025-09-04T16:26:38.954440,-1.310,-2.500,0.370,-84.8,0.200,-0.300,180.360,1000.0
2025-09-04T16:26:39.058438,-1.310,-2.500,0.370,-84.8,0.200,-0.300,180.360,1000.0
2025-09-04T16:26:39.060443,-1.310,-2.500,0.370,-84.8,0.200,-0.300,180.360,1000.0
2025-09-04T16:26:39.062444,-1.310,-2.500,0.370,-84.8,0.200,-0.300,180.360,1000.0
2025-09-04T16:26:39.064441,-1.310,-2.500,0.370,-84.8,0.200,-0.300,180.360,1000.0
2025-09-04T16:26:39.065443,-1.310,-2.500,0.370,-84.8,0.200,-0.300,180.360,1000.0
2025-09-04T16:26:39.169439,-1.310,-2.500,0.370,-84.8,0.200,-0.300,180.360,1000.0
2025-09-04T16:26:39.170438,-1.310,-2.500,0.370,-84.8,0.200,-0.300,180.360,1000.0
2025-09-04T16:26:39.172439,-1.320,-2.500,0.370,-84.8,0.200,-0.300,180.360,1000.0
2025-09-04T16:26:39.173439,-1.320,-2.500,0.370,-84.8,0.200,-0.300,180.360,1000.0
2025-09-04T16:26:39.174441,-1.320,-2.500,0.370,-84.8,0.200,-0.300,180.360,1000.0
2025-09-04T16:26:39.290440,-1.320,-2.500,0.370,-84.8,0.200,-0.300,180.360,1000.0
2025-09-04T16:26:39.292440,-1.320,-2.500,0.370,-84.8,0.200,-0.300,180.360,1000.0
2025-09-04T16:26:39.294443,-1.320,-2.500,0.370,-84.8,0.200,-0.300,180.360,1000.0
2025-09-04T16:26:39.297440,-1.320,-2.500,0.370,-84.8,0.200,-0.300,180.360,1000.0
2025-09-04T16:26:39.299441,-1.320,-2.500,0.370,-84.8,0.200,-0.300,180.360,1000.0
2025-09-04T16:26:39.412577,-1.320,-2.510,0.370,-84.8,0.200,-0.300,180.360,1000.0
2025-09-04T16:26:39.414576,-1.320,-2.510,0.370,-84.8,0.200,-0.300,180.360,1000.0
2025-09-04T16:26:39.415576,-1.310,-2.510,0.370,-84.8,0.200,-0.300,180.360,1000.0
2025-09-04T16:26:39.416574,-1.310,-2.510,0.370,-84.8,0.200,-0.300,180.360,1000.0
2025-09-04T16:26:39.417576,-1.310,-2.520,0.370,-84.8,0.200,-0.300,180.360,1000.0
2025-09-04T16:26:39.535823,-1.310,-2.520,0.370,-84.8,0.200,-0.300,180.360,1000.0
2025-09-04T16:26:39.536823,-1.300,-2.520,0.370,-84.8,0.200,-0.300,180.360,1000.0
2025-09-04T16:26:39.538823,-1.300,-2.520,0.370,-84.8,0.200,-0.300,180.360,1000.0
2025-09-04T16:26:39.539823,-1.300,-2.510,0.370,-84.8,0.200,-0.300,180.360,1000.0
2025-09-04T16:26:39.540824,-1.300,-2.510,0.370,-84.8,0.200,-0.300,180.360,1000.0
2025-09-04T16:26:39.658900,-1.300,-2.510,0.370,-84.8,0.200,-0.300,180.360,1000.0
2025-09-04T16:26:39.660907,-1.300,-2.510,0.370,-84.7,0.200,-0.300,180.360,1000.0
2025-09-04T16:26:39.662903,-1.300,-2.510,0.370,-84.7,0.200,-0.300,180.360,1000.0
2025-09-04T16:26:39.664902,-1.300,-2.500,0.370,-84.7,0.200,-0.300,180.360,1000.0
2025-09-04T16:26:39.665901,-1.300,-2.510,0.370,-84.7,0.200,-0.300,180.360,1000.0
2025-09-04T16:26:39.781516,-1.290,-2.500,0.370,-84.7,0.200,-0.300,180.360,1000.0
2025-09-04T16:26:39.782516,-1.290,-2.500,0.370,-84.7,0.200,-0.300,180.360,1000.0
2025-09-04T16:26:39.783516,-1.290,-2.500,0.370,-84.7,0.200,-0.300,180.360,1000.0
2025-09-04T16:26:39.785515,-1.290,-2.500,0.370,-84.7,0.200,-0.300,180.360,1000.0
2025-09-04T16:26:39.786516,-1.280,-2.500,0.370,-84.7,0.200,-0.300,180.360,1000.0
2025-09-04T16:26:39.889337,-1.280,-2.500,0.370,-84.7,0.200,-0.300,180.360,1000.0
2025-09-04T16:26:39.890336,-1.280,-2.500,0.370,-84.7,0.200,-0.300,180.360,1000.0
2025-09-04T16:26:39.892339,-1.280,-2.500,0.370,-84.7,0.200,-0.300,180.360,1000.0
2025-09-04T16:26:39.893338,-1.280,-2.500,0.360,-84.7,0.200,-0.300,180.360,1000.0
2025-09-04T16:26:39.895342,-1.280,-2.500,0.360,-84.7,0.200,-0.300,180.360,1000.0
2025-09-04T16:26:40.014625,-1.280,-2.500,0.360,-84.7,0.200,-0.300,180.360,1000.0
2025-09-04T16:26:40.015624,-1.280,-2.500,0.360,-84.7,0.200,-0.300,180.360,1000.0
2025-09-04T16:26:40.016624,-1.280,-2.500,0.360,-84.7,0.200,-0.300,180.360,1000.0
2025-09-04T16:26:40.017624,-1.280,-2.500,0.360,-84.7,0.200,-0.300,180.360,1000.0
2025-09-04T16:26:40.018625,-1.280,-2.500,0.360,-84.8,0.200,-0.300,180.360,1000.0
2025-09-04T16:26:40.122625,-1.280,-2.500,0.360,-84.8,0.200,-0.300,180.360,1000.0
2025-09-04T16:26:40.124624,-1.280,-2.500,0.360,-84.8,0.200,-0.300,180.360,1000.0
2025-09-04T16:26:40.125624,-1.280,-2.500,0.360,-84.8,0.200,-0.300,180.360,1000.0
2025-09-04T16:26:40.127627,-1.270,-2.500,0.360,-84.8,0.200,-0.300,180.360,1000.0
2025-09-04T16:26:40.128624,-1.270,-2.500,0.360,-84.8,0.200,-0.300,180.360,1000.0
2025-09-04T16:26:40.243627,-1.270,-2.500,0.360,-84.8,0.200,-0.300,180.360,1000.0
2025-09-04T16:26:40.246627,-1.270,-2.500,0.360,-84.8,0.200,-0.300,180.360,1000.0
2025-09-04T16:26:40.248625,-1.270,-2.500,0.360,-84.8,0.200,-0.300,180.360,1000.0
2025-09-04T16:26:40.249624,-1.270,-2.500,0.360,-84.8,0.200,-0.300,180.360,1000.0
2025-09-04T16:26:40.250624,-1.270,-2.500,0.360,-84.8,0.200,-0.300,180.360,1000.0
2025-09-04T16:26:40.368802,-1.270,-2.500,0.360,-84.8,0.200,-0.300,180.360,1000.0
2025-09-04T16:26:40.369802,-1.270,-2.500,0.360,-84.8,0.200,-0.300,180.360,1000.0
2025-09-04T16:26:40.370802,-1.270,-2.500,0.360,-84.7,0.200,-0.300,180.360,1000.0
2025-09-04T16:26:40.371802,-1.270,-2.500,0.360,-84.7,0.200,-0.300,180.360,1000.0
2025-09-04T16:26:40.372802,-1.270,-2.500,0.360,-84.7,0.200,-0.300,180.360,1000.0
2025-09-04T16:26:40.478692,-1.270,-2.500,0.360,-84.7,0.200,-0.300,180.360,1000.0
2025-09-04T16:26:40.479693,-1.270,-2.500,0.360,-84.7,0.200,-0.300,180.360,1000.0
2025-09-04T16:26:40.481697,-1.270,-2.500,0.360,-84.7,0.200,-0.300,180.360,1000.0
2025-09-04T16:26:40.482695,-1.270,-2.500,0.360,-84.7,0.200,-0.300,180.360,1000.0
2025-09-04T16:26:40.483692,-1.270,-2.500,0.360,-84.7,0.200,-0.300,180.360,1000.0
2025-09-04T16:26:40.600574,-1.270,-2.500,0.360,-84.7,0.200,-0.300,180.360,1000.0
2025-09-04T16:26:40.601566,-1.270,-2.500,0.360,-84.7,0.200,-0.300,180.360,1000.0
2025-09-04T16:26:40.603568,-1.270,-2.490,0.360,-84.7,0.200,-0.300,180.360,1000.0
2025-09-04T16:26:40.605571,-1.270,-2.490,0.360,-84.7,0.200,-0.300,180.360,1000.0
2025-09-04T16:26:40.607566,-1.270,-2.480,0.360,-84.7,0.200,-0.300,180.360,1000.0
2025-09-04T16:26:40.725549,-1.270,-2.480,0.360,-84.7,0.200,-0.300,180.360,1000.0
2025-09-04T16:26:40.727552,-1.270,-2.480,0.360,-84.7,0.200,-0.300,180.360,1000.0
2025-09-04T16:26:40.728550,-1.270,-2.480,0.360,-84.7,0.200,-0.300,180.360,1000.0
2025-09-04T16:26:40.730899,-1.270,-2.480,0.360,-84.7,0.200,-0.300,180.360,1000.0
2025-09-04T16:26:40.731550,-1.260,-2.480,0.360,-84.7,0.200,-0.300,180.360,1000.0
2025-09-04T16:26:40.850015,-1.260,-2.480,0.360,-84.7,0.200,-0.300,180.360,1000.0
2025-09-04T16:26:40.851016,-1.260,-2.480,0.360,-84.7,0.200,-0.300,180.360,1000.0
2025-09-04T16:26:40.852017,-1.260,-2.470,0.360,-84.7,0.200,-0.300,180.360,1000.0
2025-09-04T16:26:40.854015,-1.260,-2.470,0.360,-84.7,0.200,-0.300,180.360,1000.0
2025-09-04T16:26:40.855017,-1.260,-2.470,0.360,-84.7,0.200,-0.300,180.360,1000.0
2025-09-04T16:26:40.972894,-1.260,-2.470,0.360,-84.7,0.200,-0.300,180.360,1000.0
2025-09-04T16:26:40.974892,-1.260,-2.470,0.360,-84.7,0.200,-0.300,180.360,1000.0
2025-09-04T16:26:40.975892,-1.260,-2.470,0.360,-84.7,0.200,-0.300,180.360,1000.0
2025-09-04T16:26:40.977898,-1.260,-2.470,0.360,-84.7,0.200,-0.300,180.360,1000.0
2025-09-04T16:26:40.978899,-1.260,-2.460,0.360,-84.7,0.200,-0.300,180.360,1000.0
2025-09-04T16:26:41.098893,-1.260,-2.460,0.360,-84.7,0.200,-0.300,180.360,1000.0
2025-09-04T16:26:41.100892,-1.260,-2.460,0.360,-84.7,0.200,-0.300,180.360,1000.0
2025-09-04T16:26:41.101893,-1.260,-2.460,0.360,-84.7,0.200,-0.300,180.360,1000.0
2025-09-04T16:26:41.102892,-1.260,-2.460,0.360,-84.7,0.200,-0.300,180.360,1000.0
2025-09-04T16:26:41.104893,-1.260,-2.460,0.360,-84.7,0.200,-0.300,180.360,1000.0
2025-09-04T16:26:41.220921,-1.260,-2.460,0.360,-84.7,0.200,-0.300,180.360,1000.0
2025-09-04T16:26:41.222921,-1.260,-2.460,0.360,-84.7,0.200,-0.300,180.360,1000.0
2025-09-04T16:26:41.223923,-1.260,-2.460,0.360,-84.7,0.200,-0.300,180.360,1000.0
2025-09-04T16:26:41.225921,-1.260,-2.460,0.360,-84.7,0.200,-0.300,180.360,1000.0
2025-09-04T16:26:41.226925,-1.260,-2.460,0.360,-84.7,0.200,-0.300,180.360,1000.0
2025-09-04T16:26:41.345924,-1.260,-2.460,0.360,-84.7,0.200,-0.300,180.360,1000.0
2025-09-04T16:26:41.348923,-1.260,-2.460,0.360,-84.7,0.200,-0.300,180.360,1000.0
2025-09-04T16:26:41.350922,-1.260,-2.460,0.360,-84.7,0.200,-0.300,180.360,1000.0
2025-09-04T16:26:41.352922,-1.260,-2.460,0.360,-84.7,0.200,-0.300,180.360,1000.0
2025-09-04T16:26:41.353923,-1.260,-2.460,0.360,-84.7,0.200,-0.300,180.360,1000.0
2025-09-04T16:26:41.468159,-1.260,-2.450,0.360,-84.7,0.200,-0.300,180.360,1000.0
2025-09-04T16:26:41.470160,-1.260,-2.450,0.360,-84.7,0.200,-0.300,180.360,1000.0
2025-09-04T16:26:41.471160,-1.260,-2.450,0.360,-84.7,0.200,-0.300,180.360,1000.0
2025-09-04T16:26:41.472160,-1.260,-2.450,0.360,-84.7,0.200,-0.300,180.360,1000.0
2025-09-04T16:26:41.473161,-1.260,-2.450,0.360,-84.7,0.200,-0.300,180.360,1000.0
2025-09-04T16:26:41.577878,-1.260,-2.450,0.360,-84.7,0.200,-0.300,180.360,1000.0
2025-09-04T16:26:41.579882,-1.260,-2.450,0.360,-84.7,0.200,-0.300,180.360,1000.0
2025-09-04T16:26:41.580880,-1.260,-2.450,0.360,-84.7,0.200,-0.300,180.360,1000.0
2025-09-04T16:26:41.582878,-1.260,-2.460,0.360,-84.7,0.200,-0.300,180.360,1000.0
2025-09-04T16:26:41.583877,-1.260,-2.460,0.360,-84.7,0.200,-0.300,180.360,1000.0
2025-09-04T16:26:41.700609,-1.260,-2.470,0.360,-84.7,0.200,-0.300,180.360,1000.0
2025-09-04T16:26:41.701626,-1.260,-2.470,0.360,-84.7,0.200,-0.300,180.360,1000.0
2025-09-04T16:26:41.702614,-1.260,-2.470,0.360,-84.7,0.200,-0.300,180.360,1000.0
2025-09-04T16:26:41.703614,-1.260,-2.480,0.360,-84.7,0.200,-0.300,180.360,1000.0
2025-09-04T16:26:41.704614,-1.260,-2.480,0.360,-84.8,0.200,-0.300,180.360,1000.0
2025-09-04T16:26:41.811442,-1.260,-2.480,0.360,-84.8,0.200,-0.300,180.360,1000.0
2025-09-04T16:26:41.813441,-1.260,-2.480,0.360,-84.8,0.200,-0.300,180.360,1000.0
2025-09-04T16:26:41.814440,-1.260,-2.480,0.360,-84.8,0.200,-0.300,180.360,1000.0
2025-09-04T16:26:41.816440,-1.260,-2.480,0.360,-84.8,0.200,-0.300,180.360,1000.0
2025-09-04T16:26:41.817440,-1.260,-2.480,0.360,-84.8,0.200,-0.300,180.360,1000.0
2025-09-04T16:26:41.932627,-1.260,-2.480,0.360,-84.8,0.200,-0.300,180.360,1000.0
2025-09-04T16:26:41.933626,-1.260,-2.480,0.360,-84.8,0.200,-0.300,180.360,1000.0
2025-09-04T16:26:41.935626,-1.260,-2.490,0.360,-84.8,0.200,-0.300,180.360,1000.0
2025-09-04T16:26:41.936626,-1.260,-2.490,0.360,-84.8,0.200,-0.300,180.360,1000.0
2025-09-04T16:26:41.937626,-1.260,-2.490,0.360,-84.8,0.200,-0.300,180.360,1000.0
2025-09-04T16:26:42.040625,-1.260,-2.490,0.360,-84.8,0.200,-0.300,180.360,1000.0
2025-09-04T16:26:42.041624,-1.260,-2.490,0.360,-84.8,0.200,-0.300,180.360,1000.0
2025-09-04T16:26:42.042625,-1.260,-2.490,0.360,-84.8,0.200,-0.300,180.360,1000.0
2025-09-04T16:26:42.044629,-1.260,-2.490,0.360,-84.8,0.200,-0.300,180.360,1000.0
2025-09-04T16:26:42.046627,-1.260,-2.490,0.360,-84.8,0.200,-0.300,180.360,1000.0
2025-09-04T16:26:42.165626,-1.260,-2.490,0.360,-84.8,0.200,-0.300,180.360,1000.0
2025-09-04T16:26:42.167630,-1.260,-2.490,0.360,-84.7,0.200,-0.300,180.360,1000.0
2025-09-04T16:26:42.168629,-1.260,-2.490,0.360,-84.7,0.200,-0.300,180.360,1000.0
2025-09-04T16:26:42.169630,-1.260,-2.490,0.360,-84.7,0.200,-0.300,180.360,1000.0
2025-09-04T16:26:42.170631,-1.260,-2.500,0.360,-84.7,0.200,-0.300,180.360,1000.0
2025-09-04T16:26:42.288632,-1.260,-2.500,0.360,-84.7,0.200,-0.300,180.360,1000.0
2025-09-04T16:26:42.290625,-1.260,-2.500,0.360,-84.7,0.200,-0.300,180.360,1000.0
2025-09-04T16:26:42.291628,-1.260,-2.500,0.360,-84.7,0.200,-0.300,180.360,1000.0
2025-09-04T16:26:42.292627,-1.260,-2.500,0.360,-84.7,0.200,-0.300,180.360,1000.0
2025-09-04T16:26:42.294631,-1.260,-2.500,0.360,-84.7,0.200,-0.300,180.360,1000.0
2025-09-04T16:26:42.400628,-1.260,-2.500,0.360,-84.7,0.200,-0.300,180.360,1000.0
2025-09-04T16:26:42.401625,-1.260,-2.500,0.360,-84.7,0.200,-0.300,180.360,1000.0
2025-09-04T16:26:42.403627,-1.260,-2.500,0.360,-84.7,0.200,-0.300,180.360,1000.0
2025-09-04T16:26:42.404636,-1.260,-2.500,0.360,-84.7,0.200,-0.300,180.360,1000.0
2025-09-04T16:26:42.405627,-1.260,-2.500,0.360,-84.7,0.200,-0.300,180.360,1000.0
2025-09-04T16:26:42.523627,-1.260,-2.500,0.360,-84.7,0.200,-0.300,180.360,1000.0
2025-09-04T16:26:42.524631,-1.260,-2.500,0.360,-84.7,0.200,-0.300,180.360,1000.0
2025-09-04T16:26:42.526626,-1.260,-2.500,0.360,-84.7,0.200,-0.300,180.360,1000.0
2025-09-04T16:26:42.527630,-1.260,-2.500,0.360,-84.7,0.200,-0.300,180.360,1000.0
2025-09-04T16:26:42.529629,-1.260,-2.500,0.360,-84.7,0.200,-0.300,180.360,1000.0
2025-09-04T16:26:42.647049,-1.260,-2.500,0.360,-84.7,0.200,-0.300,180.360,1000.0
2025-09-04T16:26:42.650050,-1.260,-2.500,0.360,-84.7,0.200,-0.300,180.360,1000.0
2025-09-04T16:26:42.652047,-1.260,-2.500,0.360,-84.7,0.200,-0.300,180.360,1000.0
2025-09-04T16:26:42.653048,-1.260,-2.490,0.360,-84.7,0.200,-0.300,180.360,1000.0
2025-09-04T16:26:42.654049,-1.260,-2.490,0.360,-84.7,0.200,-0.300,180.360,1000.0
2025-09-04T16:26:42.769211,-1.260,-2.480,0.360,-84.7,0.200,-0.300,180.360,1000.0
2025-09-04T16:26:42.770210,-1.260,-2.480,0.360,-84.7,0.200,-0.300,180.360,1000.0
2025-09-04T16:26:42.771211,-1.260,-2.480,0.360,-84.7,0.200,-0.300,180.360,1000.0
2025-09-04T16:26:42.773212,-1.260,-2.480,0.360,-84.7,0.200,-0.300,180.360,1000.0
2025-09-04T16:26:42.774211,-1.260,-2.480,0.360,-84.7,0.200,-0.300,180.360,1000.0
2025-09-04T16:26:42.878583,-1.260,-2.480,0.360,-84.7,0.200,-0.300,180.360,1000.0
2025-09-04T16:26:42.880583,-1.260,-2.480,0.360,-84.7,0.200,-0.300,180.360,1000.0
2025-09-04T16:26:42.882583,-1.260,-2.480,0.360,-84.7,0.200,-0.300,180.360,1000.0
2025-09-04T16:26:42.883584,-1.260,-2.480,0.360,-84.7,0.200,-0.300,180.360,1000.0
2025-09-04T16:26:42.885583,-1.260,-2.470,0.360,-84.7,0.200,-0.300,180.360,1000.0
2025-09-04T16:26:43.001763,-1.260,-2.470,0.360,-84.7,0.200,-0.300,180.360,1000.0
2025-09-04T16:26:43.002763,-1.260,-2.470,0.360,-84.7,0.200,-0.300,180.360,1000.0
2025-09-04T16:26:43.004763,-1.260,-2.470,0.360,-84.7,0.200,-0.300,180.360,1000.0
2025-09-04T16:26:43.005765,-1.260,-2.470,0.360,-84.7,0.200,-0.300,180.360,1000.0
2025-09-04T16:26:43.006764,-1.260,-2.470,0.360,-84.7,0.200,-0.300,180.360,1000.0
2025-09-04T16:26:43.110772,-1.260,-2.470,0.360,-84.7,0.200,-0.300,180.360,1000.0
2025-09-04T16:26:43.113771,-1.260,-2.470,0.360,-84.7,0.200,-0.300,180.360,1000.0
2025-09-04T16:26:43.114764,-1.260,-2.470,0.360,-84.7,0.200,-0.300,180.360,1000.0
2025-09-04T16:26:43.116767,-1.260,-2.470,0.360,-84.7,0.200,-0.300,180.360,1000.0
2025-09-04T16:26:43.117767,-1.260,-2.470,0.360,-84.7,0.200,-0.300,180.360,1000.0
2025-09-04T16:26:43.234762,-1.260,-2.480,0.360,-84.7,0.200,-0.300,180.360,1000.0
2025-09-04T16:26:43.235763,-1.270,-2.480,0.360,-84.7,0.200,-0.300,180.360,1000.0
2025-09-04T16:26:43.237765,-1.270,-2.480,0.360,-84.7,0.200,-0.300,180.360,1000.0
2025-09-04T16:26:43.238765,-1.280,-2.480,0.360,-84.7,0.200,-0.300,180.360,1000.0
2025-09-04T16:26:43.239767,-1.280,-2.480,0.360,-84.7,0.200,-0.300,180.360,1000.0
2025-09-04T16:26:43.355762,-1.280,-2.480,0.360,-84.7,0.200,-0.300,180.360,1000.0
2025-09-04T16:26:43.357763,-1.280,-2.480,0.360,-84.7,0.200,-0.300,180.360,1000.0
2025-09-04T16:26:43.359762,-1.280,-2.480,0.360,-84.7,0.200,-0.300,180.360,1000.0
2025-09-04T16:26:43.361764,-1.280,-2.480,0.360,-84.7,0.200,-0.300,180.360,1000.0
2025-09-04T16:26:43.362763,-1.290,-2.490,0.360,-84.7,0.200,-0.300,180.360,1000.0
2025-09-04T16:26:43.480891,-1.290,-2.490,0.360,-84.7,0.200,-0.300,180.360,1000.0
2025-09-04T16:26:43.482893,-1.290,-2.490,0.360,-84.7,0.200,-0.300,180.360,1000.0
2025-09-04T16:26:43.484891,-1.290,-2.490,0.360,-84.7,0.200,-0.300,180.360,1000.0
2025-09-04T16:26:43.486894,-1.290,-2.490,0.360,-84.7,0.200,-0.300,180.360,1000.0
2025-09-04T16:26:43.487892,-1.300,-2.490,0.360,-84.8,0.200,-0.300,180.360,1000.0
2025-09-04T16:26:43.603784,-1.300,-2.490,0.360,-84.8,0.200,-0.300,180.360,1000.0
2025-09-04T16:26:43.604794,-1.290,-2.490,0.360,-84.8,0.200,-0.300,180.360,1000.0
2025-09-04T16:26:43.605783,-1.290,-2.490,0.360,-84.8,0.200,-0.300,180.360,1000.0
2025-09-04T16:26:43.606783,-1.290,-2.500,0.360,-84.8,0.200,-0.300,180.360,1000.0
2025-09-04T16:26:43.607786,-1.280,-2.500,0.360,-84.8,0.200,-0.300,180.360,1000.0
2025-09-04T16:26:43.726204,-1.280,-2.500,0.360,-84.8,0.200,-0.300,180.360,1000.0
2025-09-04T16:26:43.728215,-1.280,-2.500,0.360,-84.8,0.200,-0.300,180.360,1000.0
2025-09-04T16:26:43.730204,-1.280,-2.500,0.360,-84.8,0.200,-0.300,180.360,1000.0
2025-09-04T16:26:43.731205,-1.280,-2.500,0.360,-84.8,0.200,-0.300,180.360,1000.0
2025-09-04T16:26:43.732207,-1.280,-2.500,0.360,-84.8,0.200,-0.300,180.360,1000.0
2025-09-04T16:26:43.837536,-1.280,-2.500,0.360,-84.8,0.200,-0.300,180.360,1000.0
2025-09-04T16:26:43.838536,-1.280,-2.500,0.360,-84.8,0.200,-0.300,180.360,1000.0
2025-09-04T16:26:43.839537,-1.280,-2.500,0.360,-84.7,0.200,-0.300,180.360,1000.0
2025-09-04T16:26:43.840537,-1.280,-2.500,0.360,-84.7,0.200,-0.300,180.360,1000.0
2025-09-04T16:26:43.842539,-1.280,-2.500,0.360,-84.7,0.200,-0.300,180.360,1000.0
2025-09-04T16:26:43.959536,-1.280,-2.500,0.360,-84.7,0.200,-0.300,180.360,1000.0
2025-09-04T16:26:43.961537,-1.280,-2.500,0.360,-84.7,0.200,-0.300,180.360,1000.0
2025-09-04T16:26:43.963538,-1.270,-2.500,0.360,-84.7,0.200,-0.300,180.360,1000.0
2025-09-04T16:26:43.965539,-1.270,-2.500,0.360,-84.8,0.200,-0.300,180.360,1000.0
2025-09-04T16:26:43.967539,-1.270,-2.500,0.360,-84.8,0.200,-0.300,180.360,1000.0
2025-09-04T16:26:44.083536,-1.270,-2.500,0.360,-84.8,0.200,-0.300,180.360,1000.0
2025-09-04T16:26:44.084535,-1.270,-2.500,0.360,-84.8,0.200,-0.300,180.360,1000.0
2025-09-04T16:26:44.085536,-1.270,-2.500,0.360,-84.8,0.200,-0.300,180.360,1000.0
2025-09-04T16:26:44.087538,-1.270,-2.500,0.360,-84.8,0.200,-0.300,180.360,1000.0
2025-09-04T16:26:44.088536,-1.270,-2.500,0.360,-84.8,0.200,-0.300,180.360,1000.0
2025-09-04T16:26:44.191537,-1.270,-2.500,0.360,-84.8,0.200,-0.300,180.360,1000.0
2025-09-04T16:26:44.193537,-1.270,-2.500,0.360,-84.8,0.200,-0.300,180.360,1000.0
2025-09-04T16:26:44.197539,-1.270,-2.500,0.360,-84.8,0.200,-0.300,180.360,1000.0
2025-09-04T16:26:44.198538,-1.270,-2.500,0.360,-84.8,0.200,-0.300,180.360,1000.0
2025-09-04T16:26:44.200537,-1.270,-2.500,0.360,-84.8,0.200,-0.300,180.360,1000.0
2025-09-04T16:26:44.315537,-1.270,-2.500,0.360,-84.8,0.200,-0.300,180.360,1000.0
2025-09-04T16:26:44.317536,-1.270,-2.500,0.360,-84.8,0.200,-0.300,180.360,1000.0
2025-09-04T16:26:44.318536,-1.270,-2.500,0.360,-84.8,0.200,-0.300,180.360,1000.0
2025-09-04T16:26:44.319537,-1.270,-2.500,0.360,-84.8,0.200,-0.300,180.360,1000.0
2025-09-04T16:26:44.320538,-1.270,-2.500,0.360,-84.8,0.200,-0.300,180.360,1000.0
2025-09-04T16:26:44.437963,-1.270,-2.500,0.360,-84.8,0.200,-0.300,180.360,1000.0
2025-09-04T16:26:44.439971,-1.270,-2.500,0.360,-84.7,0.200,-0.300,180.360,1000.0
2025-09-04T16:26:44.440963,-1.270,-2.500,0.360,-84.7,0.200,-0.300,180.360,1000.0
2025-09-04T16:26:44.441963,-1.270,-2.500,0.360,-84.7,0.200,-0.300,180.360,1000.0
2025-09-04T16:26:44.442962,-1.270,-2.500,0.360,-84.7,0.200,-0.300,180.360,1000.0
2025-09-04T16:26:44.560574,-1.270,-2.500,0.360,-84.7,0.200,-0.300,180.360,1000.0
2025-09-04T16:26:44.562575,-1.270,-2.500,0.360,-84.7,0.200,-0.300,180.360,1000.0
2025-09-04T16:26:44.564579,-1.260,-2.500,0.360,-84.7,0.200,-0.300,180.360,1000.0
2025-09-04T16:26:44.565577,-1.260,-2.500,0.360,-84.7,0.200,-0.300,180.360,1000.0
2025-09-04T16:26:44.567574,-1.260,-2.500,0.360,-84.7,0.200,-0.300,180.360,1000.0
2025-09-04T16:26:44.686733,-1.260,-2.500,0.360,-84.7,0.200,-0.300,180.360,1000.0
2025-09-04T16:26:44.687733,-1.260,-2.500,0.360,-84.7,0.200,-0.300,180.360,1000.0
2025-09-04T16:26:44.688742,-1.260,-2.500,0.360,-84.7,0.200,-0.300,180.360,1000.0
2025-09-04T16:26:44.689733,-1.260,-2.500,0.360,-84.7,0.200,-0.300,180.360,1000.0
2025-09-04T16:26:44.690732,-1.260,-2.500,0.360,-84.7,0.200,-0.300,180.360,1000.0
2025-09-04T16:26:44.797976,-1.260,-2.500,0.360,-84.7,0.200,-0.300,180.360,1000.0
2025-09-04T16:26:44.799976,-1.260,-2.500,0.360,-84.8,0.200,-0.300,180.360,1000.0
2025-09-04T16:26:44.800975,-1.260,-2.500,0.360,-84.8,0.200,-0.300,180.360,1000.0
2025-09-04T16:26:44.801973,-1.260,-2.500,0.360,-84.8,0.200,-0.300,180.360,1000.0
2025-09-04T16:26:44.802973,-1.260,-2.500,0.360,-84.8,0.200,-0.300,180.360,1000.0
2025-09-04T16:26:44.920493,-1.260,-2.500,0.360,-84.8,0.200,-0.300,180.360,1000.0
2025-09-04T16:26:44.921494,-1.260,-2.500,0.360,-84.8,0.200,-0.300,180.360,1000.0
2025-09-04T16:26:44.922494,-1.260,-2.500,0.360,-84.8,0.200,-0.300,180.360,1000.0
2025-09-04T16:26:44.923505,-1.260,-2.500,0.360,-84.8,0.200,-0.300,180.360,1000.0
2025-09-04T16:26:44.924496,-1.260,-2.500,0.360,-84.8,0.200,-0.300,180.360,1000.0
2025-09-04T16:26:45.043494,-1.260,-2.500,0.360,-84.8,0.200,-0.300,180.360,1000.0
2025-09-04T16:26:45.047496,-1.260,-2.500,0.360,-84.8,0.200,-0.300,180.360,1000.0
2025-09-04T16:26:45.050499,-1.260,-2.500,0.360,-84.8,0.200,-0.300,180.360,1000.0
2025-09-04T16:26:45.051497,-1.260,-2.500,0.360,-84.7,0.200,-0.300,180.360,1000.0
2025-09-04T16:26:45.053496,-1.260,-2.490,0.360,-84.7,0.200,-0.300,180.360,1000.0
2025-09-04T16:26:45.166493,-1.260,-2.490,0.360,-84.7,0.200,-0.300,180.360,1000.0
2025-09-04T16:26:45.167495,-1.260,-2.490,0.360,-84.7,0.200,-0.300,180.360,1000.0
2025-09-04T16:26:45.168493,-1.260,-2.480,0.360,-84.7,0.200,-0.300,180.360,1000.0
2025-09-04T16:26:45.169493,-1.270,-2.480,0.360,-84.7,0.200,-0.300,180.360,1000.0
2025-09-04T16:26:45.170495,-1.270,-2.480,0.360,-84.7,0.200,-0.300,180.360,1000.0
2025-09-04T16:26:45.275493,-1.270,-2.480,0.360,-84.7,0.200,-0.300,180.360,1000.0
2025-09-04T16:26:45.277494,-1.270,-2.480,0.360,-84.7,0.200,-0.300,180.360,1000.0
2025-09-04T16:26:45.278494,-1.270,-2.480,0.360,-84.7,0.200,-0.300,180.360,1000.0
2025-09-04T16:26:45.279497,-1.270,-2.480,0.360,-84.7,0.200,-0.300,180.360,1000.0
2025-09-04T16:26:45.281497,-1.270,-2.470,0.360,-84.7,0.200,-0.300,180.360,1000.0
2025-09-04T16:26:45.401322,-1.270,-2.470,0.360,-84.7,0.200,-0.300,180.360,1000.0
2025-09-04T16:26:45.403329,-1.270,-2.470,0.360,-84.7,0.200,-0.300,180.360,1000.0
2025-09-04T16:26:45.404319,-1.270,-2.470,0.360,-84.7,0.200,-0.300,180.360,1000.0
2025-09-04T16:26:45.405322,-1.270,-2.470,0.360,-84.8,0.200,-0.300,180.360,1000.0
2025-09-04T16:26:45.406320,-1.270,-2.470,0.360,-84.8,0.200,-0.300,180.360,1000.0
2025-09-04T16:26:45.524031,-1.270,-2.470,0.360,-84.8,0.200,-0.300,180.360,1000.0
2025-09-04T16:26:45.525019,-1.270,-2.470,0.360,-84.8,0.200,-0.300,180.360,1000.0
2025-09-04T16:26:45.526020,-1.270,-2.460,0.360,-84.8,0.200,-0.300,180.360,1000.0
2025-09-04T16:26:45.527018,-1.270,-2.460,0.360,-84.8,0.200,-0.300,180.360,1000.0
2025-09-04T16:26:45.528018,-1.270,-2.460,0.360,-84.8,0.200,-0.300,180.360,1000.0
2025-09-04T16:26:45.646813,-1.270,-2.470,0.360,-84.8,0.200,-0.300,180.360,1000.0
2025-09-04T16:26:45.648814,-1.260,-2.470,0.360,-84.8,0.200,-0.300,180.360,1000.0
2025-09-04T16:26:45.651812,-1.260,-2.480,0.360,-84.8,0.200,-0.300,180.360,1000.0
2025-09-04T16:26:45.653810,-1.260,-2.480,0.360,-84.8,0.200,-0.300,180.360,1000.0
2025-09-04T16:26:45.654809,-1.260,-2.480,0.360,-84.8,0.200,-0.300,180.360,1000.0
2025-09-04T16:26:45.772208,-1.260,-2.480,0.360,-84.8,0.200,-0.300,180.360,1000.0
2025-09-04T16:26:45.773208,-1.260,-2.480,0.360,-84.8,0.200,-0.300,180.360,1000.0
2025-09-04T16:26:45.775207,-1.260,-2.480,0.360,-84.8,0.200,-0.300,180.360,1000.0
2025-09-04T16:26:45.776207,-1.260,-2.480,0.360,-84.7,0.200,-0.300,180.360,1000.0
2025-09-04T16:26:45.777207,-1.260,-2.480,0.360,-84.7,0.200,-0.300,180.360,1000.0
2025-09-04T16:26:45.895208,-1.260,-2.480,0.360,-84.7,0.200,-0.300,180.360,1000.0
2025-09-04T16:26:45.897207,-1.260,-2.480,0.360,-84.7,0.200,-0.300,180.360,1000.0
2025-09-04T16:26:45.899212,-1.260,-2.480,0.360,-84.7,0.200,-0.300,180.360,1000.0
2025-09-04T16:26:45.901209,-1.260,-2.490,0.360,-84.7,0.200,-0.300,180.360,1000.0
2025-09-04T16:26:45.902208,-1.260,-2.490,0.360,-84.7,0.200,-0.300,180.360,1000.0
2025-09-04T16:26:46.021207,-1.260,-2.490,0.360,-84.8,0.200,-0.300,180.360,1000.0
2025-09-04T16:26:46.022206,-1.260,-2.480,0.360,-84.8,0.200,-0.300,180.360,1000.0
2025-09-04T16:26:46.024208,-1.260,-2.480,0.360,-84.8,0.200,-0.300,180.360,1000.0
2025-09-04T16:26:46.025206,-1.260,-2.480,0.360,-84.8,0.200,-0.300,180.360,1000.0
2025-09-04T16:26:46.026208,-1.260,-2.480,0.360,-84.8,0.200,-0.300,180.360,1000.0
2025-09-04T16:26:46.131206,-1.260,-2.480,0.360,-84.8,0.200,-0.300,180.360,1000.0
2025-09-04T16:26:46.132208,-1.260,-2.480,0.360,-84.8,0.200,-0.300,180.360,1000.0
2025-09-04T16:26:46.133210,-1.260,-2.480,0.360,-84.8,0.200,-0.300,180.360,1000.0
2025-09-04T16:26:46.135208,-1.260,-2.480,0.360,-84.8,0.200,-0.300,180.360,1000.0
2025-09-04T16:26:46.136208,-1.260,-2.480,0.360,-84.8,0.200,-0.300,180.360,1000.0
2025-09-04T16:26:46.252206,-1.260,-2.480,0.360,-84.8,0.200,-0.300,180.360,1000.0
2025-09-04T16:26:46.255207,-1.260,-2.480,0.360,-84.8,0.200,-0.300,180.360,1000.0
2025-09-04T16:26:46.256208,-1.260,-2.480,0.360,-84.8,0.200,-0.300,180.360,1000.0
2025-09-04T16:26:46.257208,-1.260,-2.480,0.360,-84.8,0.200,-0.300,180.360,1000.0
2025-09-04T16:26:46.259208,-1.260,-2.480,0.360,-84.8,0.200,-0.300,180.360,1000.0
2025-09-04T16:26:46.375207,-1.260,-2.480,0.360,-84.8,0.200,-0.300,180.360,1000.0
2025-09-04T16:26:46.377207,-1.260,-2.490,0.360,-84.8,0.200,-0.300,180.360,1000.0
2025-09-04T16:26:46.378207,-1.260,-2.490,0.360,-84.8,0.200,-0.300,180.360,1000.0
2025-09-04T16:26:46.379207,-1.260,-2.490,0.360,-84.8,0.200,-0.300,180.360,1000.0
2025-09-04T16:26:46.381207,-1.260,-2.490,0.360,-84.8,0.200,-0.300,180.360,1000.0
2025-09-04T16:26:46.497991,-1.260,-2.490,0.360,-84.8,0.200,-0.300,180.360,1000.0
2025-09-04T16:26:46.499992,-1.260,-2.490,0.360,-84.8,0.200,-0.300,180.360,1000.0
2025-09-04T16:26:46.500991,-1.260,-2.490,0.360,-84.8,0.200,-0.300,180.360,1000.0
2025-09-04T16:26:46.501994,-1.260,-2.490,0.360,-84.8,0.200,-0.300,180.360,1000.0
2025-09-04T16:26:46.502991,-1.260,-2.490,0.360,-84.8,0.200,-0.300,180.360,1000.0
2025-09-04T16:26:46.618533,-1.260,-2.490,0.360,-84.8,0.200,-0.300,180.360,1000.0
2025-09-04T16:26:46.620523,-1.260,-2.500,0.360,-84.8,0.200,-0.300,180.360,1000.0
2025-09-04T16:26:46.622525,-1.260,-2.500,0.360,-84.8,0.200,-0.300,180.360,1000.0
2025-09-04T16:26:46.623525,-1.260,-2.500,0.360,-84.8,0.200,-0.300,180.360,1000.0
2025-09-04T16:26:46.625521,-1.260,-2.500,0.360,-84.8,0.200,-0.300,180.360,1000.0
2025-09-04T16:26:46.741540,-1.260,-2.500,0.360,-84.7,0.200,-0.300,180.360,1000.0
2025-09-04T16:26:46.742541,-1.250,-2.500,0.360,-84.8,0.200,-0.300,180.360,1000.0
2025-09-04T16:26:46.743576,-1.250,-2.500,0.360,-84.8,0.200,-0.300,180.360,1000.0
2025-09-04T16:26:46.745543,-1.240,-2.490,0.360,-84.8,0.200,-0.300,180.360,1000.0
2025-09-04T16:26:46.746542,-1.240,-2.490,0.360,-84.8,0.200,-0.300,180.360,1000.0
2025-09-04T16:26:46.864793,-1.240,-2.480,0.360,-84.8,0.200,-0.300,180.360,1000.0
2025-09-04T16:26:46.865793,-1.240,-2.490,0.360,-84.8,0.200,-0.300,180.360,1000.0
2025-09-04T16:26:46.866792,-1.240,-2.490,0.360,-84.8,0.200,-0.300,180.360,1000.0
2025-09-04T16:26:46.867792,-1.240,-2.490,0.360,-84.8,0.200,-0.300,180.360,1000.0
2025-09-04T16:26:46.868793,-1.240,-2.490,0.360,-84.8,0.200,-0.300,180.360,1000.0
2025-09-04T16:26:46.986611,-1.240,-2.490,0.360,-84.8,0.200,-0.300,180.360,1000.0
2025-09-04T16:26:46.987612,-1.250,-2.490,0.360,-84.8,0.200,-0.300,180.360,1000.0
2025-09-04T16:26:46.989612,-1.250,-2.490,0.360,-84.8,0.200,-0.300,180.360,1000.0
2025-09-04T16:26:46.990614,-1.250,-2.490,0.360,-84.7,0.200,-0.300,180.360,1000.0
2025-09-04T16:26:46.991613,-1.250,-2.480,0.360,-84.7,0.200,-0.300,180.360,1000.0
2025-09-04T16:26:47.110612,-1.250,-2.480,0.360,-84.7,0.200,-0.300,180.360,1000.0
2025-09-04T16:26:47.111611,-1.260,-2.480,0.360,-84.7,0.200,-0.300,180.360,1000.0
2025-09-04T16:26:47.113615,-1.260,-2.480,0.360,-84.7,0.200,-0.300,180.360,1000.0
2025-09-04T16:26:47.114617,-1.260,-2.480,0.360,-84.7,0.200,-0.300,180.360,1000.0
2025-09-04T16:26:47.116614,-1.260,-2.480,0.360,-84.7,0.200,-0.300,180.360,1000.0
2025-09-04T16:26:47.234613,-1.260,-2.480,0.360,-84.7,0.200,-0.300,180.360,1000.0
2025-09-04T16:26:47.236652,-1.260,-2.470,0.360,-84.7,0.200,-0.300,180.360,1000.0
2025-09-04T16:26:47.237612,-1.260,-2.470,0.360,-84.7,0.200,-0.300,180.360,1000.0
2025-09-04T16:26:47.238625,-1.260,-2.470,0.360,-84.8,0.200,-0.300,180.360,1000.0
2025-09-04T16:26:47.239613,-1.260,-2.470,0.360,-84.8,0.200,-0.300,180.360,1000.0
2025-09-04T16:26:47.357925,-1.260,-2.470,0.360,-84.8,0.200,-0.300,180.360,1000.0
2025-09-04T16:26:47.358924,-1.260,-2.470,0.360,-84.8,0.200,-0.300,180.360,1000.0
2025-09-04T16:26:47.359924,-1.260,-2.470,0.360,-84.8,0.200,-0.300,180.360,1000.0
2025-09-04T16:26:47.360926,-1.260,-2.480,0.360,-84.8,0.200,-0.300,180.360,1000.0
2025-09-04T16:26:47.362928,-1.260,-2.480,0.360,-84.8,0.200,-0.300,180.360,1000.0
2025-09-04T16:26:47.467885,-1.260,-2.470,0.360,-84.8,0.200,-0.300,180.360,1000.0
2025-09-04T16:26:47.469884,-1.250,-2.470,0.360,-84.7,0.200,-0.300,180.360,1000.0
2025-09-04T16:26:47.470885,-1.250,-2.470,0.360,-84.7,0.200,-0.300,180.360,1000.0
2025-09-04T16:26:47.471884,-1.250,-2.470,0.360,-84.7,0.200,-0.300,180.360,1000.0
2025-09-04T16:26:47.472885,-1.240,-2.470,0.360,-84.7,0.200,-0.300,180.360,1000.0
2025-09-04T16:26:47.588540,-1.240,-2.470,0.360,-84.8,0.200,-0.300,180.360,1000.0
2025-09-04T16:26:47.589527,-1.240,-2.460,0.360,-84.8,0.200,-0.300,180.360,1000.0
2025-09-04T16:26:47.590525,-1.240,-2.460,0.360,-84.8,0.200,-0.300,180.360,1000.0
2025-09-04T16:26:47.591526,-1.240,-2.460,0.360,-84.8,0.200,-0.300,180.360,1000.0
2025-09-04T16:26:47.592535,-1.240,-2.460,0.360,-84.8,0.200,-0.300,180.360,1000.0
2025-09-04T16:26:47.695913,-1.240,-2.460,0.360,-84.8,0.200,-0.300,180.360,1000.0
2025-09-04T16:26:47.697918,-1.240,-2.460,0.360,-84.8,0.200,-0.300,180.360,1000.0
2025-09-04T16:26:47.698920,-1.240,-2.470,0.360,-84.8,0.200,-0.300,180.360,1000.0
2025-09-04T16:26:47.700918,-1.240,-2.470,0.360,-84.8,0.200,-0.300,180.360,1000.0
2025-09-04T16:26:47.701922,-1.230,-2.480,0.360,-84.8,0.200,-0.300,180.360,1000.0
2025-09-04T16:26:47.821321,-1.230,-2.480,0.360,-84.8,0.200,-0.300,180.360,1000.0
2025-09-04T16:26:47.822320,-1.230,-2.480,0.360,-84.8,0.200,-0.300,180.360,1000.0
2025-09-04T16:26:47.823321,-1.240,-2.480,0.360,-84.8,0.200,-0.300,180.360,1000.0
2025-09-04T16:26:47.824320,-1.240,-2.480,0.360,-84.8,0.200,-0.300,180.360,1000.0
2025-09-04T16:26:47.825322,-1.240,-2.480,0.360,-84.8,0.200,-0.300,180.360,1000.0
2025-09-04T16:26:47.930069,-1.240,-2.480,0.360,-84.8,0.200,-0.300,180.360,1000.0
2025-09-04T16:26:47.932072,-1.240,-2.480,0.360,-84.8,0.200,-0.300,180.360,1000.0
2025-09-04T16:26:47.934072,-1.240,-2.480,0.360,-84.7,0.200,-0.300,180.360,1000.0
2025-09-04T16:26:47.936069,-1.240,-2.480,0.360,-84.7,0.200,-0.300,180.360,1000.0
2025-09-04T16:26:47.938072,-1.250,-2.480,0.360,-84.7,0.200,-0.300,180.360,1000.0
2025-09-04T16:26:48.056173,-1.250,-2.480,0.360,-84.7,0.200,-0.300,180.360,1000.0
2025-09-04T16:26:48.057186,-1.250,-2.480,0.360,-84.7,0.200,-0.300,180.360,1000.0
2025-09-04T16:26:48.058173,-1.250,-2.480,0.360,-84.7,0.200,-0.300,180.360,1000.0
2025-09-04T16:26:48.059172,-1.250,-2.480,0.360,-84.7,0.200,-0.300,180.360,1000.0
2025-09-04T16:26:48.060172,-1.250,-2.480,0.360,-84.7,0.200,-0.300,180.360,1000.0
2025-09-04T16:26:48.178173,-1.260,-2.480,0.360,-84.7,0.200,-0.300,180.360,1000.0
2025-09-04T16:26:48.180181,-1.260,-2.480,0.360,-84.7,0.200,-0.300,180.360,1000.0
2025-09-04T16:26:48.182176,-1.260,-2.480,0.360,-84.7,0.200,-0.300,180.360,1000.0
2025-09-04T16:26:48.184177,-1.260,-2.480,0.360,-84.7,0.200,-0.300,180.360,1000.0
2025-09-04T16:26:48.185179,-1.260,-2.490,0.360,-84.7,0.200,-0.300,180.360,1000.0
2025-09-04T16:26:48.302174,-1.260,-2.490,0.360,-84.7,0.200,-0.300,180.360,1000.0
2025-09-04T16:26:48.303173,-1.260,-2.490,0.360,-84.7,0.200,-0.300,180.360,1000.0
2025-09-04T16:26:48.304173,-1.260,-2.490,0.360,-84.7,0.200,-0.300,180.360,1000.0
2025-09-04T16:26:48.306174,-1.260,-2.490,0.360,-84.7,0.200,-0.300,180.360,1000.0
2025-09-04T16:26:48.307172,-1.250,-2.490,0.360,-84.7,0.200,-0.300,180.360,1000.0
2025-09-04T16:26:48.424705,-1.250,-2.490,0.360,-84.7,0.200,-0.300,180.360,1000.0
2025-09-04T16:26:48.425746,-1.250,-2.490,0.360,-84.8,0.200,-0.300,180.360,1000.0
2025-09-04T16:26:48.426706,-1.240,-2.490,0.360,-84.8,0.200,-0.300,180.360,1000.0
2025-09-04T16:26:48.427704,-1.240,-2.490,0.360,-84.8,0.200,-0.300,180.360,1000.0
2025-09-04T16:26:48.428705,-1.240,-2.490,0.360,-84.8,0.200,-0.300,180.360,1000.0
2025-09-04T16:26:48.546556,-1.170,-2.480,0.340,-84.8,0.200,-0.300,180.360,1000.0
2025-09-04T16:26:48.550559,-1.100,-2.460,0.320,-84.8,0.200,-0.300,180.360,1000.0
2025-09-04T16:26:48.552556,-1.070,-2.430,0.320,-84.8,0.200,-0.300,180.360,1000.0
2025-09-04T16:26:48.553555,-1.100,-2.420,0.320,-84.7,0.200,-0.300,180.360,1000.0
2025-09-04T16:26:48.554567,-1.140,-2.440,0.320,-84.7,0.200,-0.300,180.360,1000.0
2025-09-04T16:26:48.669844,-1.190,-2.470,0.330,-84.7,0.200,-0.300,180.360,1000.0
2025-09-04T16:26:48.671159,-1.220,-2.500,0.340,-84.7,0.200,-0.300,180.360,1000.0
2025-09-04T16:26:48.672165,-1.210,-2.490,0.340,-84.7,0.200,-0.300,180.360,1000.0
2025-09-04T16:26:48.673164,-1.180,-2.450,0.340,-84.8,0.200,-0.300,180.360,1000.0
2025-09-04T16:26:48.674163,-1.170,-2.430,0.330,-84.8,0.200,-0.300,180.360,1000.0
2025-09-04T16:26:48.780033,-1.190,-2.440,0.340,-84.8,0.200,-0.300,180.360,1000.0
2025-09-04T16:26:48.781034,-1.210,-2.460,0.340,-84.8,0.200,-0.300,180.360,1000.0
2025-09-04T16:26:48.783036,-1.210,-2.470,0.340,-84.7,0.200,-0.300,180.360,1000.0
2025-09-04T16:26:48.785038,-1.190,-2.460,0.340,-84.7,0.200,-0.300,180.360,1000.0
2025-09-04T16:26:48.786040,-1.180,-2.450,0.340,-84.7,0.200,-0.300,180.360,1000.0
2025-09-04T16:26:48.903260,-1.170,-2.440,0.340,-84.7,0.200,-0.300,180.360,1000.0
2025-09-04T16:26:48.904263,-1.180,-2.450,0.340,-84.7,0.200,-0.300,180.360,1000.0
2025-09-04T16:26:48.905264,-1.190,-2.460,0.340,-84.7,0.200,-0.300,180.360,1000.0
2025-09-04T16:26:48.906264,-1.190,-2.450,0.340,-84.7,0.200,-0.300,180.360,1000.0
2025-09-04T16:26:48.908263,-1.190,-2.450,0.340,-84.7,0.200,-0.300,180.360,1000.0
2025-09-04T16:26:49.027299,-1.180,-2.450,0.340,-84.7,0.200,-0.300,180.360,1000.0
2025-09-04T16:26:49.028299,-1.180,-2.450,0.340,-84.7,0.200,-0.300,180.360,1000.0
2025-09-04T16:26:49.029299,-1.180,-2.450,0.340,-84.8,0.200,-0.300,180.360,1000.0
2025-09-04T16:26:49.030298,-1.190,-2.450,0.340,-84.8,0.200,-0.300,180.360,1000.0
2025-09-04T16:26:49.032299,-1.180,-2.450,0.340,-84.8,0.200,-0.300,180.360,1000.0
2025-09-04T16:26:49.147298,-1.180,-2.450,0.340,-84.8,0.200,-0.300,180.360,1000.0
2025-09-04T16:26:49.151300,-1.180,-2.440,0.340,-84.8,0.200,-0.300,180.360,1000.0
2025-09-04T16:26:49.153300,-1.180,-2.440,0.350,-84.8,0.200,-0.300,180.360,1000.0
2025-09-04T16:26:49.154301,-1.190,-2.440,0.340,-84.8,0.200,-0.300,180.360,1000.0
2025-09-04T16:26:49.155299,-1.190,-2.440,0.340,-84.8,0.200,-0.300,180.360,1000.0
2025-09-04T16:26:49.273299,-1.180,-2.440,0.340,-84.8,0.200,-0.300,180.360,1000.0
2025-09-04T16:26:49.275297,-1.180,-2.440,0.340,-84.8,0.200,-0.300,180.360,1000.0
2025-09-04T16:26:49.282299,-1.180,-2.430,0.340,-84.8,0.200,-0.300,180.360,1000.0
2025-09-04T16:26:49.284301,-1.180,-2.430,0.340,-84.8,0.200,-0.300,180.360,1000.0
2025-09-04T16:26:49.286301,-1.160,-2.450,0.360,-84.8,0.200,-0.300,180.360,1000.0
2025-09-04T16:26:49.397052,-1.160,-2.450,0.360,-84.8,0.200,-0.300,180.360,1000.0
2025-09-04T16:26:49.399054,-1.150,-2.450,0.360,-84.8,0.200,-0.300,180.360,1000.0
2025-09-04T16:26:49.400055,-1.150,-2.450,0.360,-84.8,0.200,-0.300,180.360,1000.0
2025-09-04T16:26:49.402057,-1.150,-2.450,0.360,-84.8,0.200,-0.300,180.360,1000.0
2025-09-04T16:26:49.403054,-1.150,-2.450,0.360,-84.8,0.200,-0.300,180.360,1000.0
2025-09-04T16:26:49.520053,-1.150,-2.450,0.360,-84.8,0.200,-0.300,180.360,1000.0
2025-09-04T16:26:49.521052,-1.150,-2.450,0.360,-84.8,0.200,-0.300,180.360,1000.0
2025-09-04T16:26:49.523056,-1.150,-2.450,0.360,-84.8,0.200,-0.300,180.360,1000.0
2025-09-04T16:26:49.524056,-1.150,-2.450,0.360,-84.7,0.200,-0.300,180.360,1000.0
2025-09-04T16:26:49.525054,-1.150,-2.450,0.360,-84.7,0.200,-0.300,180.360,1000.0
2025-09-04T16:26:49.643441,-1.140,-2.450,0.360,-84.7,0.200,-0.300,180.360,1000.0
2025-09-04T16:26:49.646440,-1.140,-2.450,0.350,-84.7,0.200,-0.300,180.360,1000.0
2025-09-04T16:26:49.649441,-1.140,-2.450,0.360,-84.7,0.200,-0.300,180.360,1000.0
2025-09-04T16:26:49.650440,-1.140,-2.450,0.360,-84.8,0.200,-0.300,180.360,1000.0
2025-09-04T16:26:49.651441,-1.140,-2.450,0.360,-84.8,0.200,-0.300,180.360,1000.0
2025-09-04T16:26:49.767535,-1.140,-2.450,0.360,-84.8,0.200,-0.300,180.360,1000.0
2025-09-04T16:26:49.770531,-1.140,-2.450,0.360,-84.8,0.200,-0.300,180.360,1000.0
2025-09-04T16:26:49.771532,-1.140,-2.460,0.350,-84.8,0.200,-0.300,180.360,1000.0
2025-09-04T16:26:49.773534,-1.140,-2.460,0.350,-84.8,0.200,-0.300,180.360,1000.0
2025-09-04T16:26:49.775533,-1.140,-2.450,0.350,-84.8,0.200,-0.300,180.360,1000.0
2025-09-04T16:26:49.889512,-1.140,-2.450,0.360,-84.8,0.200,-0.300,180.360,1000.0
2025-09-04T16:26:49.890509,-1.140,-2.450,0.350,-84.8,0.200,-0.300,180.360,1000.0
2025-09-04T16:26:49.891508,-1.140,-2.450,0.360,-84.8,0.200,-0.300,180.360,1000.0
2025-09-04T16:26:49.893509,-1.140,-2.460,0.350,-84.8,0.200,-0.300,180.360,1000.0
2025-09-04T16:26:49.894508,-1.150,-2.460,0.350,-84.8,0.200,-0.300,180.360,1000.0
2025-09-04T16:26:50.010449,-1.150,-2.460,0.350,-84.8,0.200,-0.300,180.360,1000.0
2025-09-04T16:26:50.012450,-1.160,-2.450,0.350,-84.8,0.200,-0.300,180.360,1000.0
2025-09-04T16:26:50.013460,-1.160,-2.450,0.350,-84.8,0.200,-0.300,180.360,1000.0
2025-09-04T16:26:50.014449,-1.160,-2.450,0.350,-84.8,0.200,-0.300,180.360,1000.0
2025-09-04T16:26:50.016451,-1.160,-2.450,0.350,-84.8,0.200,-0.300,180.360,1000.0
2025-09-04T16:26:50.135451,-1.160,-2.450,0.360,-84.8,0.200,-0.300,180.360,1000.0
2025-09-04T16:26:50.136449,-1.160,-2.440,0.350,-84.8,0.200,-0.300,180.360,1000.0
2025-09-04T16:26:50.137450,-1.160,-2.440,0.350,-84.8,0.200,-0.300,180.360,1000.0
2025-09-04T16:26:50.138449,-1.160,-2.430,0.350,-84.8,0.200,-0.300,180.360,1000.0
2025-09-04T16:26:50.139449,-1.170,-2.430,0.350,-84.8,0.200,-0.300,180.360,1000.0
2025-09-04T16:26:50.244449,-1.170,-2.430,0.350,-84.8,0.200,-0.300,180.360,1000.0
2025-09-04T16:26:50.246450,-1.160,-2.430,0.350,-84.8,0.200,-0.300,180.360,1000.0
2025-09-04T16:26:50.249453,-1.160,-2.430,0.350,-84.8,0.200,-0.300,180.360,1000.0
2025-09-04T16:26:50.250453,-1.160,-2.430,0.350,-84.8,0.200,-0.300,180.360,1000.0
2025-09-04T16:26:50.252451,-1.160,-2.430,0.340,-84.8,0.200,-0.300,180.360,1000.0
2025-09-04T16:26:50.367673,-1.160,-2.420,0.350,-84.8,0.200,-0.300,180.360,1000.0
2025-09-04T16:26:50.368672,-1.170,-2.420,0.340,-84.8,0.200,-0.300,180.360,1000.0
2025-09-04T16:26:50.369671,-1.170,-2.420,0.350,-84.8,0.200,-0.300,180.360,1000.0
2025-09-04T16:26:50.371670,-1.170,-2.410,0.350,-84.8,0.200,-0.300,180.360,1000.0
2025-09-04T16:26:50.372670,-1.170,-2.410,0.350,-84.8,0.200,-0.300,180.360,1000.0
2025-09-04T16:26:50.492040,-1.170,-2.410,0.350,-84.8,0.200,-0.300,180.360,1000.0
2025-09-04T16:26:50.493040,-1.170,-2.410,0.350,-84.8,0.200,-0.300,180.360,1000.0
2025-09-04T16:26:50.494040,-1.170,-2.410,0.350,-84.8,0.200,-0.300,180.360,1000.0
2025-09-04T16:26:50.495040,-1.170,-2.410,0.350,-84.8,0.200,-0.300,180.360,1000.0
2025-09-04T16:26:50.496040,-1.170,-2.400,0.340,-84.8,0.200,-0.300,180.360,1000.0
2025-09-04T16:26:50.614490,-1.170,-2.400,0.340,-84.8,0.200,-0.300,180.360,1000.0
2025-09-04T16:26:50.616491,-1.170,-2.400,0.340,-84.8,0.200,-0.300,180.360,1000.0
2025-09-04T16:26:50.618492,-1.170,-2.410,0.340,-84.8,0.200,-0.300,180.360,1000.0
2025-09-04T16:26:50.619492,-1.170,-2.410,0.340,-84.8,0.200,-0.300,180.360,1000.0
2025-09-04T16:26:50.620491,-1.170,-2.420,0.340,-84.8,0.200,-0.300,180.360,1000.0
2025-09-04T16:26:50.738773,-1.170,-2.420,0.340,-84.8,0.200,-0.300,180.360,1000.0
2025-09-04T16:26:50.739771,-1.170,-2.430,0.340,-84.8,0.200,-0.300,180.360,1000.0
2025-09-04T16:26:50.740782,-1.170,-2.430,0.340,-84.8,0.200,-0.300,180.360,1000.0
2025-09-04T16:26:50.742772,-1.170,-2.430,0.340,-84.8,0.200,-0.300,180.360,1000.0
2025-09-04T16:26:50.743772,-1.170,-2.430,0.340,-84.8,0.200,-0.300,180.360,1000.0
2025-09-04T16:26:50.861108,-1.170,-2.430,0.340,-84.8,0.200,-0.300,180.360,1000.0
2025-09-04T16:26:50.862107,-1.170,-2.430,0.340,-84.8,0.200,-0.300,180.360,1000.0
2025-09-04T16:26:50.863106,-1.170,-2.430,0.340,-84.8,0.200,-0.300,180.360,1000.0
2025-09-04T16:26:50.865115,-1.170,-2.430,0.340,-84.8,0.200,-0.300,180.360,1000.0
2025-09-04T16:26:50.867110,-1.170,-2.430,0.340,-84.8,0.200,-0.300,180.360,1000.0
2025-09-04T16:26:50.985016,-1.170,-2.430,0.340,-84.8,0.200,-0.300,180.360,1000.0
2025-09-04T16:26:50.987018,-1.170,-2.430,0.340,-84.8,0.200,-0.300,180.360,1000.0
2025-09-04T16:26:50.989016,-1.170,-2.430,0.340,-84.8,0.200,-0.300,180.360,1000.0
2025-09-04T16:26:50.990016,-1.170,-2.430,0.340,-84.8,0.200,-0.300,180.360,1000.0
2025-09-04T16:26:50.991015,-1.170,-2.430,0.340,-84.8,0.200,-0.300,180.360,1000.0
2025-09-04T16:26:51.096016,-1.160,-2.430,0.340,-84.8,0.200,-0.300,180.360,1000.0
2025-09-04T16:26:51.098014,-1.160,-2.440,0.340,-84.8,0.200,-0.300,180.360,1000.0
2025-09-04T16:26:51.099019,-1.160,-2.440,0.340,-84.8,0.200,-0.300,180.360,1000.0
2025-09-04T16:26:51.101018,-1.160,-2.440,0.340,-84.8,0.200,-0.300,180.360,1000.0
2025-09-04T16:26:51.102019,-1.160,-2.440,0.340,-84.8,0.200,-0.300,180.360,1000.0
2025-09-04T16:26:51.218019,-1.160,-2.440,0.340,-84.8,0.200,-0.300,180.360,1000.0
2025-09-04T16:26:51.220015,-1.160,-2.430,0.340,-84.8,0.200,-0.300,180.360,1000.0
2025-09-04T16:26:51.221016,-1.170,-2.430,0.340,-84.8,0.200,-0.300,180.360,1000.0
2025-09-04T16:26:51.222017,-1.170,-2.430,0.340,-84.8,0.200,-0.300,180.360,1000.0
2025-09-04T16:26:51.223016,-1.170,-2.430,0.340,-84.8,0.200,-0.300,180.360,1000.0
2025-09-04T16:26:51.341531,-1.170,-2.430,0.340,-84.8,0.200,-0.300,180.360,1000.0
2025-09-04T16:26:51.343533,-1.170,-2.430,0.340,-84.8,0.200,-0.300,180.360,1000.0
2025-09-04T16:26:51.345532,-1.170,-2.430,0.340,-84.8,0.200,-0.300,180.360,1000.0
2025-09-04T16:26:51.346533,-1.170,-2.430,0.340,-84.8,0.200,-0.300,180.360,1000.0
2025-09-04T16:26:51.348531,-1.170,-2.430,0.340,-84.8,0.200,-0.300,180.360,1000.0
2025-09-04T16:26:51.465373,-1.170,-2.430,0.340,-84.8,0.200,-0.300,180.360,1000.0
2025-09-04T16:26:51.467375,-1.170,-2.430,0.340,-84.8,0.200,-0.300,180.360,1000.0
2025-09-04T16:26:51.468372,-1.170,-2.430,0.340,-84.8,0.200,-0.300,180.360,1000.0
2025-09-04T16:26:51.470375,-1.170,-2.430,0.340,-84.8,0.200,-0.300,180.360,1000.0
2025-09-04T16:26:51.471372,-1.170,-2.440,0.340,-84.8,0.200,-0.300,180.360,1000.0
2025-09-04T16:26:51.587043,-1.170,-2.440,0.340,-84.8,0.200,-0.300,180.360,1000.0
2025-09-04T16:26:51.588016,-1.170,-2.440,0.340,-84.8,0.200,-0.300,180.360,1000.0
2025-09-04T16:26:51.590015,-1.170,-2.440,0.340,-84.8,0.200,-0.300,180.360,1000.0
2025-09-04T16:26:51.591015,-1.170,-2.440,0.340,-84.8,0.200,-0.300,180.360,1000.0
2025-09-04T16:26:51.592015,-1.170,-2.430,0.340,-84.8,0.200,-0.300,180.360,1000.0
2025-09-04T16:26:51.695316,-1.170,-2.430,0.340,-84.8,0.200,-0.300,180.360,1000.0
2025-09-04T16:26:51.696316,-1.170,-2.430,0.340,-84.8,0.200,-0.300,180.360,1000.0
2025-09-04T16:26:51.697317,-1.170,-2.430,0.340,-84.8,0.200,-0.300,180.360,1000.0
2025-09-04T16:26:51.698316,-1.170,-2.430,0.340,-84.8,0.200,-0.300,180.360,1000.0
2025-09-04T16:26:51.700320,-1.170,-2.430,0.340,-84.8,0.200,-0.300,180.360,1000.0
2025-09-04T16:26:51.820153,-1.170,-2.430,0.340,-84.8,0.200,-0.300,180.360,1000.0
2025-09-04T16:26:51.821155,-1.170,-2.430,0.340,-84.8,0.200,-0.300,180.360,1000.0
2025-09-04T16:26:51.822152,-1.170,-2.430,0.340,-84.8,0.200,-0.300,180.360,1000.0
2025-09-04T16:26:51.824153,-1.170,-2.420,0.340,-84.8,0.200,-0.300,180.360,1000.0
2025-09-04T16:26:51.825154,-1.170,-2.420,0.340,-84.8,0.200,-0.300,180.360,1000.0
2025-09-04T16:26:51.943015,-1.170,-2.420,0.340,-84.8,0.200,-0.300,180.360,1000.0
2025-09-04T16:26:51.944530,-1.170,-2.420,0.340,-84.8,0.200,-0.300,180.360,1000.0
2025-09-04T16:26:51.946529,-1.170,-2.420,0.340,-84.8,0.200,-0.300,180.360,1000.0
2025-09-04T16:26:51.948530,-1.170,-2.420,0.340,-84.8,0.200,-0.300,180.360,1000.0
2025-09-04T16:26:51.950574,-1.170,-2.420,0.340,-84.8,0.200,-0.300,180.360,1000.0
2025-09-04T16:26:52.069056,-1.170,-2.420,0.340,-84.8,0.200,-0.300,180.360,1000.0
2025-09-04T16:26:52.070053,-1.170,-2.420,0.340,-84.8,0.200,-0.300,180.360,1000.0
2025-09-04T16:26:52.072054,-1.170,-2.420,0.340,-84.8,0.200,-0.300,180.360,1000.0
2025-09-04T16:26:52.073053,-1.170,-2.410,0.340,-84.8,0.200,-0.300,180.360,1000.0
2025-09-04T16:26:52.074053,-1.160,-2.410,0.340,-84.8,0.200,-0.300,180.360,1000.0
2025-09-04T16:26:52.192056,-1.160,-2.410,0.340,-84.8,0.200,-0.300,180.360,1000.0
2025-09-04T16:26:52.193053,-1.160,-2.410,0.340,-84.8,0.200,-0.300,180.360,1000.0
2025-09-04T16:26:52.195053,-1.150,-2.410,0.340,-84.8,0.200,-0.300,180.360,1000.0
2025-09-04T16:26:52.196053,-1.150,-2.410,0.340,-84.8,0.200,-0.300,180.360,1000.0
2025-09-04T16:26:52.197054,-1.150,-2.410,0.340,-84.8,0.200,-0.300,180.360,1000.0
2025-09-04T16:26:52.302056,-1.150,-2.410,0.340,-84.8,0.200,-0.300,180.360,1000.0
2025-09-04T16:26:52.304055,-1.150,-2.410,0.340,-84.8,0.200,-0.300,180.360,1000.0
2025-09-04T16:26:52.306054,-1.150,-2.410,0.340,-84.8,0.200,-0.300,180.360,1000.0
2025-09-04T16:26:52.308054,-1.150,-2.410,0.340,-84.8,0.200,-0.300,180.360,1000.0
2025-09-04T16:26:52.309052,-1.150,-2.410,0.340,-84.8,0.200,-0.300,180.360,1000.0
2025-09-04T16:26:52.422762,-1.150,-2.410,0.340,-84.8,0.200,-0.300,180.360,1000.0
2025-09-04T16:26:52.423744,-1.140,-2.410,0.340,-84.8,0.200,-0.300,180.360,1000.0
2025-09-04T16:26:52.424723,-1.140,-2.410,0.340,-84.8,0.200,-0.300,180.360,1000.0
2025-09-04T16:26:52.425723,-1.140,-2.410,0.340,-84.8,0.200,-0.300,180.360,1000.0
2025-09-04T16:26:52.426769,-1.140,-2.410,0.340,-84.8,0.200,-0.300,180.360,1000.0
2025-09-04T16:26:52.532657,-1.140,-2.410,0.340,-84.8,0.200,-0.300,180.360,1000.0
2025-09-04T16:26:52.534659,-1.140,-2.410,0.340,-84.8,0.200,-0.300,180.360,1000.0
2025-09-04T16:26:52.535658,-1.140,-2.410,0.340,-84.8,0.200,-0.300,180.360,1000.0
2025-09-04T16:26:52.537658,-1.140,-2.420,0.340,-84.8,0.200,-0.300,180.360,1000.0
2025-09-04T16:26:52.538656,-1.140,-2.420,0.340,-84.8,0.200,-0.300,180.360,1000.0
2025-09-04T16:26:52.653300,-1.150,-2.420,0.340,-84.8,0.200,-0.300,180.360,1000.0
2025-09-04T16:26:52.654306,-1.150,-2.430,0.340,-84.8,0.200,-0.300,180.360,1000.0
2025-09-04T16:26:52.656300,-1.150,-2.430,0.340,-84.8,0.200,-0.300,180.360,1000.0
2025-09-04T16:26:52.658302,-1.150,-2.430,0.340,-84.8,0.200,-0.300,180.360,1000.0
2025-09-04T16:26:52.660301,-1.150,-2.430,0.340,-84.8,0.200,-0.300,180.360,1000.0
2025-09-04T16:26:52.775329,-1.150,-2.430,0.340,-84.9,0.200,-0.300,180.360,1000.0
2025-09-04T16:26:52.776376,-1.150,-2.430,0.340,-84.9,0.200,-0.300,180.360,1000.0
2025-09-04T16:26:52.778330,-1.150,-2.430,0.340,-84.9,0.200,-0.300,180.360,1000.0
2025-09-04T16:26:52.779329,-1.150,-2.440,0.340,-84.8,0.200,-0.300,180.360,1000.0
2025-09-04T16:26:52.780328,-1.150,-2.440,0.340,-84.8,0.200,-0.300,180.360,1000.0
2025-09-04T16:26:52.885329,-1.150,-2.440,0.340,-84.8,0.200,-0.300,180.360,1000.0
2025-09-04T16:26:52.887330,-1.150,-2.440,0.340,-84.8,0.200,-0.300,180.360,1000.0
2025-09-04T16:26:52.888330,-1.150,-2.440,0.340,-84.8,0.200,-0.300,180.360,1000.0
2025-09-04T16:26:52.889329,-1.160,-2.440,0.340,-84.8,0.200,-0.300,180.360,1000.0
2025-09-04T16:26:52.890337,-1.160,-2.440,0.340,-84.8,0.200,-0.300,180.360,1000.0
2025-09-04T16:26:52.994377,-1.160,-2.440,0.340,-84.8,0.200,-0.300,180.360,1000.0
2025-09-04T16:26:52.995329,-1.160,-2.430,0.340,-84.8,0.200,-0.300,180.360,1000.0
2025-09-04T16:26:52.996329,-1.160,-2.430,0.340,-84.9,0.200,-0.300,180.360,1000.0
2025-09-04T16:26:52.997329,-1.170,-2.430,0.340,-84.9,0.200,-0.300,180.360,1000.0
2025-09-04T16:26:52.998329,-1.170,-2.430,0.340,-84.9,0.200,-0.300,180.360,1000.0
2025-09-04T16:26:53.116356,-1.170,-2.430,0.340,-84.9,0.200,-0.300,180.360,1000.0
2025-09-04T16:26:53.118331,-1.170,-2.430,0.340,-84.9,0.200,-0.300,180.360,1000.0
2025-09-04T16:26:53.120334,-1.170,-2.430,0.340,-84.8,0.200,-0.300,180.360,1000.0
2025-09-04T16:26:53.121337,-1.170,-2.430,0.340,-84.8,0.200,-0.300,180.360,1000.0
