Timestamp,Roll_Angle,Pitch_Angle,Yaw_Angle,Altitude,Roll_Setpoint,Pitch_Setpoint,Yaw_Setpoint,Altitude_Setpoint
2025-09-10T15:30:25.802106,1.200,1.430,94.800,-40.1,0.400,-0.400,181.080,1000.0
2025-09-10T15:30:25.804089,1.200,1.430,94.800,-40.1,0.400,-0.400,181.080,1000.0
2025-09-10T15:30:25.832089,1.200,1.430,94.800,-40.1,0.400,-0.400,181.080,1000.0
2025-09-10T15:30:25.847108,1.200,1.420,94.800,-40.1,0.400,-0.400,181.080,1000.0
2025-09-10T15:30:25.877090,1.200,1.420,94.800,-40.1,0.400,-0.400,181.080,1000.0
2025-09-10T15:30:25.907418,1.200,1.420,94.800,-40.1,0.400,-0.400,181.080,1000.0
2025-09-10T15:30:25.908418,1.200,1.420,94.800,-40.0,0.400,-0.400,181.080,1000.0
2025-09-10T15:30:25.937417,1.200,1.420,94.800,-40.0,0.400,-0.400,181.080,1000.0
2025-09-10T15:30:25.939417,1.200,1.420,94.800,-40.0,0.400,-0.400,181.080,1000.0
2025-09-10T15:30:25.967225,1.200,1.420,94.800,-40.0,0.400,-0.400,181.080,1000.0
2025-09-10T15:30:25.997228,1.200,1.420,94.800,-40.0,0.400,-0.400,181.080,1000.0
2025-09-10T15:30:26.000807,1.210,1.410,94.800,-40.0,0.400,-0.400,181.080,1000.0
2025-09-10T15:30:26.028355,1.210,1.410,94.800,-40.0,0.400,-0.400,181.080,1000.0
2025-09-10T15:30:26.073310,1.210,1.410,94.800,-40.0,0.400,-0.400,181.080,1000.0
2025-09-10T15:30:26.075309,1.200,1.420,94.800,-40.0,0.400,-0.400,181.080,1000.0
2025-09-10T15:30:26.103370,1.200,1.420,94.800,-40.0,0.400,-0.400,181.080,1000.0
2025-09-10T15:30:26.105369,1.200,1.420,94.800,-40.0,0.400,-0.400,181.080,1000.0
2025-09-10T15:30:26.133369,1.200,1.420,94.800,-40.0,0.400,-0.400,181.080,1000.0
2025-09-10T15:30:26.148370,1.200,1.430,94.800,-40.0,0.400,-0.400,181.080,1000.0
2025-09-10T15:30:26.163212,1.190,1.440,94.810,-40.0,0.400,-0.400,181.080,1000.0
2025-09-10T15:30:26.208739,1.190,1.440,94.810,-40.0,0.400,-0.400,181.080,1000.0
2025-09-10T15:30:26.210739,1.190,1.450,94.810,-40.0,0.400,-0.400,181.080,1000.0
2025-09-10T15:30:26.238739,1.190,1.450,94.810,-40.0,0.400,-0.400,181.080,1000.0
2025-09-10T15:30:26.240742,1.190,1.450,94.810,-40.0,0.400,-0.400,181.080,1000.0
2025-09-10T15:30:26.268752,1.180,1.460,94.810,-40.0,0.400,-0.400,181.080,1000.0
2025-09-10T15:30:26.314306,1.180,1.460,94.810,-40.0,0.400,-0.400,181.080,1000.0
2025-09-10T15:30:26.316305,1.190,1.460,94.810,-40.0,0.400,-0.400,181.080,1000.0
2025-09-10T15:30:26.344305,1.180,1.470,94.810,-40.0,0.400,-0.400,181.080,1000.0
2025-09-10T15:30:26.346305,1.180,1.470,94.810,-40.0,0.400,-0.400,181.080,1000.0
2025-09-10T15:30:26.374315,1.180,1.470,94.810,-40.0,0.400,-0.400,181.080,1000.0
2025-09-10T15:30:26.404406,1.180,1.470,94.810,-40.0,0.400,-0.400,181.080,1000.0
2025-09-10T15:30:26.405405,1.180,1.470,94.810,-40.0,0.400,-0.400,181.080,1000.0
2025-09-10T15:30:26.434404,1.180,1.480,94.810,-40.0,0.400,-0.400,181.080,1000.0
2025-09-10T15:30:26.435408,1.180,1.480,94.810,-40.0,0.400,-0.400,181.080,1000.0
2025-09-10T15:30:26.464406,1.180,1.480,94.810,-40.0,0.400,-0.400,181.080,1000.0
2025-09-10T15:30:26.494385,1.180,1.480,94.810,-40.0,0.400,-0.400,181.080,1000.0
2025-09-10T15:30:26.509385,1.180,1.480,94.810,-40.0,0.400,-0.400,181.080,1000.0
2025-09-10T15:30:26.554386,1.180,1.480,94.810,-40.0,0.400,-0.400,181.080,1000.0
2025-09-10T15:30:26.555386,1.180,1.480,94.810,-40.0,0.400,-0.400,181.080,1000.0
2025-09-10T15:30:26.584247,1.180,1.480,94.810,-40.0,0.400,-0.400,181.080,1000.0
2025-09-10T15:30:26.614248,1.180,1.480,94.810,-40.0,0.400,-0.400,181.080,1000.0
2025-09-10T15:30:26.616248,1.180,1.480,94.810,-40.0,0.400,-0.400,181.080,1000.0
2025-09-10T15:30:26.644246,1.180,1.480,94.810,-40.0,0.400,-0.400,181.080,1000.0
2025-09-10T15:30:26.646247,1.170,1.490,94.810,-40.0,0.400,-0.400,181.080,1000.0
2025-09-10T15:30:26.674247,1.170,1.490,94.810,-40.0,0.400,-0.400,181.080,1000.0
2025-09-10T15:30:26.678249,1.170,1.490,94.810,-40.0,0.400,-0.400,181.080,1000.0
2025-09-10T15:30:26.704247,1.170,1.490,94.810,-40.0,0.400,-0.400,181.080,1000.0
2025-09-10T15:30:26.734257,1.170,1.490,94.810,-40.0,0.400,-0.400,181.080,1000.0
2025-09-10T15:30:26.736257,1.170,1.490,94.810,-40.0,0.400,-0.400,181.080,1000.0
2025-09-10T15:30:26.764258,1.180,1.490,94.810,-40.0,0.400,-0.400,181.080,1000.0
2025-09-10T15:30:26.809257,1.180,1.490,94.810,-40.1,0.400,-0.400,181.080,1000.0
2025-09-10T15:30:26.811262,1.170,1.490,94.810,-40.1,0.400,-0.400,181.080,1000.0
2025-09-10T15:30:26.839269,1.170,1.490,94.810,-40.1,0.400,-0.400,181.080,1000.0
2025-09-10T15:30:26.840256,1.170,1.490,94.810,-40.1,0.400,-0.400,181.080,1000.0
2025-09-10T15:30:26.884258,1.180,1.480,94.810,-40.1,0.400,-0.400,181.080,1000.0
2025-09-10T15:30:26.887256,1.180,1.480,94.810,-40.1,0.400,-0.400,181.080,1000.0
2025-09-10T15:30:26.914272,1.180,1.480,94.810,-40.1,0.400,-0.400,181.080,1000.0
2025-09-10T15:30:26.944690,1.170,1.490,94.810,-40.1,0.400,-0.400,181.080,1000.0
2025-09-10T15:30:26.946679,1.170,1.490,94.810,-40.1,0.400,-0.400,181.080,1000.0
2025-09-10T15:30:26.975208,1.170,1.490,94.810,-40.1,0.400,-0.400,181.080,1000.0
2025-09-10T15:30:26.978205,1.170,1.490,94.810,-40.1,0.400,-0.400,181.080,1000.0
2025-09-10T15:30:27.005219,1.170,1.490,94.810,-40.1,0.400,-0.400,181.080,1000.0
2025-09-10T15:30:27.050207,1.170,1.490,94.810,-40.1,0.400,-0.400,181.080,1000.0
2025-09-10T15:30:27.052206,1.170,1.490,94.810,-40.1,0.400,-0.400,181.080,1000.0
2025-09-10T15:30:27.080210,1.170,1.490,94.810,-40.1,0.400,-0.400,181.080,1000.0
2025-09-10T15:30:27.084206,1.170,1.490,94.810,-40.1,0.400,-0.400,181.080,1000.0
2025-09-10T15:30:27.110214,1.170,1.490,94.810,-40.1,0.400,-0.400,181.080,1000.0
2025-09-10T15:30:27.140208,1.170,1.490,94.810,-40.1,0.400,-0.400,181.080,1000.0
2025-09-10T15:30:27.142209,1.170,1.490,94.810,-40.1,0.400,-0.400,181.080,1000.0
2025-09-10T15:30:27.169206,1.180,1.490,94.810,-40.1,0.400,-0.400,181.080,1000.0
2025-09-10T15:30:27.185288,1.170,1.500,94.810,-40.1,0.400,-0.400,181.080,1000.0
2025-09-10T15:30:27.215288,1.170,1.500,94.810,-40.1,0.400,-0.400,181.080,1000.0
2025-09-10T15:30:27.245288,1.180,1.500,94.810,-40.1,0.400,-0.400,181.080,1000.0
2025-09-10T15:30:27.247290,1.170,1.500,94.810,-40.1,0.400,-0.400,181.080,1000.0
2025-09-10T15:30:27.290289,1.170,1.500,94.810,-40.1,0.400,-0.400,181.080,1000.0
2025-09-10T15:30:27.295287,1.170,1.500,94.810,-40.1,0.400,-0.400,181.080,1000.0
2025-09-10T15:30:27.320290,1.170,1.500,94.810,-40.1,0.400,-0.400,181.080,1000.0
2025-09-10T15:30:27.350287,1.170,1.500,94.810,-40.1,0.400,-0.400,181.080,1000.0
2025-09-10T15:30:27.351287,1.180,1.500,94.810,-40.1,0.400,-0.400,181.080,1000.0
2025-09-10T15:30:27.380288,1.180,1.500,94.810,-40.1,0.400,-0.400,181.080,1000.0
2025-09-10T15:30:27.385288,1.180,1.500,94.810,-40.2,0.400,-0.400,181.080,1000.0
2025-09-10T15:30:27.410290,1.170,1.500,94.810,-40.2,0.400,-0.400,181.080,1000.0
2025-09-10T15:30:27.440287,1.170,1.500,94.810,-40.2,0.400,-0.400,181.080,1000.0
2025-09-10T15:30:27.441286,1.170,1.500,94.810,-40.2,0.400,-0.400,181.080,1000.0
2025-09-10T15:30:27.470288,1.170,1.500,94.810,-40.2,0.400,-0.400,181.080,1000.0
2025-09-10T15:30:27.485288,1.170,1.500,94.810,-40.2,0.400,-0.400,181.080,1000.0
2025-09-10T15:30:27.501287,1.170,1.500,94.810,-40.2,0.400,-0.400,181.080,1000.0
2025-09-10T15:30:27.560357,1.170,1.500,94.810,-40.2,0.400,-0.400,181.080,1000.0
2025-09-10T15:30:27.562290,1.170,1.500,94.810,-40.2,0.400,-0.400,181.080,1000.0
2025-09-10T15:30:27.590298,1.170,1.500,94.810,-40.2,0.400,-0.400,181.080,1000.0
2025-09-10T15:30:27.596296,1.170,1.500,94.810,-40.2,0.400,-0.400,181.080,1000.0
2025-09-10T15:30:27.620300,1.170,1.500,94.810,-40.2,0.400,-0.400,181.080,1000.0
2025-09-10T15:30:27.650296,1.170,1.500,94.810,-40.1,0.400,-0.400,181.080,1000.0
2025-09-10T15:30:27.651296,1.170,1.500,94.810,-40.1,0.400,-0.400,181.080,1000.0
2025-09-10T15:30:27.680898,1.170,1.500,94.810,-40.1,0.400,-0.400,181.080,1000.0
2025-09-10T15:30:27.685887,1.170,1.500,94.810,-40.1,0.400,-0.400,181.080,1000.0
2025-09-10T15:30:27.710883,1.170,1.500,94.810,-40.1,0.400,-0.400,181.080,1000.0
2025-09-10T15:30:27.741415,1.170,1.500,94.810,-40.1,0.400,-0.400,181.080,1000.0
2025-09-10T15:30:27.742413,1.170,1.500,94.810,-40.1,0.400,-0.400,181.080,1000.0
2025-09-10T15:30:27.786132,1.170,1.500,94.810,-40.1,0.400,-0.400,181.080,1000.0
2025-09-10T15:30:27.789131,1.170,1.500,94.810,-40.1,0.400,-0.400,181.080,1000.0
2025-09-10T15:30:27.816134,1.170,1.500,94.810,-40.1,0.400,-0.400,181.080,1000.0
2025-09-10T15:30:27.831135,1.170,1.500,94.810,-40.1,0.400,-0.400,181.080,1000.0
2025-09-10T15:30:27.846131,1.170,1.500,94.810,-40.1,0.400,-0.400,181.080,1000.0
2025-09-10T15:30:27.891155,1.170,1.500,94.810,-40.1,0.400,-0.400,181.080,1000.0
2025-09-10T15:30:27.896155,1.170,1.500,94.810,-40.1,0.400,-0.400,181.080,1000.0
2025-09-10T15:30:27.906155,1.170,1.500,94.810,-40.1,0.400,-0.400,181.080,1000.0
2025-09-10T15:30:27.951154,1.170,1.500,94.810,-40.1,0.400,-0.400,181.080,1000.0
2025-09-10T15:30:27.952155,1.170,1.500,94.810,-40.1,0.400,-0.400,181.080,1000.0
2025-09-10T15:30:27.981158,1.170,1.500,94.810,-40.1,0.400,-0.400,181.080,1000.0
2025-09-10T15:30:27.986155,1.170,1.500,94.810,-40.1,0.400,-0.400,181.080,1000.0
2025-09-10T15:30:28.026191,1.170,1.500,94.810,-40.1,0.400,-0.400,181.080,1000.0
2025-09-10T15:30:28.027190,1.170,1.500,94.810,-40.1,0.400,-0.400,181.080,1000.0
2025-09-10T15:30:28.056190,1.170,1.500,94.810,-40.1,0.400,-0.400,181.080,1000.0
2025-09-10T15:30:28.087192,1.170,1.500,94.810,-40.1,0.400,-0.400,181.080,1000.0
2025-09-10T15:30:28.092192,1.170,1.500,94.810,-40.1,0.400,-0.400,181.080,1000.0
2025-09-10T15:30:28.117191,1.170,1.500,94.810,-40.1,0.400,-0.400,181.080,1000.0
2025-09-10T15:30:28.118189,1.170,1.500,94.810,-40.1,0.400,-0.400,181.080,1000.0
2025-09-10T15:30:28.147192,1.170,1.500,94.810,-40.1,0.400,-0.400,181.080,1000.0
2025-09-10T15:30:28.177191,1.170,1.500,94.810,-40.1,0.400,-0.400,181.080,1000.0
2025-09-10T15:30:28.192189,1.170,1.500,94.810,-40.1,0.400,-0.400,181.080,1000.0
2025-09-10T15:30:28.221188,1.170,1.500,94.810,-40.1,0.400,-0.400,181.080,1000.0
2025-09-10T15:30:28.223202,1.170,1.500,94.810,-40.1,0.400,-0.400,181.080,1000.0
2025-09-10T15:30:28.237193,1.170,1.500,94.810,-40.1,0.400,-0.400,181.080,1000.0
2025-09-10T15:30:28.297196,1.170,1.500,94.810,-40.1,0.400,-0.400,181.080,1000.0
2025-09-10T15:30:28.302196,1.170,1.490,94.810,-40.1,0.400,-0.400,181.080,1000.0
2025-09-10T15:30:28.327202,1.170,1.490,94.810,-40.1,0.400,-0.400,181.080,1000.0
2025-09-10T15:30:28.329197,1.170,1.490,94.810,-40.1,0.400,-0.400,181.080,1000.0
2025-09-10T15:30:28.357196,1.170,1.490,94.810,-40.1,0.400,-0.400,181.080,1000.0
2025-09-10T15:30:28.387201,1.170,1.480,94.810,-40.1,0.400,-0.400,181.080,1000.0
2025-09-10T15:30:28.392202,1.170,1.480,94.810,-40.1,0.400,-0.400,181.080,1000.0
2025-09-10T15:30:28.417201,1.170,1.480,94.810,-40.1,0.400,-0.400,181.080,1000.0
2025-09-10T15:30:28.418201,1.170,1.480,94.810,-40.1,0.400,-0.400,181.080,1000.0
2025-09-10T15:30:28.447040,1.170,1.470,94.810,-40.1,0.400,-0.400,181.080,1000.0
2025-09-10T15:30:28.477117,1.170,1.470,94.810,-40.1,0.400,-0.400,181.080,1000.0
2025-09-10T15:30:28.480125,1.170,1.480,94.810,-40.1,0.400,-0.400,181.080,1000.0
2025-09-10T15:30:28.522116,1.170,1.480,94.810,-40.1,0.400,-0.400,181.080,1000.0
2025-09-10T15:30:28.524115,1.170,1.480,94.810,-40.1,0.400,-0.400,181.080,1000.0
2025-09-10T15:30:28.552116,1.170,1.480,94.810,-40.1,0.400,-0.400,181.080,1000.0
2025-09-10T15:30:28.597117,1.170,1.480,94.810,-40.1,0.400,-0.400,181.080,1000.0
2025-09-10T15:30:28.603117,1.170,1.480,94.810,-40.1,0.400,-0.400,181.080,1000.0
2025-09-10T15:30:28.627152,1.170,1.480,94.810,-40.1,0.400,-0.400,181.080,1000.0
2025-09-10T15:30:28.628117,1.180,1.480,94.810,-40.1,0.400,-0.400,181.080,1000.0
2025-09-10T15:30:28.657119,1.170,1.490,94.810,-40.1,0.400,-0.400,181.080,1000.0
2025-09-10T15:30:28.687051,1.180,1.480,94.810,-40.1,0.400,-0.400,181.080,1000.0
2025-09-10T15:30:28.692045,1.170,1.480,94.810,-40.1,0.400,-0.400,181.080,1000.0
2025-09-10T15:30:28.717047,1.180,1.480,94.810,-40.1,0.400,-0.400,181.080,1000.0
2025-09-10T15:30:28.719047,1.170,1.490,94.810,-40.1,0.400,-0.400,181.080,1000.0
2025-09-10T15:30:28.762075,1.170,1.490,94.810,-40.1,0.400,-0.400,181.080,1000.0
2025-09-10T15:30:28.764075,1.170,1.490,94.810,-40.1,0.400,-0.400,181.080,1000.0
2025-09-10T15:30:28.792230,1.170,1.490,94.810,-40.1,0.400,-0.400,181.080,1000.0
2025-09-10T15:30:28.822239,1.170,1.490,94.810,-40.1,0.400,-0.400,181.080,1000.0
2025-09-10T15:30:28.823240,1.170,1.490,94.810,-40.1,0.400,-0.400,181.080,1000.0
2025-09-10T15:30:28.852239,1.170,1.490,94.810,-40.1,0.400,-0.400,181.080,1000.0
2025-09-10T15:30:28.853239,1.170,1.490,94.810,-40.1,0.400,-0.400,181.080,1000.0
2025-09-10T15:30:28.882242,1.170,1.490,94.810,-40.1,0.400,-0.400,181.080,1000.0
2025-09-10T15:30:28.912238,1.170,1.490,94.810,-40.1,0.400,-0.400,181.080,1000.0
2025-09-10T15:30:28.926238,1.180,1.480,94.810,-40.1,0.400,-0.400,181.080,1000.0
2025-09-10T15:30:28.957241,1.180,1.480,94.810,-40.1,0.400,-0.400,181.080,1000.0
2025-09-10T15:30:28.958241,1.180,1.480,94.810,-40.1,0.400,-0.400,181.080,1000.0
2025-09-10T15:30:28.987646,1.180,1.490,94.810,-40.1,0.400,-0.400,181.080,1000.0
2025-09-10T15:30:29.032657,1.180,1.490,94.810,-40.1,0.400,-0.400,181.080,1000.0
2025-09-10T15:30:29.034656,1.180,1.490,94.810,-40.1,0.400,-0.400,181.080,1000.0
2025-09-10T15:30:29.062655,1.190,1.480,94.810,-40.1,0.400,-0.400,181.080,1000.0
2025-09-10T15:30:29.064657,1.190,1.480,94.810,-40.1,0.400,-0.400,181.080,1000.0
2025-09-10T15:30:29.092797,1.190,1.480,94.810,-40.1,0.400,-0.400,181.080,1000.0
2025-09-10T15:30:29.122794,1.190,1.480,94.810,-40.1,0.400,-0.400,181.080,1000.0
2025-09-10T15:30:29.123794,1.190,1.480,94.810,-40.1,0.400,-0.400,181.080,1000.0
2025-09-10T15:30:29.152794,1.190,1.480,94.810,-40.1,0.400,-0.400,181.080,1000.0
2025-09-10T15:30:29.153795,1.190,1.470,94.810,-40.1,0.400,-0.400,181.080,1000.0
2025-09-10T15:30:29.182794,1.190,1.470,94.810,-40.1,0.400,-0.400,181.080,1000.0
2025-09-10T15:30:29.212796,1.200,1.460,94.810,-40.1,0.400,-0.400,181.080,1000.0
2025-09-10T15:30:29.228301,1.200,1.450,94.800,-40.1,0.400,-0.400,181.080,1000.0
2025-09-10T15:30:29.258301,1.200,1.450,94.800,-40.1,0.400,-0.400,181.080,1000.0
2025-09-10T15:30:29.259301,1.200,1.450,94.800,-40.1,0.400,-0.400,181.080,1000.0
2025-09-10T15:30:29.302823,1.200,1.450,94.800,-40.1,0.400,-0.400,181.080,1000.0
2025-09-10T15:30:29.333823,1.200,1.440,94.800,-40.1,0.400,-0.400,181.080,1000.0
2025-09-10T15:30:29.334824,1.200,1.440,94.800,-40.1,0.400,-0.400,181.080,1000.0
2025-09-10T15:30:29.363825,1.200,1.440,94.800,-40.1,0.400,-0.400,181.080,1000.0
2025-09-10T15:30:29.365827,1.210,1.430,94.800,-40.1,0.400,-0.400,181.080,1000.0
2025-09-10T15:30:29.393824,1.210,1.430,94.800,-40.1,0.400,-0.400,181.080,1000.0
2025-09-10T15:30:29.423824,1.210,1.430,94.800,-40.0,0.400,-0.400,181.080,1000.0
2025-09-10T15:30:29.424823,1.210,1.420,94.800,-40.0,0.400,-0.400,181.080,1000.0
2025-09-10T15:30:29.453826,1.210,1.420,94.800,-40.0,0.400,-0.400,181.080,1000.0
2025-09-10T15:30:29.454825,1.210,1.420,94.800,-40.1,0.400,-0.400,181.080,1000.0
2025-09-10T15:30:29.483825,1.210,1.420,94.800,-40.1,0.400,-0.400,181.080,1000.0
2025-09-10T15:30:29.528823,1.210,1.420,94.800,-40.1,0.400,-0.400,181.080,1000.0
2025-09-10T15:30:29.529824,1.210,1.420,94.800,-40.1,0.400,-0.400,181.080,1000.0
2025-09-10T15:30:29.558823,1.210,1.420,94.800,-40.1,0.400,-0.400,181.080,1000.0
2025-09-10T15:30:29.559823,1.210,1.420,94.800,-40.0,0.400,-0.400,181.080,1000.0
2025-09-10T15:30:29.588823,1.210,1.420,94.800,-40.0,0.400,-0.400,181.080,1000.0
2025-09-10T15:30:29.633825,1.210,1.420,94.800,-40.0,0.400,-0.400,181.080,1000.0
2025-09-10T15:30:29.634824,1.210,1.420,94.800,-40.0,0.400,-0.400,181.080,1000.0
2025-09-10T15:30:29.663823,1.210,1.410,94.800,-40.1,0.400,-0.400,181.080,1000.0
2025-09-10T15:30:29.665838,1.210,1.410,94.800,-40.1,0.400,-0.400,181.080,1000.0
2025-09-10T15:30:29.693825,1.210,1.410,94.800,-40.1,0.400,-0.400,181.080,1000.0
2025-09-10T15:30:29.723824,1.210,1.410,94.800,-40.1,0.400,-0.400,181.080,1000.0
2025-09-10T15:30:29.724823,1.210,1.410,94.800,-40.1,0.400,-0.400,181.080,1000.0
2025-09-10T15:30:29.768823,1.210,1.410,94.800,-40.1,0.400,-0.400,181.080,1000.0
2025-09-10T15:30:29.769823,1.210,1.410,94.800,-40.1,0.400,-0.400,181.080,1000.0
2025-09-10T15:30:29.798826,1.210,1.420,94.800,-40.1,0.400,-0.400,181.080,1000.0
2025-09-10T15:30:29.828823,1.210,1.420,94.800,-40.1,0.400,-0.400,181.080,1000.0
2025-09-10T15:30:29.830825,1.210,1.420,94.800,-40.1,0.400,-0.400,181.080,1000.0
2025-09-10T15:30:29.858827,1.220,1.420,94.800,-40.1,0.400,-0.400,181.080,1000.0
2025-09-10T15:30:29.860827,1.220,1.420,94.800,-40.0,0.400,-0.400,181.080,1000.0
2025-09-10T15:30:29.888824,1.210,1.430,94.800,-40.0,0.400,-0.400,181.080,1000.0
2025-09-10T15:30:29.902822,1.210,1.430,94.800,-40.0,0.400,-0.400,181.080,1000.0
2025-09-10T15:30:29.918822,1.210,1.430,94.800,-40.0,0.400,-0.400,181.080,1000.0
2025-09-10T15:30:29.964336,1.220,1.430,94.800,-40.0,0.400,-0.400,181.080,1000.0
2025-09-10T15:30:29.966337,1.210,1.440,94.800,-40.0,0.400,-0.400,181.080,1000.0
2025-09-10T15:30:29.994337,1.210,1.440,94.800,-40.0,0.400,-0.400,181.080,1000.0
2025-09-10T15:30:29.996336,1.200,1.450,94.800,-40.0,0.400,-0.400,181.080,1000.0
2025-09-10T15:30:30.039403,1.200,1.450,94.800,-40.0,0.400,-0.400,181.080,1000.0
2025-09-10T15:30:30.069681,1.200,1.450,94.800,-40.0,0.400,-0.400,181.080,1000.0
2025-09-10T15:30:30.070681,1.200,1.450,94.800,-40.0,0.400,-0.400,181.080,1000.0
2025-09-10T15:30:30.100200,1.200,1.460,94.800,-40.1,0.400,-0.400,181.080,1000.0
2025-09-10T15:30:30.103201,1.200,1.460,94.810,-40.0,0.400,-0.400,181.080,1000.0
2025-09-10T15:30:30.130200,1.190,1.470,94.810,-40.0,0.400,-0.400,181.080,1000.0
2025-09-10T15:30:30.160530,1.190,1.470,94.810,-40.0,0.400,-0.400,181.080,1000.0
2025-09-10T15:30:30.161531,1.190,1.470,94.810,-40.0,0.400,-0.400,181.080,1000.0
2025-09-10T15:30:30.191046,1.190,1.470,94.810,-40.0,0.400,-0.400,181.080,1000.0
2025-09-10T15:30:30.193045,1.190,1.470,94.810,-40.0,0.400,-0.400,181.080,1000.0
2025-09-10T15:30:30.221058,1.190,1.470,94.810,-40.0,0.400,-0.400,181.080,1000.0
2025-09-10T15:30:30.266057,1.180,1.480,94.810,-40.0,0.400,-0.400,181.080,1000.0
2025-09-10T15:30:30.268055,1.190,1.470,94.810,-40.0,0.400,-0.400,181.080,1000.0
2025-09-10T15:30:30.311056,1.190,1.470,94.810,-40.0,0.400,-0.400,181.080,1000.0
2025-09-10T15:30:30.312055,1.190,1.470,94.810,-40.0,0.400,-0.400,181.080,1000.0
2025-09-10T15:30:30.326056,1.200,1.470,94.810,-40.1,0.400,-0.400,181.080,1000.0
2025-09-10T15:30:30.371057,1.200,1.470,94.810,-40.1,0.400,-0.400,181.080,1000.0
2025-09-10T15:30:30.373070,1.200,1.470,94.810,-40.1,0.400,-0.400,181.080,1000.0
2025-09-10T15:30:30.401057,1.200,1.480,94.810,-40.0,0.400,-0.400,181.080,1000.0
2025-09-10T15:30:30.405059,1.200,1.480,94.810,-40.0,0.400,-0.400,181.080,1000.0
2025-09-10T15:30:30.431058,1.200,1.480,94.810,-40.0,0.400,-0.400,181.080,1000.0
2025-09-10T15:30:30.461059,1.200,1.480,94.810,-40.0,0.400,-0.400,181.080,1000.0
2025-09-10T15:30:30.463059,1.200,1.480,94.810,-40.0,0.400,-0.400,181.080,1000.0
2025-09-10T15:30:30.506069,1.210,1.470,94.810,-40.0,0.400,-0.400,181.080,1000.0
2025-09-10T15:30:30.507066,1.210,1.470,94.810,-40.0,0.400,-0.400,181.080,1000.0
2025-09-10T15:30:30.536067,1.210,1.470,94.810,-40.0,0.400,-0.400,181.080,1000.0
2025-09-10T15:30:30.566070,1.210,1.470,94.810,-40.0,0.400,-0.400,181.080,1000.0
2025-09-10T15:30:30.568071,1.210,1.470,94.810,-40.1,0.400,-0.400,181.080,1000.0
2025-09-10T15:30:30.596066,1.210,1.460,94.810,-40.1,0.400,-0.400,181.080,1000.0
2025-09-10T15:30:30.598066,1.210,1.460,94.810,-40.1,0.400,-0.400,181.080,1000.0
2025-09-10T15:30:30.626066,1.210,1.460,94.810,-40.1,0.400,-0.400,181.080,1000.0
2025-09-10T15:30:30.671066,1.210,1.460,94.810,-40.1,0.400,-0.400,181.080,1000.0
2025-09-10T15:30:30.672065,1.210,1.460,94.810,-40.1,0.400,-0.400,181.080,1000.0
2025-09-10T15:30:30.702067,1.210,1.460,94.800,-40.1,0.400,-0.400,181.080,1000.0
2025-09-10T15:30:30.704075,1.210,1.460,94.800,-40.1,0.400,-0.400,181.080,1000.0
2025-09-10T15:30:30.746069,1.210,1.460,94.800,-40.1,0.400,-0.400,181.080,1000.0
2025-09-10T15:30:30.776068,1.210,1.460,94.800,-40.1,0.400,-0.400,181.080,1000.0
2025-09-10T15:30:30.778068,1.210,1.450,94.800,-40.1,0.400,-0.400,181.080,1000.0
2025-09-10T15:30:30.806067,1.210,1.450,94.800,-40.1,0.400,-0.400,181.080,1000.0
2025-09-10T15:30:30.807067,1.210,1.450,94.800,-40.1,0.400,-0.400,181.080,1000.0
2025-09-10T15:30:30.836068,1.210,1.440,94.800,-40.1,0.400,-0.400,181.080,1000.0
2025-09-10T15:30:30.837066,1.210,1.440,94.800,-40.1,0.400,-0.400,181.080,1000.0
2025-09-10T15:30:30.866069,1.210,1.440,94.800,-40.1,0.400,-0.400,181.080,1000.0
2025-09-10T15:30:30.896068,1.220,1.430,94.800,-40.1,0.400,-0.400,181.080,1000.0
2025-09-10T15:30:30.898067,1.210,1.430,94.800,-40.1,0.400,-0.400,181.080,1000.0
2025-09-10T15:30:30.926081,1.210,1.430,94.800,-40.0,0.400,-0.400,181.080,1000.0
2025-09-10T15:30:30.941069,1.210,1.430,94.800,-40.0,0.400,-0.400,181.080,1000.0
2025-09-10T15:30:30.956070,1.220,1.420,94.800,-40.0,0.400,-0.400,181.080,1000.0
2025-09-10T15:30:31.016245,1.220,1.420,94.800,-40.0,0.400,-0.400,181.080,1000.0
2025-09-10T15:30:31.018244,1.210,1.420,94.800,-40.0,0.400,-0.400,181.080,1000.0
2025-09-10T15:30:31.046698,1.210,1.420,94.800,-40.0,0.400,-0.400,181.080,1000.0
2025-09-10T15:30:31.048697,1.210,1.420,94.800,-40.0,0.400,-0.400,181.080,1000.0
2025-09-10T15:30:31.076701,1.210,1.420,94.800,-40.0,0.400,-0.400,181.080,1000.0
2025-09-10T15:30:31.107114,1.210,1.420,94.800,-40.0,0.400,-0.400,181.080,1000.0
2025-09-10T15:30:31.108115,1.220,1.410,94.800,-40.0,0.400,-0.400,181.080,1000.0
2025-09-10T15:30:31.137117,1.220,1.410,94.800,-40.0,0.400,-0.400,181.080,1000.0
2025-09-10T15:30:31.139118,1.220,1.410,94.800,-40.0,0.400,-0.400,181.080,1000.0
2025-09-10T15:30:31.167130,1.220,1.410,94.800,-40.0,0.400,-0.400,181.080,1000.0
2025-09-10T15:30:31.197133,1.220,1.410,94.800,-40.1,0.400,-0.400,181.080,1000.0
2025-09-10T15:30:31.200133,1.210,1.410,94.800,-40.1,0.400,-0.400,181.080,1000.0
2025-09-10T15:30:31.242133,1.210,1.410,94.800,-40.1,0.400,-0.400,181.080,1000.0
2025-09-10T15:30:31.244126,1.210,1.410,94.800,-40.1,0.400,-0.400,181.080,1000.0
2025-09-10T15:30:31.272390,1.210,1.410,94.800,-40.1,0.400,-0.400,181.080,1000.0
2025-09-10T15:30:31.317391,1.210,1.410,94.800,-40.1,0.400,-0.400,181.080,1000.0
2025-09-10T15:30:31.319393,1.210,1.410,94.800,-40.1,0.400,-0.400,181.080,1000.0
2025-09-10T15:30:31.332402,1.210,1.410,94.800,-40.1,0.400,-0.400,181.080,1000.0
2025-09-10T15:30:31.347403,1.210,1.410,94.800,-40.1,0.400,-0.400,181.080,1000.0
2025-09-10T15:30:31.378400,1.210,1.410,94.800,-40.1,0.400,-0.400,181.080,1000.0
2025-09-10T15:30:31.407402,1.210,1.410,94.800,-40.1,0.400,-0.400,181.080,1000.0
2025-09-10T15:30:31.408402,1.210,1.410,94.800,-40.1,0.400,-0.400,181.080,1000.0
2025-09-10T15:30:31.437191,1.210,1.410,94.800,-40.1,0.400,-0.400,181.080,1000.0
2025-09-10T15:30:31.438189,1.210,1.410,94.800,-40.1,0.400,-0.400,181.080,1000.0
2025-09-10T15:30:31.467189,1.210,1.410,94.800,-40.1,0.400,-0.400,181.080,1000.0
2025-09-10T15:30:31.512190,1.220,1.400,94.800,-40.1,0.400,-0.400,181.080,1000.0
2025-09-10T15:30:31.513189,1.220,1.400,94.800,-40.1,0.400,-0.400,181.080,1000.0
2025-09-10T15:30:31.542224,1.220,1.400,94.800,-40.1,0.400,-0.400,181.080,1000.0
2025-09-10T15:30:31.544224,1.220,1.400,94.800,-40.1,0.400,-0.400,181.080,1000.0
2025-09-10T15:30:31.572265,1.220,1.400,94.800,-40.1,0.400,-0.400,181.080,1000.0
2025-09-10T15:30:31.603278,1.220,1.400,94.800,-40.1,0.400,-0.400,181.080,1000.0
2025-09-10T15:30:31.605266,1.220,1.400,94.800,-40.1,0.400,-0.400,181.080,1000.0
2025-09-10T15:30:31.632265,1.220,1.400,94.800,-40.1,0.400,-0.400,181.080,1000.0
2025-09-10T15:30:31.647266,1.220,1.400,94.800,-40.1,0.400,-0.400,181.080,1000.0
2025-09-10T15:30:31.662265,1.220,1.400,94.800,-40.1,0.400,-0.400,181.080,1000.0
2025-09-10T15:30:31.707293,1.220,1.400,94.800,-40.1,0.400,-0.400,181.080,1000.0
2025-09-10T15:30:31.709296,1.220,1.400,94.800,-40.1,0.400,-0.400,181.080,1000.0
2025-09-10T15:30:31.752293,1.220,1.400,94.800,-40.1,0.400,-0.400,181.080,1000.0
2025-09-10T15:30:31.754291,1.210,1.410,94.800,-40.1,0.400,-0.400,181.080,1000.0
2025-09-10T15:30:31.782304,1.210,1.410,94.800,-40.1,0.400,-0.400,181.080,1000.0
2025-09-10T15:30:31.788303,1.220,1.410,94.800,-40.0,0.400,-0.400,181.080,1000.0
2025-09-10T15:30:31.812305,1.220,1.410,94.800,-40.0,0.400,-0.400,181.080,1000.0
2025-09-10T15:30:31.842864,1.210,1.420,94.800,-40.0,0.400,-0.400,181.080,1000.0
2025-09-10T15:30:31.843864,1.210,1.420,94.800,-40.0,0.400,-0.400,181.080,1000.0
2025-09-10T15:30:31.872862,1.220,1.420,94.800,-40.0,0.400,-0.400,181.080,1000.0
2025-09-10T15:30:31.875862,1.220,1.420,94.800,-40.0,0.400,-0.400,181.080,1000.0
2025-09-10T15:30:31.903865,1.220,1.420,94.800,-40.0,0.400,-0.400,181.080,1000.0
2025-09-10T15:30:31.932866,1.210,1.430,94.800,-40.1,0.400,-0.400,181.080,1000.0
2025-09-10T15:30:31.934870,1.210,1.430,94.800,-40.1,0.400,-0.400,181.080,1000.0
2025-09-10T15:30:31.977862,1.220,1.430,94.800,-40.1,0.400,-0.400,181.080,1000.0
2025-09-10T15:30:31.981862,1.220,1.430,94.800,-40.1,0.400,-0.400,181.080,1000.0
2025-09-10T15:30:32.007865,1.220,1.430,94.800,-40.1,0.400,-0.400,181.080,1000.0
2025-09-10T15:30:32.053085,1.220,1.430,94.800,-40.1,0.400,-0.400,181.080,1000.0
2025-09-10T15:30:32.054864,1.220,1.430,94.800,-40.1,0.400,-0.400,181.080,1000.0
2025-09-10T15:30:32.278207,1.220,1.430,94.800,-40.1,0.400,-0.400,181.080,1000.0
2025-09-10T15:30:32.488679,1.220,1.430,94.800,-40.1,0.400,-0.400,181.080,1000.0
2025-09-10T15:30:32.668679,1.220,1.430,94.800,-40.1,0.400,-0.400,181.080,1000.0
2025-09-10T15:30:32.880185,1.220,1.430,94.800,-40.1,0.400,-0.400,181.080,1000.0
2025-09-10T15:30:33.091204,1.200,1.430,94.810,-40.1,0.400,-0.400,181.080,1000.0
2025-09-10T15:30:33.097206,1.240,1.390,94.810,-40.1,0.400,-0.400,181.080,1000.0
2025-09-10T15:30:33.121236,1.240,1.390,94.810,-40.1,0.400,-0.400,181.080,1000.0
2025-09-10T15:30:33.123242,1.230,1.400,94.810,-40.1,0.400,-0.400,181.080,1000.0
2025-09-10T15:30:33.151237,1.230,1.390,94.810,-40.1,0.400,-0.400,181.080,1000.0
2025-09-10T15:30:33.181239,1.230,1.400,94.820,-40.1,0.400,-0.400,181.080,1000.0
2025-09-10T15:30:33.185238,1.230,1.400,94.820,-40.1,0.400,-0.400,181.080,1000.0
2025-09-10T15:30:33.211235,1.230,1.400,94.810,-40.1,0.400,-0.400,181.080,1000.0
2025-09-10T15:30:33.212236,1.240,1.400,94.810,-40.1,0.400,-0.400,181.080,1000.0
2025-09-10T15:30:33.256237,1.230,1.410,94.810,-40.0,0.400,-0.400,181.080,1000.0
2025-09-10T15:30:33.286748,1.230,1.410,94.810,-40.0,0.400,-0.400,181.080,1000.0
2025-09-10T15:30:33.291265,1.230,1.410,94.820,-40.0,0.400,-0.400,181.080,1000.0
2025-09-10T15:30:33.317267,1.220,1.420,94.820,-40.0,0.400,-0.400,181.080,1000.0
2025-09-10T15:30:33.332775,1.220,1.420,94.820,-40.0,0.400,-0.400,181.080,1000.0
2025-09-10T15:30:33.347776,1.220,1.420,94.820,-40.0,0.400,-0.400,181.080,1000.0
2025-09-10T15:30:33.392779,1.220,1.420,94.820,-40.0,0.400,-0.400,181.080,1000.0
2025-09-10T15:30:33.399775,1.230,1.420,94.820,-40.0,0.400,-0.400,181.080,1000.0
2025-09-10T15:30:33.422625,1.220,1.420,94.820,-40.0,0.400,-0.400,181.080,1000.0
2025-09-10T15:30:33.423625,1.220,1.430,94.820,-40.0,0.400,-0.400,181.080,1000.0
2025-09-10T15:30:33.452627,1.210,1.430,94.820,-40.0,0.400,-0.400,181.080,1000.0
2025-09-10T15:30:33.497624,1.220,1.430,94.820,-40.0,0.400,-0.400,181.080,1000.0
2025-09-10T15:30:33.504624,1.210,1.430,94.820,-40.0,0.400,-0.400,181.080,1000.0
2025-09-10T15:30:33.527624,1.210,1.430,94.820,-40.0,0.400,-0.400,181.080,1000.0
2025-09-10T15:30:33.529624,1.210,1.440,94.820,-40.0,0.400,-0.400,181.080,1000.0
2025-09-10T15:30:33.557623,1.210,1.440,94.820,-40.1,0.400,-0.400,181.080,1000.0
2025-09-10T15:30:33.587624,1.210,1.430,94.820,-40.1,0.400,-0.400,181.080,1000.0
2025-09-10T15:30:33.591623,1.200,1.430,94.810,-40.1,0.400,-0.400,181.080,1000.0
2025-09-10T15:30:33.617627,1.200,1.430,94.820,-40.1,0.400,-0.400,181.080,1000.0
2025-09-10T15:30:33.619626,1.200,1.430,94.810,-40.1,0.400,-0.400,181.080,1000.0
2025-09-10T15:30:33.648140,1.200,1.440,94.820,-40.1,0.400,-0.400,181.080,1000.0
2025-09-10T15:30:33.663140,1.210,1.430,94.820,-40.1,0.400,-0.400,181.080,1000.0
2025-09-10T15:30:33.678656,1.210,1.440,94.810,-40.1,0.400,-0.400,181.080,1000.0
2025-09-10T15:30:33.724167,1.210,1.430,94.810,-40.1,0.400,-0.400,181.080,1000.0
2025-09-10T15:30:33.725167,1.210,1.430,94.810,-40.1,0.400,-0.400,181.080,1000.0
2025-09-10T15:30:33.769167,1.200,1.440,94.810,-40.1,0.400,-0.400,181.080,1000.0
2025-09-10T15:30:33.799273,1.200,1.430,94.810,-40.1,0.400,-0.400,181.080,1000.0
2025-09-10T15:30:33.803230,1.200,1.430,94.810,-40.1,0.400,-0.400,181.080,1000.0
2025-09-10T15:30:33.829231,1.190,1.430,94.810,-40.1,0.400,-0.400,181.080,1000.0
2025-09-10T15:30:33.830231,1.200,1.430,94.810,-40.1,0.400,-0.400,181.080,1000.0
2025-09-10T15:30:33.859230,1.190,1.430,94.810,-40.1,0.400,-0.400,181.080,1000.0
2025-09-10T15:30:33.860229,1.200,1.430,94.810,-40.1,0.400,-0.400,181.080,1000.0
2025-09-10T15:30:33.889654,1.200,1.430,94.810,-40.1,0.400,-0.400,181.080,1000.0
2025-09-10T15:30:33.919654,1.200,1.430,94.810,-40.1,0.400,-0.400,181.080,1000.0
2025-09-10T15:30:33.921654,1.190,1.430,94.820,-40.1,0.400,-0.400,181.080,1000.0
2025-09-10T15:30:33.950252,1.190,1.430,94.820,-40.1,0.400,-0.400,181.080,1000.0
2025-09-10T15:30:33.953252,1.190,1.430,94.820,-40.1,0.400,-0.400,181.080,1000.0
2025-09-10T15:30:33.980249,1.190,1.430,94.810,-40.1,0.400,-0.400,181.080,1000.0
2025-09-10T15:30:34.010808,1.190,1.430,94.810,-40.1,0.400,-0.400,181.080,1000.0
2025-09-10T15:30:34.011807,1.180,1.430,94.810,-40.1,0.400,-0.400,181.080,1000.0
2025-09-10T15:30:34.056326,1.180,1.430,94.820,-40.1,0.400,-0.400,181.080,1000.0
2025-09-10T15:30:34.071318,1.180,1.430,94.810,-40.1,0.400,-0.400,181.080,1000.0
2025-09-10T15:30:34.074324,1.180,1.430,94.810,-40.1,0.400,-0.400,181.080,1000.0
2025-09-10T15:30:34.131841,1.180,1.430,94.810,-40.1,0.400,-0.400,181.080,1000.0
2025-09-10T15:30:34.133844,1.170,1.440,94.810,-40.1,0.400,-0.400,181.080,1000.0
2025-09-10T15:30:34.161845,1.180,1.430,94.810,-40.1,0.400,-0.400,181.080,1000.0
2025-09-10T15:30:34.163843,1.180,1.430,94.810,-40.1,0.400,-0.400,181.080,1000.0
2025-09-10T15:30:34.192867,1.180,1.440,94.810,-40.1,0.400,-0.400,181.080,1000.0
2025-09-10T15:30:34.222868,1.170,1.440,94.810,-40.1,0.400,-0.400,181.080,1000.0
2025-09-10T15:30:34.224866,1.180,1.440,94.810,-40.1,0.400,-0.400,181.080,1000.0
2025-09-10T15:30:34.253372,1.180,1.440,94.820,-40.1,0.400,-0.400,181.080,1000.0
2025-09-10T15:30:34.255023,1.180,1.440,94.820,-40.1,0.400,-0.400,181.080,1000.0
2025-09-10T15:30:34.283373,1.170,1.440,94.810,-40.1,0.400,-0.400,181.080,1000.0
2025-09-10T15:30:34.328888,1.170,1.440,94.810,-40.1,0.400,-0.400,181.080,1000.0
2025-09-10T15:30:34.330887,1.180,1.440,94.810,-40.1,0.400,-0.400,181.080,1000.0
2025-09-10T15:30:34.358965,1.170,1.440,94.810,-40.1,0.400,-0.400,181.080,1000.0
2025-09-10T15:30:34.359974,1.180,1.440,94.810,-40.1,0.400,-0.400,181.080,1000.0
2025-09-10T15:30:34.404613,1.180,1.440,94.800,-40.1,0.400,-0.400,181.080,1000.0
2025-09-10T15:30:34.406512,1.170,1.450,94.800,-40.1,0.400,-0.400,181.080,1000.0
2025-09-10T15:30:34.419514,1.170,1.450,94.800,-40.1,0.400,-0.400,181.080,1000.0
2025-09-10T15:30:34.464513,1.170,1.450,94.800,-40.1,0.400,-0.400,181.080,1000.0
2025-09-10T15:30:34.466525,1.170,1.450,94.800,-40.1,0.400,-0.400,181.080,1000.0
2025-09-10T15:30:34.494516,1.170,1.440,94.800,-40.1,0.400,-0.400,181.080,1000.0
2025-09-10T15:30:34.525031,1.120,1.360,94.810,-40.1,0.400,-0.400,181.080,1000.0
2025-09-10T15:30:34.526032,1.130,1.350,94.800,-40.1,0.400,-0.400,181.080,1000.0
2025-09-10T15:30:34.555036,1.130,1.350,94.800,-40.1,0.400,-0.400,181.080,1000.0
2025-09-10T15:30:34.557030,1.130,1.360,94.800,-40.1,0.400,-0.400,181.080,1000.0
2025-09-10T15:30:34.600200,1.140,1.390,94.800,-40.1,0.400,-0.400,181.080,1000.0
2025-09-10T15:30:34.630138,1.150,1.450,94.790,-40.1,0.400,-0.400,181.080,1000.0
2025-09-10T15:30:34.632132,1.160,1.470,94.790,-40.1,0.400,-0.400,181.080,1000.0
2025-09-10T15:30:34.660143,1.150,1.460,94.790,-40.1,0.400,-0.400,181.080,1000.0
2025-09-10T15:30:34.662143,1.130,1.430,94.800,-40.1,0.400,-0.400,181.080,1000.0
2025-09-10T15:30:34.690200,1.120,1.410,94.790,-40.1,0.400,-0.400,181.080,1000.0
2025-09-10T15:30:34.720200,1.120,1.410,94.790,-40.1,0.400,-0.400,181.080,1000.0
2025-09-10T15:30:34.735205,1.130,1.420,94.800,-40.1,0.400,-0.400,181.080,1000.0
2025-09-10T15:30:34.765199,1.160,1.450,94.800,-40.1,0.400,-0.400,181.080,1000.0
2025-09-10T15:30:34.766203,1.180,1.480,94.800,-40.1,0.400,-0.400,181.080,1000.0
2025-09-10T15:30:34.795294,1.210,1.480,94.810,-40.1,0.400,-0.400,181.080,1000.0
2025-09-10T15:30:34.798293,1.220,1.490,94.820,-40.1,0.400,-0.400,181.080,1000.0
2025-09-10T15:30:34.840290,1.200,1.460,94.950,-40.1,0.400,-0.400,181.080,1000.0
2025-09-10T15:30:34.870293,1.210,1.460,95.120,-40.1,0.400,-0.400,181.080,1000.0
2025-09-10T15:30:34.871293,1.190,1.460,95.210,-40.1,0.400,-0.400,181.080,1000.0
2025-09-10T15:30:34.900291,1.130,1.360,95.220,-40.1,0.400,-0.400,181.080,1000.0
2025-09-10T15:30:34.903296,1.090,1.290,95.210,-40.1,0.400,-0.400,181.080,1000.0
2025-09-10T15:30:34.930306,1.090,1.290,95.200,-40.1,0.400,-0.400,181.080,1000.0
2025-09-10T15:30:34.960290,1.080,1.260,95.190,-40.1,0.400,-0.400,181.080,1000.0
2025-09-10T15:30:34.962289,1.090,1.270,95.180,-40.1,0.400,-0.400,181.080,1000.0
2025-09-10T15:30:34.990291,1.120,1.290,95.180,-40.1,0.400,-0.400,181.080,1000.0
2025-09-10T15:30:34.994292,1.150,1.320,95.180,-40.1,0.400,-0.400,181.080,1000.0
2025-09-10T15:30:35.020291,1.180,1.370,95.190,-40.1,0.400,-0.400,181.080,1000.0
2025-09-10T15:30:35.065316,1.230,1.440,95.260,-40.1,0.400,-0.400,181.080,1000.0
2025-09-10T15:30:35.067316,1.300,1.570,95.430,-40.2,0.400,-0.400,181.080,1000.0
2025-09-10T15:30:35.095357,1.410,1.550,95.790,-40.2,0.400,-0.400,181.080,1000.0
2025-09-10T15:30:35.110360,1.600,1.480,96.240,-40.1,0.400,-0.400,181.080,1000.0
2025-09-10T15:30:35.140360,1.950,1.440,96.660,-40.1,0.400,-0.400,181.080,1000.0
2025-09-10T15:30:35.170357,2.500,1.310,97.020,-40.1,0.400,-0.400,181.080,1000.0
2025-09-10T15:30:35.172358,3.250,1.190,97.300,-40.1,0.400,-0.400,181.080,1000.0
2025-09-10T15:30:35.200403,4.660,1.070,97.610,-40.1,0.400,-0.400,181.080,1000.0
2025-09-10T15:30:35.202401,6.350,0.910,97.800,-40.1,0.400,-0.400,181.080,1000.0
2025-09-10T15:30:35.230398,8.180,0.730,97.900,-40.1,0.400,-0.400,181.080,1000.0
2025-09-10T15:30:35.260400,10.080,0.510,97.940,-40.1,0.400,-0.400,181.080,1000.0
2025-09-10T15:30:35.261398,12.130,0.210,97.890,-40.1,0.400,-0.400,181.080,1000.0
2025-09-10T15:30:35.305399,14.120,0.100,97.820,-40.1,0.400,-0.400,181.080,1000.0
2025-09-10T15:30:35.306399,16.470,0.470,97.960,-40.1,0.400,-0.400,181.080,1000.0
2025-09-10T15:30:35.335403,18.610,0.940,98.270,-40.1,0.400,-0.400,181.080,1000.0
2025-09-10T15:30:35.365953,20.710,1.630,98.490,-40.1,0.400,-0.400,181.080,1000.0
2025-09-10T15:30:35.366953,22.770,2.460,98.590,-40.1,0.400,-0.400,181.080,1000.0
2025-09-10T15:30:35.395985,24.710,3.350,98.750,-40.1,0.400,-0.400,181.080,1000.0
2025-09-10T15:30:35.410985,26.540,4.230,99.030,-40.1,0.400,-0.400,181.080,1000.0
2025-09-10T15:30:35.425984,27.970,5.180,101.080,-40.1,0.400,-0.400,181.080,1000.0
2025-09-10T15:30:35.470988,28.880,6.210,102.670,-40.1,0.400,-0.400,181.080,1000.0
2025-09-10T15:30:35.472986,29.260,7.210,103.010,-40.1,0.400,-0.400,181.080,1000.0
2025-09-10T15:30:35.500985,29.100,8.140,103.250,-40.1,0.400,-0.400,181.080,1000.0
2025-09-10T15:30:35.504989,28.390,8.990,103.290,-40.1,0.400,-0.400,181.080,1000.0
2025-09-10T15:30:35.530987,27.010,9.850,103.150,-40.1,0.400,-0.400,181.080,1000.0
2025-09-10T15:30:35.575984,25.060,10.710,102.910,-40.1,0.400,-0.400,181.080,1000.0
2025-09-10T15:30:35.576983,22.790,11.480,102.630,-40.1,0.400,-0.400,181.080,1000.0
2025-09-10T15:30:35.605766,20.280,12.170,102.270,-40.1,0.400,-0.400,181.080,1000.0
2025-09-10T15:30:35.606767,17.720,12.700,101.820,-40.2,0.400,-0.400,181.080,1000.0
2025-09-10T15:30:35.635768,15.860,12.960,101.500,-40.2,0.400,-0.400,181.080,1000.0
2025-09-10T15:30:35.665766,12.740,13.090,101.090,-40.2,0.400,-0.400,181.080,1000.0
2025-09-10T15:30:35.667767,10.240,12.880,100.970,-40.2,0.400,-0.400,181.080,1000.0
2025-09-10T15:30:35.695768,7.810,12.410,101.060,-40.2,0.400,-0.400,181.080,1000.0
2025-09-10T15:30:35.696768,5.500,11.810,101.320,-40.2,0.400,-0.400,181.080,1000.0
2025-09-10T15:30:35.725768,3.360,11.040,101.710,-40.2,0.400,-0.400,181.080,1000.0
2025-09-10T15:30:35.740767,1.340,10.010,102.190,-40.2,0.400,-0.400,181.080,1000.0
2025-09-10T15:30:35.755767,-0.330,8.910,102.660,-40.2,0.400,-0.400,181.080,1000.0
2025-09-10T15:30:35.815604,-1.840,7.790,103.140,-40.2,0.400,-0.400,181.080,1000.0
2025-09-10T15:30:35.816603,-2.980,6.730,103.600,-40.2,0.400,-0.400,181.080,1000.0
2025-09-10T15:30:35.845634,-3.630,5.830,104.170,-40.2,0.400,-0.400,181.080,1000.0
2025-09-10T15:30:35.846634,-3.800,5.030,104.900,-40.2,0.400,-0.400,181.080,1000.0
2025-09-10T15:30:35.875632,-3.480,4.200,105.790,-40.2,0.400,-0.400,181.080,1000.0
2025-09-10T15:30:35.905647,-2.700,3.220,106.750,-40.2,0.400,-0.400,181.080,1000.0
2025-09-10T15:30:35.906647,-1.410,2.210,107.630,-40.2,0.400,-0.400,181.080,1000.0
2025-09-10T15:30:35.935651,0.420,1.120,108.400,-40.2,0.400,-0.400,181.080,1000.0
2025-09-10T15:30:35.937647,2.160,0.160,108.910,-40.2,0.400,-0.400,181.080,1000.0
2025-09-10T15:30:35.965647,4.740,-1.050,109.560,-40.2,0.400,-0.400,181.080,1000.0
2025-09-10T15:30:35.995646,7.250,-2.060,110.220,-40.2,0.400,-0.400,181.080,1000.0
2025-09-10T15:30:35.997644,9.850,-2.990,110.930,-40.2,0.400,-0.400,181.080,1000.0
2025-09-10T15:30:36.040645,12.480,-3.750,111.590,-40.2,0.400,-0.400,181.080,1000.0
2025-09-10T15:30:36.041645,15.120,-4.320,112.190,-40.2,0.400,-0.400,181.080,1000.0
2025-09-10T15:30:36.070661,17.880,-4.800,112.730,-40.2,0.400,-0.400,181.080,1000.0
2025-09-10T15:30:36.100675,20.660,-5.190,113.220,-40.2,0.400,-0.400,181.080,1000.0
2025-09-10T15:30:36.115662,23.300,-5.480,113.620,-40.2,0.400,-0.400,181.080,1000.0
2025-09-10T15:30:36.145702,25.720,-5.740,113.960,-40.2,0.400,-0.400,181.080,1000.0
2025-09-10T15:30:36.147689,27.970,-5.870,114.320,-40.2,0.400,-0.400,181.080,1000.0
2025-09-10T15:30:36.175691,29.770,-5.780,114.660,-40.2,0.400,-0.400,181.080,1000.0
2025-09-10T15:30:36.205707,31.210,-5.490,114.970,-40.2,0.400,-0.400,181.080,1000.0
2025-09-10T15:30:36.206709,32.100,-5.050,115.170,-40.2,0.400,-0.400,181.080,1000.0
2025-09-10T15:30:36.235710,32.380,-4.400,115.240,-40.2,0.400,-0.400,181.080,1000.0
2025-09-10T15:30:36.237711,32.060,-3.650,115.140,-40.2,0.400,-0.400,181.080,1000.0
2025-09-10T15:30:36.280710,31.080,-2.730,114.850,-40.2,0.400,-0.400,181.080,1000.0
2025-09-10T15:30:36.310721,29.490,-1.590,114.390,-40.2,0.400,-0.400,181.080,1000.0
2025-09-10T15:30:36.311719,27.400,-0.280,113.830,-40.2,0.400,-0.400,181.080,1000.0
2025-09-10T15:30:36.340362,24.940,1.130,113.150,-40.2,0.400,-0.400,181.080,1000.0
2025-09-10T15:30:36.342354,22.410,2.480,112.360,-40.2,0.400,-0.400,181.080,1000.0
2025-09-10T15:30:36.371356,19.760,3.790,111.400,-40.2,0.400,-0.400,181.080,1000.0
2025-09-10T15:30:36.401354,17.180,4.910,110.340,-40.2,0.400,-0.400,181.080,1000.0
2025-09-10T15:30:36.416356,14.750,5.890,109.240,-40.2,0.400,-0.400,181.080,1000.0
2025-09-10T15:30:36.431354,12.510,6.860,108.130,-40.2,0.400,-0.400,181.080,1000.0
2025-09-10T15:30:36.446388,10.400,7.830,106.990,-40.2,0.400,-0.400,181.080,1000.0
2025-09-10T15:30:36.476387,8.440,8.740,105.810,-40.2,0.400,-0.400,181.080,1000.0
2025-09-10T15:30:36.479389,6.730,9.580,104.670,-40.2,0.400,-0.400,181.080,1000.0
2025-09-10T15:30:36.506475,5.400,10.240,103.680,-40.2,0.400,-0.400,181.080,1000.0
2025-09-10T15:30:36.551476,3.850,10.950,102.420,-40.2,0.400,-0.400,181.080,1000.0
2025-09-10T15:30:36.553476,2.650,11.460,101.320,-40.2,0.400,-0.400,181.080,1000.0
2025-09-10T15:30:36.581475,1.530,11.840,100.220,-40.1,0.400,-0.400,181.080,1000.0
2025-09-10T15:30:36.585478,0.430,12.160,99.060,-40.1,0.400,-0.400,181.080,1000.0
2025-09-10T15:30:36.611500,-0.440,12.480,98.130,-40.1,0.400,-0.400,181.080,1000.0
2025-09-10T15:30:36.642003,-1.510,12.810,97.060,-40.1,0.400,-0.400,181.080,1000.0
2025-09-10T15:30:36.643002,-2.610,13.060,96.040,-40.2,0.400,-0.400,181.080,1000.0
2025-09-10T15:30:36.672005,-3.770,13.270,95.100,-40.2,0.400,-0.400,181.080,1000.0
2025-09-10T15:30:36.676002,-4.890,13.500,94.210,-40.1,0.400,-0.400,181.080,1000.0
2025-09-10T15:30:36.702004,-5.840,13.570,93.480,-40.1,0.400,-0.400,181.080,1000.0
2025-09-10T15:30:36.732003,-6.860,13.630,92.700,-40.1,0.400,-0.400,181.080,1000.0
2025-09-10T15:30:36.734004,-7.460,13.640,92.230,-40.1,0.400,-0.400,181.080,1000.0
2025-09-10T15:30:36.762545,-7.660,13.540,92.030,-40.1,0.400,-0.400,181.080,1000.0
2025-09-10T15:30:36.794053,-7.330,13.190,92.180,-40.1,0.400,-0.400,181.080,1000.0
2025-09-10T15:30:36.796051,-6.300,12.360,92.810,-40.1,0.400,-0.400,181.080,1000.0
2025-09-10T15:30:36.853054,-5.010,11.450,93.590,-40.1,0.400,-0.400,181.080,1000.0
2025-09-10T15:30:36.855052,-3.010,10.200,94.700,-40.1,0.400,-0.400,181.080,1000.0
2025-09-10T15:30:36.883049,0.000,8.530,96.220,-40.1,0.400,-0.400,181.080,1000.0
2025-09-10T15:30:36.888053,3.130,6.980,97.670,-40.2,0.400,-0.400,181.080,1000.0
2025-09-10T15:30:36.914052,5.930,5.840,98.850,-40.2,0.400,-0.400,181.080,1000.0
2025-09-10T15:30:36.944051,8.950,4.730,100.070,-40.2,0.400,-0.400,181.080,1000.0
2025-09-10T15:30:36.946050,11.960,3.560,101.270,-40.2,0.400,-0.400,181.080,1000.0
2025-09-10T15:30:36.974052,15.240,2.400,102.650,-40.2,0.400,-0.400,181.080,1000.0
2025-09-10T15:30:36.978054,18.650,1.360,104.070,-40.2,0.400,-0.400,181.080,1000.0
2025-09-10T15:30:37.004051,21.900,0.470,105.310,-40.2,0.400,-0.400,181.080,1000.0
2025-09-10T15:30:37.049052,24.470,-0.140,106.220,-40.2,0.400,-0.400,181.080,1000.0
2025-09-10T15:30:37.050051,27.300,-0.570,107.300,-40.2,0.400,-0.400,181.080,1000.0
2025-09-10T15:30:37.079050,29.450,-0.410,108.420,-40.2,0.400,-0.400,181.080,1000.0
2025-09-10T15:30:37.082050,30.430,0.080,109.250,-40.2,0.400,-0.400,181.080,1000.0
2025-09-10T15:30:37.109051,30.670,0.910,110.050,-40.2,0.400,-0.400,181.080,1000.0
2025-09-10T15:30:37.154063,29.770,1.850,110.510,-40.2,0.400,-0.400,181.080,1000.0
2025-09-10T15:30:37.155063,28.080,2.670,110.540,-40.2,0.400,-0.400,181.080,1000.0
2025-09-10T15:30:37.184063,25.750,3.470,110.270,-40.2,0.400,-0.400,181.080,1000.0
2025-09-10T15:30:37.188062,23.080,4.280,109.760,-40.1,0.400,-0.400,181.080,1000.0
2025-09-10T15:30:37.214061,20.630,5.000,109.180,-40.1,0.400,-0.400,181.080,1000.0
2025-09-10T15:30:37.244061,18.380,5.640,108.570,-40.1,0.400,-0.400,181.080,1000.0
2025-09-10T15:30:37.246063,15.380,6.400,107.630,-40.1,0.400,-0.400,181.080,1000.0
2025-09-10T15:30:37.289063,13.390,6.780,106.890,-40.1,0.400,-0.400,181.080,1000.0
2025-09-10T15:30:37.296064,11.780,6.930,106.180,-40.1,0.400,-0.400,181.080,1000.0
2025-09-10T15:30:37.319063,10.460,6.870,105.480,-40.1,0.400,-0.400,181.080,1000.0
2025-09-10T15:30:37.349061,9.400,6.670,104.790,-40.2,0.400,-0.400,181.080,1000.0
2025-09-10T15:30:37.350060,8.540,6.430,104.100,-40.2,0.400,-0.400,181.080,1000.0
2025-09-10T15:30:37.379064,7.820,6.190,103.410,-40.2,0.400,-0.400,181.080,1000.0
2025-09-10T15:30:37.382062,7.220,5.970,102.660,-40.2,0.400,-0.400,181.080,1000.0
2025-09-10T15:30:37.409062,6.920,5.790,102.170,-40.2,0.400,-0.400,181.080,1000.0
2025-09-10T15:30:37.424061,6.740,5.370,101.480,-40.2,0.400,-0.400,181.080,1000.0
2025-09-10T15:30:37.439063,7.070,4.980,101.150,-40.2,0.400,-0.400,181.080,1000.0
2025-09-10T15:30:37.484062,7.950,4.510,100.970,-40.2,0.400,-0.400,181.080,1000.0
2025-09-10T15:30:37.488063,9.370,3.900,100.920,-40.2,0.400,-0.400,181.080,1000.0
2025-09-10T15:30:37.499061,11.240,3.230,100.940,-40.2,0.400,-0.400,181.080,1000.0
2025-09-10T15:30:37.559061,13.360,2.570,100.970,-40.2,0.400,-0.400,181.080,1000.0
2025-09-10T15:30:37.560060,15.640,1.860,101.060,-40.2,0.400,-0.400,181.080,1000.0
2025-09-10T15:30:37.589063,18.000,1.090,101.270,-40.2,0.400,-0.400,181.080,1000.0
2025-09-10T15:30:37.594065,19.460,0.660,101.480,-40.2,0.400,-0.400,181.080,1000.0
2025-09-10T15:30:37.619061,22.500,0.040,102.060,-40.2,0.400,-0.400,181.080,1000.0
2025-09-10T15:30:37.621064,23.980,0.240,102.650,-40.2,0.400,-0.400,181.080,1000.0
2025-09-10T15:30:37.649061,25.350,0.500,103.370,-40.2,0.400,-0.400,181.080,1000.0
2025-09-10T15:30:37.679064,26.840,0.810,103.860,-40.2,0.400,-0.400,181.080,1000.0
2025-09-10T15:30:37.682061,28.190,1.240,104.240,-40.2,0.400,-0.400,181.080,1000.0
2025-09-10T15:30:37.709251,29.430,1.590,104.700,-40.2,0.400,-0.400,181.080,1000.0
2025-09-10T15:30:37.710242,30.500,2.000,105.280,-40.2,0.400,-0.400,181.080,1000.0
2025-09-10T15:30:37.739244,31.270,2.550,105.810,-40.2,0.400,-0.400,181.080,1000.0
2025-09-10T15:30:37.784245,31.490,3.250,106.190,-40.1,0.400,-0.400,181.080,1000.0
2025-09-10T15:30:37.789245,31.010,3.910,106.310,-40.1,0.400,-0.400,181.080,1000.0
2025-09-10T15:30:37.814242,29.410,4.900,106.190,-40.1,0.400,-0.400,181.080,1000.0
2025-09-10T15:30:37.829243,27.220,5.850,105.850,-40.1,0.400,-0.400,181.080,1000.0
2025-09-10T15:30:37.844255,24.380,6.930,105.250,-40.1,0.400,-0.400,181.080,1000.0
2025-09-10T15:30:37.889244,21.040,8.170,104.370,-40.1,0.400,-0.400,181.080,1000.0
2025-09-10T15:30:37.895242,17.410,9.550,103.300,-40.1,0.400,-0.400,181.080,1000.0
2025-09-10T15:30:37.919243,13.810,10.910,102.180,-40.1,0.400,-0.400,181.080,1000.0
2025-09-10T15:30:37.922242,10.490,12.180,101.030,-40.1,0.400,-0.400,181.080,1000.0
2025-09-10T15:30:37.949252,7.920,13.100,100.040,-40.1,0.400,-0.400,181.080,1000.0
2025-09-10T15:30:37.979243,5.140,13.890,98.800,-40.1,0.400,-0.400,181.080,1000.0
2025-09-10T15:30:37.982242,3.230,14.300,97.840,-40.1,0.400,-0.400,181.080,1000.0
2025-09-10T15:30:38.024248,2.020,14.410,97.180,-40.1,0.400,-0.400,181.080,1000.0
2025-09-10T15:30:38.026244,1.350,14.320,96.770,-40.1,0.400,-0.400,181.080,1000.0
2025-09-10T15:30:38.054244,1.160,14.120,96.510,-40.1,0.400,-0.400,181.080,1000.0
2025-09-10T15:30:38.084247,1.320,13.750,96.360,-40.1,0.400,-0.400,181.080,1000.0
2025-09-10T15:30:38.099246,1.650,13.290,96.230,-40.1,0.400,-0.400,181.080,1000.0
2025-09-10T15:30:38.114245,1.970,12.830,96.110,-40.2,0.400,-0.400,181.080,1000.0
2025-09-10T15:30:38.115244,2.240,12.340,96.030,-40.2,0.400,-0.400,181.080,1000.0
2025-09-10T15:30:38.144244,2.490,11.820,96.010,-40.2,0.400,-0.400,181.080,1000.0
2025-09-10T15:30:38.189243,2.720,11.410,95.960,-40.2,0.400,-0.400,181.080,1000.0
2025-09-10T15:30:38.194395,2.810,11.070,95.780,-40.2,0.400,-0.400,181.080,1000.0
2025-09-10T15:30:38.219398,2.750,10.830,95.540,-40.2,0.400,-0.400,181.080,1000.0
2025-09-10T15:30:38.221400,2.550,10.680,95.330,-40.2,0.400,-0.400,181.080,1000.0
2025-09-10T15:30:38.264398,2.360,10.600,95.230,-40.2,0.400,-0.400,181.080,1000.0
2025-09-10T15:30:38.295395,2.080,10.390,95.170,-40.2,0.400,-0.400,181.080,1000.0
2025-09-10T15:30:38.298395,1.970,10.170,95.120,-40.2,0.400,-0.400,181.080,1000.0
2025-09-10T15:30:38.324431,1.910,9.960,94.980,-40.2,0.400,-0.400,181.080,1000.0
2025-09-10T15:30:38.326431,1.840,9.850,94.820,-40.2,0.400,-0.400,181.080,1000.0
2025-09-10T15:30:38.354435,1.680,9.790,94.640,-40.2,0.400,-0.400,181.080,1000.0
2025-09-10T15:30:38.384431,1.410,9.740,94.520,-40.2,0.400,-0.400,181.080,1000.0
2025-09-10T15:30:38.388431,1.180,9.700,94.440,-40.1,0.400,-0.400,181.080,1000.0
2025-09-10T15:30:38.414431,1.080,9.660,94.320,-40.1,0.400,-0.400,181.080,1000.0
2025-09-10T15:30:38.415430,1.040,9.650,94.130,-40.1,0.400,-0.400,181.080,1000.0
2025-09-10T15:30:38.444425,0.940,9.720,93.880,-40.1,0.400,-0.400,181.080,1000.0
2025-09-10T15:30:38.504605,0.730,9.830,93.640,-40.1,0.400,-0.400,181.080,1000.0
2025-09-10T15:30:38.507603,0.420,9.920,93.420,-40.1,0.400,-0.400,181.080,1000.0
2025-09-10T15:30:38.508603,0.030,9.980,93.190,-40.1,0.400,-0.400,181.080,1000.0
2025-09-10T15:30:38.534612,-0.370,10.040,92.920,-40.1,0.400,-0.400,181.080,1000.0
2025-09-10T15:30:38.564604,-0.790,10.100,92.630,-40.1,0.400,-0.400,181.080,1000.0
2025-09-10T15:30:38.566606,-1.200,10.230,92.360,-40.1,0.400,-0.400,181.080,1000.0
2025-09-10T15:30:38.595630,-1.580,10.390,92.170,-40.1,0.400,-0.400,181.080,1000.0
2025-09-10T15:30:38.624633,-1.880,10.510,92.040,-40.1,0.400,-0.400,181.080,1000.0
2025-09-10T15:30:38.626632,-1.960,10.510,92.020,-40.1,0.400,-0.400,181.080,1000.0
2025-09-10T15:30:38.654314,-1.760,10.280,92.160,-40.1,0.400,-0.400,181.080,1000.0
2025-09-10T15:30:38.656315,-1.390,9.950,92.360,-40.1,0.400,-0.400,181.080,1000.0
2025-09-10T15:30:38.684313,-0.770,9.530,92.630,-40.1,0.400,-0.400,181.080,1000.0
2025-09-10T15:30:38.714339,-0.050,9.170,92.950,-40.1,0.400,-0.400,181.080,1000.0
2025-09-10T15:30:38.715339,0.710,8.900,93.390,-40.1,0.400,-0.400,181.080,1000.0
2025-09-10T15:30:38.759366,1.510,8.630,93.930,-40.1,0.400,-0.400,181.080,1000.0
2025-09-10T15:30:38.760343,2.250,8.370,94.470,-40.1,0.400,-0.400,181.080,1000.0
2025-09-10T15:30:38.789350,2.650,8.220,94.760,-40.1,0.400,-0.400,181.080,1000.0
2025-09-10T15:30:38.819340,2.940,8.080,95.050,-40.1,0.400,-0.400,181.080,1000.0
2025-09-10T15:30:38.834341,2.730,8.230,95.070,-40.1,0.400,-0.400,181.080,1000.0
2025-09-10T15:30:38.849354,2.240,8.470,94.980,-40.1,0.400,-0.400,181.080,1000.0
2025-09-10T15:30:38.863353,1.410,8.790,94.790,-40.1,0.400,-0.400,181.080,1000.0
2025-09-10T15:30:38.894937,0.460,9.130,94.580,-40.1,0.400,-0.400,181.080,1000.0
2025-09-10T15:30:38.924938,-0.540,9.390,94.330,-40.1,0.400,-0.400,181.080,1000.0
2025-09-10T15:30:38.925938,-1.170,9.530,94.160,-40.1,0.400,-0.400,181.080,1000.0
2025-09-10T15:30:38.954938,-1.650,9.610,94.000,-40.1,0.400,-0.400,181.080,1000.0
2025-09-10T15:30:38.956944,-1.900,9.630,93.910,-40.1,0.400,-0.400,181.080,1000.0
2025-09-10T15:30:38.998949,-2.010,9.560,93.870,-40.1,0.400,-0.400,181.080,1000.0
2025-09-10T15:30:39.029949,-2.020,9.430,93.820,-40.1,0.400,-0.400,181.080,1000.0
2025-09-10T15:30:39.031949,-1.980,9.220,93.760,-40.1,0.400,-0.400,181.080,1000.0
2025-09-10T15:30:39.060481,-1.940,9.070,93.700,-40.1,0.400,-0.400,181.080,1000.0
2025-09-10T15:30:39.062483,-1.910,8.970,93.650,-40.1,0.400,-0.400,181.080,1000.0
2025-09-10T15:30:39.090482,-1.920,8.890,93.640,-40.1,0.400,-0.400,181.080,1000.0
2025-09-10T15:30:39.120590,-1.940,8.820,93.630,-40.1,0.400,-0.400,181.080,1000.0
2025-09-10T15:30:39.122592,-1.940,8.750,93.630,-40.1,0.400,-0.400,181.080,1000.0
2025-09-10T15:30:39.150600,-1.920,8.690,93.640,-40.1,0.400,-0.400,181.080,1000.0
2025-09-10T15:30:39.166112,-1.910,8.630,93.670,-40.1,0.400,-0.400,181.080,1000.0
2025-09-10T15:30:39.181113,-1.920,8.560,93.690,-40.1,0.400,-0.400,181.080,1000.0
2025-09-10T15:30:39.226116,-1.940,8.480,93.720,-40.1,0.400,-0.400,181.080,1000.0
2025-09-10T15:30:39.228115,-1.930,8.410,93.750,-40.1,0.400,-0.400,181.080,1000.0
2025-09-10T15:30:39.271113,-1.890,8.330,93.770,-40.1,0.400,-0.400,181.080,1000.0
2025-09-10T15:30:39.273114,-1.850,8.280,93.750,-40.1,0.400,-0.400,181.080,1000.0
2025-09-10T15:30:39.301114,-1.830,8.260,93.730,-40.1,0.400,-0.400,181.080,1000.0
2025-09-10T15:30:39.331113,-1.810,8.270,93.720,-40.1,0.400,-0.400,181.080,1000.0
2025-09-10T15:30:39.333116,-1.780,8.260,93.730,-40.1,0.400,-0.400,181.080,1000.0
2025-09-10T15:30:39.361878,-1.760,8.270,93.740,-40.1,0.400,-0.400,181.080,1000.0
2025-09-10T15:30:39.363664,-1.740,8.260,93.730,-40.1,0.400,-0.400,181.080,1000.0
2025-09-10T15:30:39.391400,-1.720,8.290,93.700,-40.1,0.400,-0.400,181.080,1000.0
2025-09-10T15:30:39.421399,-1.730,8.360,93.640,-40.1,0.400,-0.400,181.080,1000.0
2025-09-10T15:30:39.423397,-1.780,8.450,93.580,-40.1,0.400,-0.400,181.080,1000.0
2025-09-10T15:30:39.451398,-1.890,8.500,93.530,-40.1,0.400,-0.400,181.080,1000.0
2025-09-10T15:30:39.452397,-2.010,8.460,93.520,-40.1,0.400,-0.400,181.080,1000.0
2025-09-10T15:30:39.496409,-2.090,8.350,93.480,-40.1,0.400,-0.400,181.080,1000.0
2025-09-10T15:30:39.498410,-2.170,8.200,93.420,-40.1,0.400,-0.400,181.080,1000.0
2025-09-10T15:30:39.526407,-2.220,8.090,93.370,-40.1,0.400,-0.400,181.080,1000.0
2025-09-10T15:30:39.571410,-2.280,8.000,93.360,-40.1,0.400,-0.400,181.080,1000.0
2025-09-10T15:30:39.573409,-2.320,7.870,93.430,-40.1,0.400,-0.400,181.080,1000.0
2025-09-10T15:30:39.601408,-2.270,7.770,93.560,-40.1,0.400,-0.400,181.080,1000.0
2025-09-10T15:30:39.602407,-2.090,7.630,93.750,-40.1,0.400,-0.400,181.080,1000.0
2025-09-10T15:30:39.631407,-1.880,7.590,93.820,-40.1,0.400,-0.400,181.080,1000.0
2025-09-10T15:30:39.661409,-1.680,7.660,93.780,-40.1,0.400,-0.400,181.080,1000.0
2025-09-10T15:30:39.663408,-1.490,7.780,93.720,-40.1,0.400,-0.400,181.080,1000.0
2025-09-10T15:30:39.692925,-1.350,7.930,93.730,-40.1,0.400,-0.400,181.080,1000.0
2025-09-10T15:30:39.694921,-1.210,8.090,93.760,-40.1,0.400,-0.400,181.080,1000.0
2025-09-10T15:30:39.721922,-1.030,8.250,93.770,-40.1,0.400,-0.400,181.080,1000.0
2025-09-10T15:30:39.766922,-0.860,8.350,93.760,-40.1,0.400,-0.400,181.080,1000.0
2025-09-10T15:30:39.767922,-0.670,8.440,93.760,-40.1,0.400,-0.400,181.080,1000.0
2025-09-10T15:30:39.796680,-0.510,8.500,93.830,-40.1,0.400,-0.400,181.080,1000.0
2025-09-10T15:30:39.797680,-0.310,8.580,93.940,-40.1,0.400,-0.400,181.080,1000.0
2025-09-10T15:30:39.826680,-0.060,8.730,94.060,-40.1,0.400,-0.400,181.080,1000.0
2025-09-10T15:30:39.856681,0.270,8.920,94.200,-40.1,0.400,-0.400,181.080,1000.0
2025-09-10T15:30:39.871686,0.730,9.080,94.410,-40.1,0.400,-0.400,181.080,1000.0
2025-09-10T15:30:39.901681,1.370,9.140,94.730,-40.1,0.400,-0.400,181.080,1000.0
2025-09-10T15:30:39.904682,2.200,9.000,95.130,-40.1,0.400,-0.400,181.080,1000.0
2025-09-10T15:30:39.930678,3.210,8.670,95.570,-40.1,0.400,-0.400,181.080,1000.0
2025-09-10T15:30:39.962188,4.440,8.250,96.050,-40.2,0.400,-0.400,181.080,1000.0
2025-09-10T15:30:39.963187,5.690,7.920,96.450,-40.2,0.400,-0.400,181.080,1000.0
2025-09-10T15:30:40.007190,6.730,7.760,96.770,-40.2,0.400,-0.400,181.080,1000.0
2025-09-10T15:30:40.009187,7.390,7.740,97.030,-40.2,0.400,-0.400,181.080,1000.0
2025-09-10T15:30:40.037191,7.730,7.840,97.330,-40.2,0.400,-0.400,181.080,1000.0
2025-09-10T15:30:40.067721,7.840,8.050,97.550,-40.2,0.400,-0.400,181.080,1000.0
2025-09-10T15:30:40.069719,7.690,8.290,97.580,-40.2,0.400,-0.400,181.080,1000.0
2025-09-10T15:30:40.097723,7.320,8.520,97.440,-40.2,0.400,-0.400,181.080,1000.0
2025-09-10T15:30:40.099723,6.700,8.720,97.180,-40.1,0.400,-0.400,181.080,1000.0
2025-09-10T15:30:40.127773,5.930,8.910,96.910,-40.1,0.400,-0.400,181.080,1000.0
2025-09-10T15:30:40.158284,5.160,9.080,96.680,-40.2,0.400,-0.400,181.080,1000.0
2025-09-10T15:30:40.159282,4.520,9.230,96.470,-40.2,0.400,-0.400,181.080,1000.0
2025-09-10T15:30:40.188298,4.040,9.320,96.260,-40.2,0.400,-0.400,181.080,1000.0
2025-09-10T15:30:40.190946,3.710,9.320,96.040,-40.2,0.400,-0.400,181.080,1000.0
2025-09-10T15:30:40.218296,3.510,9.230,95.820,-40.2,0.400,-0.400,181.080,1000.0
2025-09-10T15:30:40.278323,3.430,9.000,95.660,-40.2,0.400,-0.400,181.080,1000.0
2025-09-10T15:30:40.279322,3.390,8.700,95.530,-40.2,0.400,-0.400,181.080,1000.0
2025-09-10T15:30:40.308321,3.380,8.410,95.430,-40.2,0.400,-0.400,181.080,1000.0
2025-09-10T15:30:40.309322,3.360,8.160,95.310,-40.2,0.400,-0.400,181.080,1000.0
2025-09-10T15:30:40.338325,3.250,8.040,95.170,-40.1,0.400,-0.400,181.080,1000.0
2025-09-10T15:30:40.368324,3.020,8.040,95.020,-40.1,0.400,-0.400,181.080,1000.0
2025-09-10T15:30:40.370325,2.740,8.080,94.880,-40.1,0.400,-0.400,181.080,1000.0
2025-09-10T15:30:40.398322,2.380,8.130,94.710,-40.1,0.400,-0.400,181.080,1000.0
2025-09-10T15:30:40.399322,1.980,8.190,94.490,-40.1,0.400,-0.400,181.080,1000.0
2025-09-10T15:30:40.428323,1.670,8.220,94.300,-40.1,0.400,-0.400,181.080,1000.0
2025-09-10T15:30:40.429372,1.440,8.240,94.160,-40.1,0.400,-0.400,181.080,1000.0
2025-09-10T15:30:40.458332,1.290,8.250,94.050,-40.1,0.400,-0.400,181.080,1000.0
2025-09-10T15:30:40.503324,1.220,8.300,93.970,-40.1,0.400,-0.400,181.080,1000.0
2025-09-10T15:30:40.505325,1.230,8.380,93.940,-40.1,0.400,-0.400,181.080,1000.0
2025-09-10T15:30:40.533058,1.290,8.450,93.940,-40.1,0.400,-0.400,181.080,1000.0
2025-09-10T15:30:40.578066,1.390,8.490,93.950,-40.1,0.400,-0.400,181.080,1000.0
2025-09-10T15:30:40.579067,1.510,8.520,93.950,-40.1,0.400,-0.400,181.080,1000.0
2025-09-10T15:30:40.608071,1.630,8.550,93.970,-40.1,0.400,-0.400,181.080,1000.0
2025-09-10T15:30:40.610069,1.760,8.560,94.040,-40.1,0.400,-0.400,181.080,1000.0
2025-09-10T15:30:40.638071,2.000,8.500,94.160,-40.1,0.400,-0.400,181.080,1000.0
2025-09-10T15:30:40.640069,2.260,8.410,94.240,-40.1,0.400,-0.400,181.080,1000.0
2025-09-10T15:30:40.668068,2.610,8.260,94.370,-40.1,0.400,-0.400,181.080,1000.0
2025-09-10T15:30:40.698068,2.990,8.070,94.570,-40.1,0.400,-0.400,181.080,1000.0
2025-09-10T15:30:40.699067,3.480,7.790,94.930,-40.1,0.400,-0.400,181.080,1000.0
2025-09-10T15:30:40.743069,4.370,7.290,95.530,-40.1,0.400,-0.400,181.080,1000.0
2025-09-10T15:30:40.744069,5.480,6.700,96.150,-40.1,0.400,-0.400,181.080,1000.0
2025-09-10T15:30:40.773069,6.590,6.200,96.600,-40.1,0.400,-0.400,181.080,1000.0
2025-09-10T15:30:40.803069,7.860,5.700,97.030,-40.1,0.400,-0.400,181.080,1000.0
2025-09-10T15:30:40.805073,9.060,5.290,97.500,-40.1,0.400,-0.400,181.080,1000.0
2025-09-10T15:30:40.833067,9.800,5.080,97.970,-40.1,0.400,-0.400,181.080,1000.0
2025-09-10T15:30:40.834067,10.180,5.040,98.350,-40.1,0.400,-0.400,181.080,1000.0
2025-09-10T15:30:40.863069,10.190,5.120,98.530,-40.1,0.400,-0.400,181.080,1000.0
2025-09-10T15:30:40.908067,9.910,5.290,98.610,-40.1,0.400,-0.400,181.080,1000.0
2025-09-10T15:30:40.909067,9.330,5.560,98.690,-40.1,0.400,-0.400,181.080,1000.0
2025-09-10T15:30:40.938067,8.770,5.790,98.800,-40.1,0.400,-0.400,181.080,1000.0
2025-09-10T15:30:40.940069,8.350,5.930,98.890,-40.1,0.400,-0.400,181.080,1000.0
2025-09-10T15:30:40.983068,8.160,5.970,98.910,-40.1,0.400,-0.400,181.080,1000.0
2025-09-10T15:30:41.013067,8.180,5.940,98.870,-40.1,0.400,-0.400,181.080,1000.0
2025-09-10T15:30:41.014068,8.310,5.900,98.850,-40.1,0.400,-0.400,181.080,1000.0
2025-09-10T15:30:41.043068,8.540,5.840,98.910,-40.1,0.400,-0.400,181.080,1000.0
2025-09-10T15:30:41.044581,8.720,5.840,98.960,-40.1,0.400,-0.400,181.080,1000.0
2025-09-10T15:30:41.073582,8.840,5.870,98.970,-40.1,0.400,-0.400,181.080,1000.0
2025-09-10T15:30:41.104095,8.860,5.890,98.930,-40.1,0.400,-0.400,181.080,1000.0
2025-09-10T15:30:41.106097,8.780,5.880,98.860,-40.1,0.400,-0.400,181.080,1000.0
2025-09-10T15:30:41.134093,8.550,5.860,98.750,-40.1,0.400,-0.400,181.080,1000.0
2025-09-10T15:30:41.136091,8.290,5.820,98.630,-40.1,0.400,-0.400,181.080,1000.0
2025-09-10T15:30:41.164104,7.920,5.790,98.490,-40.1,0.400,-0.400,181.080,1000.0
2025-09-10T15:30:41.194090,7.640,5.810,98.380,-40.1,0.400,-0.400,181.080,1000.0
2025-09-10T15:30:41.196091,7.410,5.890,98.280,-40.1,0.400,-0.400,181.080,1000.0
2025-09-10T15:30:41.253089,7.250,5.980,98.170,-40.1,0.400,-0.400,181.080,1000.0
2025-09-10T15:30:41.256093,7.100,6.060,98.040,-40.1,0.400,-0.400,181.080,1000.0
2025-09-10T15:30:41.284092,6.910,6.140,97.890,-40.1,0.400,-0.400,181.080,1000.0
2025-09-10T15:30:41.314093,6.690,6.200,97.740,-40.1,0.400,-0.400,181.080,1000.0
2025-09-10T15:30:41.315093,6.380,6.270,97.550,-40.1,0.400,-0.400,181.080,1000.0
2025-09-10T15:30:41.344091,5.920,6.340,97.350,-40.1,0.400,-0.400,181.080,1000.0
2025-09-10T15:30:41.345092,5.320,6.380,97.170,-40.1,0.400,-0.400,181.080,1000.0
2025-09-10T15:30:41.374590,4.640,6.400,97.090,-40.1,0.400,-0.400,181.080,1000.0
2025-09-10T15:30:41.378092,3.990,6.260,97.110,-40.1,0.400,-0.400,181.080,1000.0
2025-09-10T15:30:41.404252,3.430,6.060,97.110,-40.1,0.400,-0.400,181.080,1000.0
2025-09-10T15:30:41.434281,2.920,5.910,97.000,-40.1,0.400,-0.400,181.080,1000.0
2025-09-10T15:30:41.435279,2.520,5.830,96.870,-40.1,0.400,-0.400,181.080,1000.0
2025-09-10T15:30:41.479279,2.100,5.860,96.720,-40.1,0.400,-0.400,181.080,1000.0
2025-09-10T15:30:41.482278,1.660,6.100,96.600,-40.1,0.400,-0.400,181.080,1000.0
2025-09-10T15:30:41.509279,1.380,6.400,96.470,-40.1,0.400,-0.400,181.080,1000.0
2025-09-10T15:30:41.539282,1.190,6.660,96.300,-40.1,0.400,-0.400,181.080,1000.0
2025-09-10T15:30:41.541281,1.000,6.780,96.090,-40.1,0.400,-0.400,181.080,1000.0
2025-09-10T15:30:41.569279,0.780,6.860,95.810,-40.1,0.400,-0.400,181.080,1000.0
