Timestamp,Roll_Angle,Pitch_Angle,Yaw_Angle,Altitude,Roll_Setpoint,Pitch_Setpoint,Yaw_Setpoint,Altitude_Setpoint
2025-09-16T16:13:25.175966,0.090,1.830,321.840,-60.0,0.400,-0.400,181.080,1000.0
2025-09-16T16:13:25.207252,0.100,1.820,321.840,-60.0,0.400,-0.400,181.080,1000.0
2025-09-16T16:13:25.208251,0.100,1.820,321.850,-60.0,0.400,-0.400,181.080,1000.0
2025-09-16T16:13:25.237707,0.090,1.830,321.840,-60.0,0.400,-0.400,181.080,1000.0
2025-09-16T16:13:25.253022,0.100,1.820,321.840,-60.0,0.400,-0.400,181.080,1000.0
2025-09-16T16:13:25.268017,0.100,1.830,321.840,-60.0,0.400,-0.400,181.080,1000.0
2025-09-16T16:13:25.281803,0.110,1.830,321.840,-60.0,0.400,-0.400,181.080,1000.0
2025-09-16T16:13:25.312691,0.110,1.830,321.840,-60.0,0.400,-0.400,181.080,1000.0
2025-09-16T16:13:25.358275,0.110,1.830,321.850,-60.0,0.400,-0.400,181.080,1000.0
2025-09-16T16:13:25.360276,0.110,1.840,321.850,-60.0,0.400,-0.400,181.080,1000.0
2025-09-16T16:13:25.388906,0.120,1.840,321.850,-60.0,0.400,-0.400,181.080,1000.0
2025-09-16T16:13:25.389905,0.110,1.840,321.850,-60.0,0.400,-0.400,181.080,1000.0
2025-09-16T16:13:25.418113,0.120,1.840,321.850,-60.0,0.400,-0.400,181.080,1000.0
2025-09-16T16:13:25.448872,0.120,1.840,321.850,-60.0,0.400,-0.400,181.080,1000.0
2025-09-16T16:13:25.450873,0.120,1.840,321.850,-60.0,0.400,-0.400,181.080,1000.0
2025-09-16T16:13:25.479718,0.120,1.840,321.850,-60.0,0.400,-0.400,181.080,1000.0
2025-09-16T16:13:25.510175,0.120,1.830,321.840,-60.0,0.400,-0.400,181.080,1000.0
2025-09-16T16:13:25.512173,0.120,1.840,321.840,-60.0,0.400,-0.400,181.080,1000.0
2025-09-16T16:13:25.540207,0.130,1.830,321.850,-60.0,0.400,-0.400,181.080,1000.0
2025-09-16T16:13:25.542207,0.130,1.830,321.850,-60.0,0.400,-0.400,181.080,1000.0
2025-09-16T16:13:25.569919,0.130,1.830,321.850,-60.0,0.400,-0.400,181.080,1000.0
2025-09-16T16:13:25.585499,0.130,1.830,321.850,-60.0,0.400,-0.400,181.080,1000.0
2025-09-16T16:13:25.601053,0.130,1.820,321.850,-60.0,0.400,-0.400,181.080,1000.0
2025-09-16T16:13:25.661438,0.140,1.820,321.850,-60.0,0.400,-0.400,181.080,1000.0
2025-09-16T16:13:25.663436,0.130,1.810,321.850,-60.0,0.400,-0.400,181.080,1000.0
2025-09-16T16:13:25.691652,0.130,1.810,321.840,-60.0,0.400,-0.400,181.080,1000.0
2025-09-16T16:13:25.692653,0.130,1.810,321.840,-60.0,0.400,-0.400,181.080,1000.0
2025-09-16T16:13:25.720724,0.130,1.810,321.840,-60.0,0.400,-0.400,181.080,1000.0
2025-09-16T16:13:25.752290,0.130,1.810,321.840,-60.0,0.400,-0.400,181.080,1000.0
2025-09-16T16:13:25.753289,0.130,1.810,321.840,-60.0,0.400,-0.400,181.080,1000.0
2025-09-16T16:13:25.782318,0.120,1.820,321.840,-59.9,0.400,-0.400,181.080,1000.0
2025-09-16T16:13:25.783316,0.110,1.810,321.840,-59.9,0.400,-0.400,181.080,1000.0
2025-09-16T16:13:25.812639,0.110,1.810,321.840,-59.9,0.400,-0.400,181.080,1000.0
2025-09-16T16:13:25.842722,0.110,1.810,321.840,-59.9,0.400,-0.400,181.080,1000.0
2025-09-16T16:13:25.844723,0.110,1.810,321.840,-59.9,0.400,-0.400,181.080,1000.0
2025-09-16T16:13:25.871860,0.110,1.810,321.840,-59.9,0.400,-0.400,181.080,1000.0
2025-09-16T16:13:25.873854,0.110,1.810,321.840,-59.9,0.400,-0.400,181.080,1000.0
2025-09-16T16:13:25.917811,0.110,1.810,321.840,-59.9,0.400,-0.400,181.080,1000.0
2025-09-16T16:13:25.947813,0.110,1.810,321.840,-59.9,0.400,-0.400,181.080,1000.0
2025-09-16T16:13:25.962813,0.110,1.810,321.840,-59.9,0.400,-0.400,181.080,1000.0
2025-09-16T16:13:25.991644,0.110,1.810,321.840,-59.9,0.400,-0.400,181.080,1000.0
2025-09-16T16:13:25.993638,0.100,1.810,321.840,-59.9,0.400,-0.400,181.080,1000.0
2025-09-16T16:13:26.007639,0.100,1.810,321.840,-59.9,0.400,-0.400,181.080,1000.0
2025-09-16T16:13:26.053189,0.110,1.810,321.840,-59.9,0.400,-0.400,181.080,1000.0
2025-09-16T16:13:26.054189,0.100,1.810,321.840,-60.0,0.400,-0.400,181.080,1000.0
2025-09-16T16:13:26.083190,0.100,1.810,321.840,-59.9,0.400,-0.400,181.080,1000.0
2025-09-16T16:13:26.084191,0.110,1.810,321.840,-59.9,0.400,-0.400,181.080,1000.0
2025-09-16T16:13:26.114169,0.110,1.810,321.840,-59.9,0.400,-0.400,181.080,1000.0
2025-09-16T16:13:26.116153,0.110,1.810,321.840,-59.9,0.400,-0.400,181.080,1000.0
2025-09-16T16:13:26.158155,0.110,1.810,321.840,-59.9,0.400,-0.400,181.080,1000.0
2025-09-16T16:13:26.188153,0.120,1.810,321.840,-59.9,0.400,-0.400,181.080,1000.0
2025-09-16T16:13:26.189153,0.120,1.810,321.840,-59.9,0.400,-0.400,181.080,1000.0
2025-09-16T16:13:26.218156,0.120,1.810,321.830,-59.9,0.400,-0.400,181.080,1000.0
2025-09-16T16:13:26.248157,0.110,1.820,321.830,-59.9,0.400,-0.400,181.080,1000.0
2025-09-16T16:13:26.249161,0.120,1.820,321.830,-59.9,0.400,-0.400,181.080,1000.0
2025-09-16T16:13:26.278159,0.120,1.820,321.820,-59.9,0.400,-0.400,181.080,1000.0
2025-09-16T16:13:26.280157,0.130,1.830,321.820,-60.0,0.400,-0.400,181.080,1000.0
2025-09-16T16:13:26.308157,0.130,1.830,321.820,-60.0,0.400,-0.400,181.080,1000.0
2025-09-16T16:13:26.322216,0.130,1.830,321.820,-60.0,0.400,-0.400,181.080,1000.0
2025-09-16T16:13:26.352156,0.130,1.840,321.820,-60.0,0.400,-0.400,181.080,1000.0
2025-09-16T16:13:26.398159,0.130,1.830,321.820,-60.0,0.400,-0.400,181.080,1000.0
2025-09-16T16:13:26.399157,0.130,1.830,321.820,-60.0,0.400,-0.400,181.080,1000.0
2025-09-16T16:13:26.428158,0.130,1.840,321.820,-60.0,0.400,-0.400,181.080,1000.0
2025-09-16T16:13:26.457717,0.130,1.840,321.820,-60.0,0.400,-0.400,181.080,1000.0
2025-09-16T16:13:26.459717,0.130,1.840,321.820,-60.0,0.400,-0.400,181.080,1000.0
2025-09-16T16:13:26.488247,0.130,1.840,321.820,-60.0,0.400,-0.400,181.080,1000.0
2025-09-16T16:13:26.490248,0.130,1.840,321.820,-60.0,0.400,-0.400,181.080,1000.0
2025-09-16T16:13:26.517278,0.130,1.840,321.820,-60.0,0.400,-0.400,181.080,1000.0
2025-09-16T16:13:26.519275,0.140,1.840,321.820,-59.9,0.400,-0.400,181.080,1000.0
2025-09-16T16:13:26.548295,0.140,1.840,321.820,-60.0,0.400,-0.400,181.080,1000.0
2025-09-16T16:13:26.578708,0.140,1.840,321.820,-60.0,0.400,-0.400,181.080,1000.0
2025-09-16T16:13:26.580708,0.140,1.840,321.820,-60.0,0.400,-0.400,181.080,1000.0
2025-09-16T16:13:26.608986,0.140,1.840,321.820,-60.0,0.400,-0.400,181.080,1000.0
2025-09-16T16:13:26.609986,0.140,1.840,321.820,-60.0,0.400,-0.400,181.080,1000.0
2025-09-16T16:13:26.654068,0.140,1.840,321.820,-60.0,0.400,-0.400,181.080,1000.0
2025-09-16T16:13:26.683639,0.130,1.830,321.820,-60.0,0.400,-0.400,181.080,1000.0
2025-09-16T16:13:26.698764,0.130,1.830,321.820,-60.0,0.400,-0.400,181.080,1000.0
2025-09-16T16:13:26.729621,0.140,1.830,321.820,-60.0,0.400,-0.400,181.080,1000.0
2025-09-16T16:13:26.730620,0.130,1.830,321.820,-60.0,0.400,-0.400,181.080,1000.0
2025-09-16T16:13:26.759473,0.130,1.830,321.820,-60.0,0.400,-0.400,181.080,1000.0
2025-09-16T16:13:26.789530,0.130,1.830,321.820,-60.0,0.400,-0.400,181.080,1000.0
2025-09-16T16:13:26.790531,0.130,1.830,321.820,-60.0,0.400,-0.400,181.080,1000.0
2025-09-16T16:13:26.818546,0.130,1.830,321.820,-60.0,0.400,-0.400,181.080,1000.0
2025-09-16T16:13:26.820540,0.130,1.830,321.820,-60.1,0.400,-0.400,181.080,1000.0
2025-09-16T16:13:26.849604,0.130,1.830,321.820,-60.0,0.400,-0.400,181.080,1000.0
2025-09-16T16:13:26.895405,0.130,1.830,321.820,-60.0,0.400,-0.400,181.080,1000.0
2025-09-16T16:13:26.897404,0.130,1.830,321.820,-60.0,0.400,-0.400,181.080,1000.0
2025-09-16T16:13:26.925405,0.130,1.830,321.820,-60.0,0.400,-0.400,181.080,1000.0
2025-09-16T16:13:26.926411,0.130,1.820,321.820,-60.0,0.400,-0.400,181.080,1000.0
2025-09-16T16:13:26.954501,0.130,1.820,321.820,-60.0,0.400,-0.400,181.080,1000.0
2025-09-16T16:13:26.985004,0.130,1.820,321.820,-60.0,0.400,-0.400,181.080,1000.0
2025-09-16T16:13:27.000432,0.130,1.820,321.820,-60.0,0.400,-0.400,181.080,1000.0
2025-09-16T16:13:27.016640,0.130,1.820,321.820,-60.0,0.400,-0.400,181.080,1000.0
2025-09-16T16:13:27.030639,0.130,1.820,321.820,-60.0,0.400,-0.400,181.080,1000.0
2025-09-16T16:13:27.061409,0.130,1.820,321.820,-60.0,0.400,-0.400,181.080,1000.0
2025-09-16T16:13:27.091923,0.130,1.820,321.820,-60.0,0.400,-0.400,181.080,1000.0
2025-09-16T16:13:27.092914,0.130,1.820,321.820,-60.0,0.400,-0.400,181.080,1000.0
2025-09-16T16:13:27.122565,0.130,1.820,321.820,-60.0,0.400,-0.400,181.080,1000.0
2025-09-16T16:13:27.123551,0.130,1.830,321.820,-60.0,0.400,-0.400,181.080,1000.0
2025-09-16T16:13:27.166812,0.130,1.830,321.820,-60.0,0.400,-0.400,181.080,1000.0
2025-09-16T16:13:27.198024,0.130,1.830,321.820,-60.0,0.400,-0.400,181.080,1000.0
2025-09-16T16:13:27.199027,0.130,1.830,321.820,-60.0,0.400,-0.400,181.080,1000.0
2025-09-16T16:13:27.228070,0.130,1.830,321.820,-60.0,0.400,-0.400,181.080,1000.0
2025-09-16T16:13:27.230068,0.130,1.840,321.820,-60.0,0.400,-0.400,181.080,1000.0
2025-09-16T16:13:27.256997,0.130,1.840,321.820,-60.0,0.400,-0.400,181.080,1000.0
2025-09-16T16:13:27.259998,0.130,1.840,321.820,-60.0,0.400,-0.400,181.080,1000.0
2025-09-16T16:13:27.287992,0.130,1.840,321.820,-60.0,0.400,-0.400,181.080,1000.0
2025-09-16T16:13:27.318004,0.130,1.840,321.820,-60.0,0.400,-0.400,181.080,1000.0
2025-09-16T16:13:27.332279,0.130,1.840,321.820,-60.0,0.400,-0.400,181.080,1000.0
2025-09-16T16:13:27.347834,0.130,1.830,321.820,-60.0,0.400,-0.400,181.080,1000.0
2025-09-16T16:13:27.366343,0.130,1.830,321.820,-60.0,0.400,-0.400,181.080,1000.0
2025-09-16T16:13:27.394357,0.130,1.830,321.820,-60.0,0.400,-0.400,181.080,1000.0
2025-09-16T16:13:27.439277,0.130,1.830,321.820,-60.0,0.400,-0.400,181.080,1000.0
2025-09-16T16:13:27.440277,0.130,1.830,321.820,-60.0,0.400,-0.400,181.080,1000.0
2025-09-16T16:13:27.469352,0.130,1.830,321.820,-60.0,0.400,-0.400,181.080,1000.0
2025-09-16T16:13:27.471352,0.130,1.830,321.820,-60.0,0.400,-0.400,181.080,1000.0
2025-09-16T16:13:27.499353,0.130,1.830,321.820,-60.0,0.400,-0.400,181.080,1000.0
2025-09-16T16:13:27.529375,0.130,1.830,321.820,-60.0,0.400,-0.400,181.080,1000.0
2025-09-16T16:13:27.530377,0.130,1.830,321.820,-60.0,0.400,-0.400,181.080,1000.0
2025-09-16T16:13:27.559740,0.130,1.830,321.820,-60.0,0.400,-0.400,181.080,1000.0
2025-09-16T16:13:27.564742,0.130,1.840,321.820,-60.0,0.400,-0.400,181.080,1000.0
2025-09-16T16:13:27.589936,0.130,1.840,321.820,-60.0,0.400,-0.400,181.080,1000.0
2025-09-16T16:13:27.620158,0.130,1.840,321.820,-60.0,0.400,-0.400,181.080,1000.0
2025-09-16T16:13:27.621157,0.130,1.840,321.820,-60.0,0.400,-0.400,181.080,1000.0
2025-09-16T16:13:27.651278,0.130,1.840,321.820,-60.0,0.400,-0.400,181.080,1000.0
2025-09-16T16:13:27.668278,0.130,1.840,321.820,-60.0,0.400,-0.400,181.080,1000.0
2025-09-16T16:13:27.681284,0.130,1.830,321.820,-60.0,0.400,-0.400,181.080,1000.0
2025-09-16T16:13:27.741299,0.130,1.830,321.820,-60.0,0.400,-0.400,181.080,1000.0
2025-09-16T16:13:27.742299,0.130,1.830,321.820,-60.0,0.400,-0.400,181.080,1000.0
2025-09-16T16:13:27.771706,0.130,1.830,321.820,-60.0,0.400,-0.400,181.080,1000.0
2025-09-16T16:13:27.774706,0.130,1.830,321.820,-60.0,0.400,-0.400,181.080,1000.0
2025-09-16T16:13:27.801676,0.130,1.830,321.820,-60.0,0.400,-0.400,181.080,1000.0
2025-09-16T16:13:27.831722,0.130,1.830,321.820,-60.0,0.400,-0.400,181.080,1000.0
2025-09-16T16:13:27.832722,0.130,1.830,321.820,-60.0,0.400,-0.400,181.080,1000.0
2025-09-16T16:13:27.861677,0.130,1.820,321.820,-60.0,0.400,-0.400,181.080,1000.0
2025-09-16T16:13:27.865674,0.130,1.820,321.820,-60.0,0.400,-0.400,181.080,1000.0
2025-09-16T16:13:27.891673,0.130,1.810,321.820,-60.0,0.400,-0.400,181.080,1000.0
2025-09-16T16:13:27.921754,0.120,1.820,321.820,-60.0,0.400,-0.400,181.080,1000.0
2025-09-16T16:13:27.922754,0.120,1.820,321.820,-60.0,0.400,-0.400,181.080,1000.0
2025-09-16T16:13:27.967538,0.110,1.820,321.820,-60.0,0.400,-0.400,181.080,1000.0
2025-09-16T16:13:27.970538,0.110,1.820,321.820,-60.0,0.400,-0.400,181.080,1000.0
2025-09-16T16:13:27.997600,0.110,1.820,321.820,-60.0,0.400,-0.400,181.080,1000.0
2025-09-16T16:13:28.026607,0.120,1.810,321.820,-60.0,0.400,-0.400,181.080,1000.0
2025-09-16T16:13:28.028604,0.120,1.800,321.820,-60.0,0.400,-0.400,181.080,1000.0
2025-09-16T16:13:28.072933,0.120,1.800,321.820,-60.0,0.400,-0.400,181.080,1000.0
2025-09-16T16:13:28.075938,0.120,1.800,321.820,-60.0,0.400,-0.400,181.080,1000.0
2025-09-16T16:13:28.102622,0.120,1.800,321.820,-60.0,0.400,-0.400,181.080,1000.0
2025-09-16T16:13:28.132914,0.120,1.800,321.820,-60.0,0.400,-0.400,181.080,1000.0
2025-09-16T16:13:28.133909,0.120,1.800,321.820,-60.0,0.400,-0.400,181.080,1000.0
2025-09-16T16:13:28.162918,0.120,1.800,321.820,-60.0,0.400,-0.400,181.080,1000.0
2025-09-16T16:13:28.166917,0.120,1.800,321.820,-60.0,0.400,-0.400,181.080,1000.0
2025-09-16T16:13:28.207669,0.110,1.810,321.820,-60.0,0.400,-0.400,181.080,1000.0
2025-09-16T16:13:28.237670,0.110,1.810,321.820,-60.0,0.400,-0.400,181.080,1000.0
2025-09-16T16:13:28.239671,0.100,1.810,321.820,-60.0,0.400,-0.400,181.080,1000.0
2025-09-16T16:13:28.266676,0.100,1.810,321.820,-60.0,0.400,-0.400,181.080,1000.0
2025-09-16T16:13:28.269669,0.100,1.810,321.810,-60.0,0.400,-0.400,181.080,1000.0
2025-09-16T16:13:28.297670,0.110,1.810,321.810,-60.0,0.400,-0.400,181.080,1000.0
2025-09-16T16:13:28.298679,0.110,1.810,321.820,-60.0,0.400,-0.400,181.080,1000.0
2025-09-16T16:13:28.326976,0.100,1.820,321.820,-60.0,0.400,-0.400,181.080,1000.0
2025-09-16T16:13:28.357843,0.100,1.820,321.810,-60.0,0.400,-0.400,181.080,1000.0
2025-09-16T16:13:28.374970,0.100,1.820,321.810,-60.0,0.400,-0.400,181.080,1000.0
2025-09-16T16:13:28.388972,0.100,1.820,321.810,-60.0,0.400,-0.400,181.080,1000.0
2025-09-16T16:13:28.404067,0.100,1.820,321.810,-60.0,0.400,-0.400,181.080,1000.0
2025-09-16T16:13:28.418403,0.100,1.820,321.810,-60.0,0.400,-0.400,181.080,1000.0
2025-09-16T16:13:28.465191,0.110,1.820,321.810,-60.0,0.400,-0.400,181.080,1000.0
2025-09-16T16:13:28.468189,0.110,1.820,321.810,-60.0,0.400,-0.400,181.080,1000.0
2025-09-16T16:13:28.510738,0.110,1.820,321.810,-60.0,0.400,-0.400,181.080,1000.0
2025-09-16T16:13:28.515734,0.110,1.820,321.820,-60.0,0.400,-0.400,181.080,1000.0
2025-09-16T16:13:28.541474,0.110,1.820,321.810,-60.0,0.400,-0.400,181.080,1000.0
2025-09-16T16:13:28.572136,0.120,1.820,321.810,-60.0,0.400,-0.400,181.080,1000.0
2025-09-16T16:13:28.575135,0.120,1.820,321.810,-60.0,0.400,-0.400,181.080,1000.0
2025-09-16T16:13:28.602090,0.120,1.820,321.810,-60.0,0.400,-0.400,181.080,1000.0
2025-09-16T16:13:28.603090,0.120,1.820,321.810,-60.0,0.400,-0.400,181.080,1000.0
2025-09-16T16:13:28.632182,0.110,1.820,321.810,-60.0,0.400,-0.400,181.080,1000.0
2025-09-16T16:13:28.662307,0.110,1.810,321.810,-60.0,0.400,-0.400,181.080,1000.0
2025-09-16T16:13:28.680598,0.110,1.810,321.810,-60.0,0.400,-0.400,181.080,1000.0
2025-09-16T16:13:28.692601,0.110,1.810,321.810,-60.0,0.400,-0.400,181.080,1000.0
2025-09-16T16:13:28.693602,0.110,1.810,321.810,-60.0,0.400,-0.400,181.080,1000.0
2025-09-16T16:13:28.722331,0.110,1.810,321.810,-60.0,0.400,-0.400,181.080,1000.0
2025-09-16T16:13:28.782377,0.110,1.820,321.810,-60.0,0.400,-0.400,181.080,1000.0
2025-09-16T16:13:28.785386,0.110,1.820,321.810,-60.0,0.400,-0.400,181.080,1000.0
2025-09-16T16:13:28.812380,0.120,1.820,321.810,-60.0,0.400,-0.400,181.080,1000.0
2025-09-16T16:13:28.816379,0.120,1.820,321.810,-60.0,0.400,-0.400,181.080,1000.0
2025-09-16T16:13:28.842377,0.110,1.820,321.820,-60.0,0.400,-0.400,181.080,1000.0
2025-09-16T16:13:28.871814,0.110,1.820,321.820,-60.0,0.400,-0.400,181.080,1000.0
2025-09-16T16:13:28.874814,0.110,1.820,321.820,-59.9,0.400,-0.400,181.080,1000.0
2025-09-16T16:13:28.902565,0.110,1.820,321.820,-59.9,0.400,-0.400,181.080,1000.0
2025-09-16T16:13:28.903564,0.110,1.820,321.820,-59.9,0.400,-0.400,181.080,1000.0
2025-09-16T16:13:28.932654,0.120,1.820,321.820,-59.9,0.400,-0.400,181.080,1000.0
2025-09-16T16:13:28.962574,0.110,1.820,321.820,-59.9,0.400,-0.400,181.080,1000.0
2025-09-16T16:13:28.966571,0.110,1.810,321.820,-59.9,0.400,-0.400,181.080,1000.0
2025-09-16T16:13:29.007098,0.110,1.810,321.820,-59.9,0.400,-0.400,181.080,1000.0
2025-09-16T16:13:29.009104,0.110,1.810,321.820,-59.9,0.400,-0.400,181.080,1000.0
2025-09-16T16:13:29.037573,0.110,1.810,321.820,-59.9,0.400,-0.400,181.080,1000.0
2025-09-16T16:13:29.068326,0.110,1.810,321.820,-59.9,0.400,-0.400,181.080,1000.0
2025-09-16T16:13:29.085632,0.120,1.810,321.820,-60.0,0.400,-0.400,181.080,1000.0
2025-09-16T16:13:29.113827,0.120,1.810,321.820,-60.0,0.400,-0.400,181.080,1000.0
2025-09-16T16:13:29.116824,0.120,1.810,321.820,-60.0,0.400,-0.400,181.080,1000.0
2025-09-16T16:13:29.144041,0.120,1.810,321.820,-59.9,0.400,-0.400,181.080,1000.0
2025-09-16T16:13:29.175698,0.110,1.810,321.820,-59.9,0.400,-0.400,181.080,1000.0
2025-09-16T16:13:29.178697,0.110,1.810,321.820,-60.0,0.400,-0.400,181.080,1000.0
2025-09-16T16:13:29.205351,0.110,1.810,321.820,-60.0,0.400,-0.400,181.080,1000.0
2025-09-16T16:13:29.207347,0.110,1.810,321.820,-60.0,0.400,-0.400,181.080,1000.0
2025-09-16T16:13:29.235419,0.100,1.810,321.820,-60.0,0.400,-0.400,181.080,1000.0
2025-09-16T16:13:29.266553,0.100,1.810,321.820,-59.9,0.400,-0.400,181.080,1000.0
2025-09-16T16:13:29.269553,0.090,1.800,321.810,-59.9,0.400,-0.400,181.080,1000.0
2025-09-16T16:13:29.311890,0.090,1.800,321.810,-59.9,0.400,-0.400,181.080,1000.0
2025-09-16T16:13:29.315883,0.090,1.800,321.810,-59.9,0.400,-0.400,181.080,1000.0
2025-09-16T16:13:29.342576,0.090,1.800,321.810,-60.0,0.400,-0.400,181.080,1000.0
2025-09-16T16:13:29.344578,0.080,1.790,321.810,-60.0,0.400,-0.400,181.080,1000.0
2025-09-16T16:13:29.372407,0.080,1.790,321.810,-60.0,0.400,-0.400,181.080,1000.0
2025-09-16T16:13:29.401507,0.070,1.790,321.810,-60.0,0.400,-0.400,181.080,1000.0
2025-09-16T16:13:29.417266,0.070,1.790,321.810,-60.0,0.400,-0.400,181.080,1000.0
2025-09-16T16:13:29.432266,0.070,1.790,321.810,-60.0,0.400,-0.400,181.080,1000.0
2025-09-16T16:13:29.447267,0.070,1.780,321.810,-60.0,0.400,-0.400,181.080,1000.0
2025-09-16T16:13:29.477952,0.070,1.780,321.810,-60.0,0.400,-0.400,181.080,1000.0
2025-09-16T16:13:29.508450,0.060,1.790,321.810,-60.0,0.400,-0.400,181.080,1000.0
2025-09-16T16:13:29.509450,0.060,1.790,321.810,-60.0,0.400,-0.400,181.080,1000.0
2025-09-16T16:13:29.538452,0.060,1.790,321.810,-60.0,0.400,-0.400,181.080,1000.0
2025-09-16T16:13:29.540451,0.060,1.780,321.810,-60.0,0.400,-0.400,181.080,1000.0
2025-09-16T16:13:29.583450,0.060,1.780,321.810,-60.0,0.400,-0.400,181.080,1000.0
2025-09-16T16:13:29.613912,0.060,1.780,321.810,-60.0,0.400,-0.400,181.080,1000.0
2025-09-16T16:13:29.616911,0.060,1.780,321.810,-60.0,0.400,-0.400,181.080,1000.0
2025-09-16T16:13:29.643910,0.050,1.780,321.810,-60.0,0.400,-0.400,181.080,1000.0
2025-09-16T16:13:29.644909,0.050,1.780,321.810,-60.0,0.400,-0.400,181.080,1000.0
2025-09-16T16:13:29.672893,0.050,1.780,321.810,-60.0,0.400,-0.400,181.080,1000.0
2025-09-16T16:13:29.704444,0.050,1.780,321.810,-60.0,0.400,-0.400,181.080,1000.0
2025-09-16T16:13:29.705451,0.050,1.780,321.810,-60.0,0.400,-0.400,181.080,1000.0
2025-09-16T16:13:29.734447,0.050,1.780,321.810,-60.0,0.400,-0.400,181.080,1000.0
2025-09-16T16:13:29.748446,0.060,1.780,321.810,-60.0,0.400,-0.400,181.080,1000.0
2025-09-16T16:13:29.764446,0.060,1.790,321.810,-60.0,0.400,-0.400,181.080,1000.0
2025-09-16T16:13:29.809491,0.060,1.790,321.810,-60.0,0.400,-0.400,181.080,1000.0
2025-09-16T16:13:29.810491,0.060,1.790,321.810,-60.0,0.400,-0.400,181.080,1000.0
2025-09-16T16:13:29.853522,0.060,1.790,321.810,-60.0,0.400,-0.400,181.080,1000.0
2025-09-16T16:13:29.855532,0.060,1.790,321.810,-60.0,0.400,-0.400,181.080,1000.0
2025-09-16T16:13:29.883495,0.070,1.800,321.810,-60.0,0.400,-0.400,181.080,1000.0
2025-09-16T16:13:29.914972,0.070,1.800,321.810,-60.0,0.400,-0.400,181.080,1000.0
2025-09-16T16:13:29.918971,0.070,1.800,321.810,-60.0,0.400,-0.400,181.080,1000.0
2025-09-16T16:13:29.945188,0.070,1.800,321.810,-60.0,0.400,-0.400,181.080,1000.0
2025-09-16T16:13:29.947191,0.080,1.790,321.810,-60.0,0.400,-0.400,181.080,1000.0
2025-09-16T16:13:29.975188,0.070,1.800,321.810,-60.0,0.400,-0.400,181.080,1000.0
2025-09-16T16:13:30.006372,0.070,1.810,321.810,-60.0,0.400,-0.400,181.080,1000.0
2025-09-16T16:13:30.007371,0.070,1.810,321.820,-60.0,0.400,-0.400,181.080,1000.0
2025-09-16T16:13:30.036978,0.070,1.800,321.820,-60.0,0.400,-0.400,181.080,1000.0
2025-09-16T16:13:30.037977,0.080,1.790,321.820,-60.0,0.400,-0.400,181.080,1000.0
2025-09-16T16:13:30.067284,0.070,1.800,321.820,-60.0,0.400,-0.400,181.080,1000.0
2025-09-16T16:13:30.097335,0.070,1.810,321.820,-60.0,0.400,-0.400,181.080,1000.0
2025-09-16T16:13:30.127507,0.070,1.800,321.820,-60.0,0.400,-0.400,181.080,1000.0
2025-09-16T16:13:30.156712,0.080,1.800,321.820,-60.0,0.400,-0.400,181.080,1000.0
2025-09-16T16:13:30.158708,0.070,1.800,321.820,-60.0,0.400,-0.400,181.080,1000.0
2025-09-16T16:13:30.186713,0.070,1.810,321.820,-60.0,0.400,-0.400,181.080,1000.0
2025-09-16T16:13:30.217993,0.070,1.810,321.820,-60.0,0.400,-0.400,181.080,1000.0
2025-09-16T16:13:30.219994,0.070,1.810,321.830,-60.0,0.400,-0.400,181.080,1000.0
2025-09-16T16:13:30.248573,0.070,1.810,321.820,-60.0,0.400,-0.400,181.080,1000.0
2025-09-16T16:13:30.249573,0.070,1.810,321.830,-60.0,0.400,-0.400,181.080,1000.0
2025-09-16T16:13:30.278571,0.060,1.810,321.830,-60.0,0.400,-0.400,181.080,1000.0
2025-09-16T16:13:30.279774,0.060,1.810,321.830,-60.0,0.400,-0.400,181.080,1000.0
2025-09-16T16:13:30.308366,0.060,1.810,321.830,-60.0,0.400,-0.400,181.080,1000.0
2025-09-16T16:13:30.337133,0.060,1.800,321.830,-60.0,0.400,-0.400,181.080,1000.0
2025-09-16T16:13:30.339122,0.060,1.810,321.830,-60.0,0.400,-0.400,181.080,1000.0
2025-09-16T16:13:30.383508,0.070,1.810,321.830,-60.0,0.400,-0.400,181.080,1000.0
2025-09-16T16:13:30.385562,0.070,1.810,321.830,-60.0,0.400,-0.400,181.080,1000.0
2025-09-16T16:13:30.413634,0.080,1.790,321.830,-60.0,0.400,-0.400,181.080,1000.0
2025-09-16T16:13:30.444152,0.070,1.800,321.830,-60.0,0.400,-0.400,181.080,1000.0
2025-09-16T16:13:30.458905,0.060,1.820,321.840,-60.0,0.400,-0.400,181.080,1000.0
2025-09-16T16:13:30.488581,0.070,1.810,321.830,-60.0,0.400,-0.400,181.080,1000.0
2025-09-16T16:13:30.489583,0.070,1.810,321.840,-60.0,0.400,-0.400,181.080,1000.0
2025-09-16T16:13:30.518512,0.080,1.810,321.840,-60.0,0.400,-0.400,181.080,1000.0
2025-09-16T16:13:30.548569,0.080,1.810,321.840,-60.0,0.400,-0.400,181.080,1000.0
2025-09-16T16:13:30.550567,0.090,1.820,321.840,-60.0,0.400,-0.400,181.080,1000.0
2025-09-16T16:13:30.578568,0.090,1.820,321.840,-60.0,0.400,-0.400,181.080,1000.0
2025-09-16T16:13:30.580570,0.100,1.820,321.840,-60.0,0.400,-0.400,181.080,1000.0
2025-09-16T16:13:30.623011,0.110,1.810,321.840,-60.0,0.400,-0.400,181.080,1000.0
2025-09-16T16:13:30.654068,0.110,1.810,321.840,-60.0,0.400,-0.400,181.080,1000.0
2025-09-16T16:13:30.655071,0.110,1.810,321.840,-60.0,0.400,-0.400,181.080,1000.0
2025-09-16T16:13:30.682755,0.110,1.810,321.840,-60.0,0.400,-0.400,181.080,1000.0
2025-09-16T16:13:30.684761,0.110,1.810,321.840,-60.0,0.400,-0.400,181.080,1000.0
2025-09-16T16:13:30.713909,0.110,1.810,321.840,-60.0,0.400,-0.400,181.080,1000.0
2025-09-16T16:13:30.743942,0.110,1.800,321.840,-60.0,0.400,-0.400,181.080,1000.0
2025-09-16T16:13:30.759680,0.100,1.800,321.840,-60.0,0.400,-0.400,181.080,1000.0
2025-09-16T16:13:30.774679,0.100,1.790,321.840,-60.0,0.400,-0.400,181.080,1000.0
2025-09-16T16:13:30.775678,0.100,1.790,321.840,-60.0,0.400,-0.400,181.080,1000.0
2025-09-16T16:13:30.805415,0.100,1.790,321.840,-60.0,0.400,-0.400,181.080,1000.0
2025-09-16T16:13:30.851040,0.100,1.790,321.840,-60.0,0.400,-0.400,181.080,1000.0
2025-09-16T16:13:30.852041,0.100,1.790,321.840,-60.0,0.400,-0.400,181.080,1000.0
2025-09-16T16:13:30.881472,0.100,1.790,321.840,-60.0,0.400,-0.400,181.080,1000.0
2025-09-16T16:13:30.883472,0.100,1.800,321.840,-60.0,0.400,-0.400,181.080,1000.0
2025-09-16T16:13:30.926686,0.100,1.800,321.840,-60.0,0.400,-0.400,181.080,1000.0
2025-09-16T16:13:30.957309,0.100,1.800,321.840,-60.0,0.400,-0.400,181.080,1000.0
2025-09-16T16:13:30.959310,0.110,1.800,321.840,-60.0,0.400,-0.400,181.080,1000.0
2025-09-16T16:13:30.986358,0.110,1.800,321.840,-60.0,0.400,-0.400,181.080,1000.0
2025-09-16T16:13:30.988359,0.110,1.800,321.840,-60.0,0.400,-0.400,181.080,1000.0
2025-09-16T16:13:31.017681,0.110,1.800,321.840,-60.0,0.400,-0.400,181.080,1000.0
2025-09-16T16:13:31.047566,0.120,1.800,321.840,-60.0,0.400,-0.400,181.080,1000.0
2025-09-16T16:13:31.049564,0.120,1.800,321.840,-60.0,0.400,-0.400,181.080,1000.0
2025-09-16T16:13:31.077816,0.120,1.800,321.840,-60.0,0.400,-0.400,181.080,1000.0
2025-09-16T16:13:31.079812,0.120,1.800,321.840,-60.0,0.400,-0.400,181.080,1000.0
2025-09-16T16:13:31.107718,0.120,1.810,321.840,-60.0,0.400,-0.400,181.080,1000.0
2025-09-16T16:13:31.168159,0.120,1.810,321.840,-60.0,0.400,-0.400,181.080,1000.0
2025-09-16T16:13:31.169159,0.120,1.810,321.840,-60.0,0.400,-0.400,181.080,1000.0
2025-09-16T16:13:31.198743,0.120,1.810,321.840,-60.0,0.400,-0.400,181.080,1000.0
2025-09-16T16:13:31.200742,0.120,1.810,321.840,-60.0,0.400,-0.400,181.080,1000.0
2025-09-16T16:13:31.228742,0.120,1.810,321.830,-60.0,0.400,-0.400,181.080,1000.0
2025-09-16T16:13:31.229742,0.130,1.810,321.830,-60.0,0.400,-0.400,181.080,1000.0
2025-09-16T16:13:31.258750,0.130,1.810,321.830,-60.0,0.400,-0.400,181.080,1000.0
2025-09-16T16:13:31.289338,0.130,1.810,321.830,-60.0,0.400,-0.400,181.080,1000.0
2025-09-16T16:13:31.290336,0.130,1.810,321.830,-60.0,0.400,-0.400,181.080,1000.0
2025-09-16T16:13:31.319493,0.130,1.810,321.830,-60.0,0.400,-0.400,181.080,1000.0
2025-09-16T16:13:31.321492,0.130,1.810,321.830,-60.0,0.400,-0.400,181.080,1000.0
2025-09-16T16:13:31.348581,0.130,1.810,321.830,-60.0,0.400,-0.400,181.080,1000.0
2025-09-16T16:13:31.379779,0.130,1.810,321.830,-60.0,0.400,-0.400,181.080,1000.0
2025-09-16T16:13:31.381783,0.120,1.820,321.840,-60.0,0.400,-0.400,181.080,1000.0
2025-09-16T16:13:31.410116,0.120,1.820,321.830,-60.0,0.400,-0.400,181.080,1000.0
2025-09-16T16:13:31.412116,0.120,1.810,321.830,-60.0,0.400,-0.400,181.080,1000.0
2025-09-16T16:13:31.455510,0.110,1.810,321.830,-60.0,0.400,-0.400,181.080,1000.0
2025-09-16T16:13:31.500240,0.110,1.810,321.840,-60.0,0.400,-0.400,181.080,1000.0
2025-09-16T16:13:31.502234,0.110,1.810,321.840,-60.0,0.400,-0.400,181.080,1000.0
2025-09-16T16:13:31.516717,0.110,1.810,321.840,-60.0,0.400,-0.400,181.080,1000.0
2025-09-16T16:13:31.531747,0.110,1.810,321.840,-60.0,0.400,-0.400,181.080,1000.0
2025-09-16T16:13:31.560806,0.110,1.810,321.840,-60.0,0.400,-0.400,181.080,1000.0
2025-09-16T16:13:31.592326,0.100,1.810,321.840,-60.0,0.400,-0.400,181.080,1000.0
2025-09-16T16:13:31.593327,0.100,1.810,321.840,-60.0,0.400,-0.400,181.080,1000.0
2025-09-16T16:13:31.622343,0.100,1.810,321.840,-60.0,0.400,-0.400,181.080,1000.0
2025-09-16T16:13:31.623341,0.100,1.810,321.840,-60.0,0.400,-0.400,181.080,1000.0
2025-09-16T16:13:31.650840,0.100,1.810,321.840,-60.0,0.400,-0.400,181.080,1000.0
2025-09-16T16:13:31.681843,0.100,1.810,321.840,-60.0,0.400,-0.400,181.080,1000.0
2025-09-16T16:13:31.682842,0.100,1.810,321.840,-60.0,0.400,-0.400,181.080,1000.0
2025-09-16T16:13:31.727689,0.100,1.810,321.840,-60.0,0.400,-0.400,181.080,1000.0
2025-09-16T16:13:31.728642,0.100,1.810,321.840,-60.0,0.400,-0.400,181.080,1000.0
2025-09-16T16:13:31.758019,0.090,1.800,321.840,-60.0,0.400,-0.400,181.080,1000.0
2025-09-16T16:13:31.773020,0.100,1.800,321.840,-60.0,0.400,-0.400,181.080,1000.0
2025-09-16T16:13:31.786880,0.100,1.810,321.840,-60.0,0.400,-0.400,181.080,1000.0
2025-09-16T16:13:31.818113,0.100,1.810,321.840,-60.0,0.400,-0.400,181.080,1000.0
2025-09-16T16:13:31.832148,0.100,1.810,321.840,-60.0,0.400,-0.400,181.080,1000.0
2025-09-16T16:13:31.862644,0.100,1.810,321.840,-59.9,0.400,-0.400,181.080,1000.0
2025-09-16T16:13:31.893736,0.100,1.810,321.840,-59.9,0.400,-0.400,181.080,1000.0
2025-09-16T16:13:31.894734,0.100,1.810,321.840,-59.9,0.400,-0.400,181.080,1000.0
2025-09-16T16:13:31.925778,0.090,1.800,321.840,-59.9,0.400,-0.400,181.080,1000.0
2025-09-16T16:13:31.926778,0.100,1.810,321.840,-59.9,0.400,-0.400,181.080,1000.0
2025-09-16T16:13:31.953600,0.100,1.810,321.840,-59.9,0.400,-0.400,181.080,1000.0
2025-09-16T16:13:31.998743,0.100,1.810,321.840,-59.9,0.400,-0.400,181.080,1000.0
2025-09-16T16:13:31.999743,0.100,1.810,321.840,-59.9,0.400,-0.400,181.080,1000.0
2025-09-16T16:13:32.027741,0.100,1.810,321.840,-59.9,0.400,-0.400,181.080,1000.0
2025-09-16T16:13:32.029743,0.100,1.810,321.840,-59.9,0.400,-0.400,181.080,1000.0
2025-09-16T16:13:32.057888,0.100,1.810,321.840,-59.9,0.400,-0.400,181.080,1000.0
2025-09-16T16:13:32.089171,0.090,1.810,321.840,-59.9,0.400,-0.400,181.080,1000.0
2025-09-16T16:13:32.090173,0.090,1.810,321.840,-59.9,0.400,-0.400,181.080,1000.0
2025-09-16T16:13:32.120157,0.090,1.810,321.840,-59.9,0.400,-0.400,181.080,1000.0
2025-09-16T16:13:32.121159,0.090,1.810,321.840,-59.9,0.400,-0.400,181.080,1000.0
2025-09-16T16:13:32.150500,0.090,1.810,321.840,-59.9,0.400,-0.400,181.080,1000.0
2025-09-16T16:13:32.167339,0.090,1.810,321.840,-59.9,0.400,-0.400,181.080,1000.0
2025-09-16T16:13:32.180342,0.090,1.810,321.840,-59.9,0.400,-0.400,181.080,1000.0
2025-09-16T16:13:32.226396,0.090,1.810,321.840,-59.9,0.400,-0.400,181.080,1000.0
2025-09-16T16:13:32.227394,0.090,1.810,321.830,-59.9,0.400,-0.400,181.080,1000.0
2025-09-16T16:13:32.272081,0.090,1.810,321.830,-59.9,0.400,-0.400,181.080,1000.0
2025-09-16T16:13:32.274080,0.090,1.820,321.830,-59.9,0.400,-0.400,181.080,1000.0
2025-09-16T16:13:32.301843,0.080,1.810,321.830,-59.9,0.400,-0.400,181.080,1000.0
2025-09-16T16:13:32.331617,0.090,1.810,321.840,-60.0,0.400,-0.400,181.080,1000.0
2025-09-16T16:13:32.333618,0.090,1.820,321.840,-60.0,0.400,-0.400,181.080,1000.0
2025-09-16T16:13:32.361685,0.090,1.820,321.840,-60.0,0.400,-0.400,181.080,1000.0
2025-09-16T16:13:32.366687,0.090,1.810,321.840,-60.0,0.400,-0.400,181.080,1000.0
2025-09-16T16:13:32.392167,0.080,1.810,321.840,-60.0,0.400,-0.400,181.080,1000.0
2025-09-16T16:13:32.422058,0.080,1.810,321.840,-60.0,0.400,-0.400,181.080,1000.0
2025-09-16T16:13:32.423058,0.080,1.810,321.840,-60.0,0.400,-0.400,181.080,1000.0
2025-09-16T16:13:32.451338,0.090,1.810,321.840,-60.0,0.400,-0.400,181.080,1000.0
2025-09-16T16:13:32.454340,0.090,1.810,321.840,-60.0,0.400,-0.400,181.080,1000.0
2025-09-16T16:13:32.482871,0.090,1.810,321.840,-60.0,0.400,-0.400,181.080,1000.0
2025-09-16T16:13:32.528748,0.090,1.810,321.840,-60.0,0.400,-0.400,181.080,1000.0
2025-09-16T16:13:32.529750,0.090,1.810,321.840,-60.0,0.400,-0.400,181.080,1000.0
2025-09-16T16:13:32.573813,0.090,1.810,321.840,-60.0,0.400,-0.400,181.080,1000.0
2025-09-16T16:13:32.577806,0.090,1.810,321.840,-60.0,0.400,-0.400,181.080,1000.0
2025-09-16T16:13:32.603918,0.090,1.810,321.840,-60.0,0.400,-0.400,181.080,1000.0
2025-09-16T16:13:32.633919,0.090,1.810,321.840,-60.0,0.400,-0.400,181.080,1000.0
2025-09-16T16:13:32.634919,0.090,1.810,321.840,-60.0,0.400,-0.400,181.080,1000.0
2025-09-16T16:13:32.663710,0.090,1.810,321.840,-60.0,0.400,-0.400,181.080,1000.0
2025-09-16T16:13:32.668711,0.090,1.810,321.840,-60.0,0.400,-0.400,181.080,1000.0
2025-09-16T16:13:32.694084,0.090,1.810,321.840,-60.0,0.400,-0.400,181.080,1000.0
2025-09-16T16:13:32.724786,0.090,1.810,321.840,-60.0,0.400,-0.400,181.080,1000.0
2025-09-16T16:13:32.725785,0.090,1.810,321.840,-60.0,0.400,-0.400,181.080,1000.0
2025-09-16T16:13:32.755327,0.090,1.800,321.840,-60.0,0.400,-0.400,181.080,1000.0
2025-09-16T16:13:32.769387,0.090,1.800,321.840,-60.0,0.400,-0.400,181.080,1000.0
2025-09-16T16:13:32.800267,0.090,1.800,321.840,-60.0,0.400,-0.400,181.080,1000.0
2025-09-16T16:13:32.829987,0.090,1.800,321.840,-60.0,0.400,-0.400,181.080,1000.0
2025-09-16T16:13:32.844563,0.090,1.800,321.840,-60.0,0.400,-0.400,181.080,1000.0
2025-09-16T16:13:32.860999,0.090,1.800,321.840,-60.0,0.400,-0.400,181.080,1000.0
2025-09-16T16:13:32.878003,0.090,1.800,321.840,-60.0,0.400,-0.400,181.080,1000.0
2025-09-16T16:13:32.904996,0.090,1.810,321.840,-60.0,0.400,-0.400,181.080,1000.0
2025-09-16T16:13:32.935805,0.090,1.810,321.840,-60.0,0.400,-0.400,181.080,1000.0
2025-09-16T16:13:32.936803,0.090,1.810,321.840,-60.0,0.400,-0.400,181.080,1000.0
2025-09-16T16:13:32.966297,0.090,1.810,321.840,-60.0,0.400,-0.400,181.080,1000.0
2025-09-16T16:13:32.969303,0.090,1.810,321.840,-60.0,0.400,-0.400,181.080,1000.0
2025-09-16T16:13:32.996298,0.090,1.810,321.840,-60.0,0.400,-0.400,181.080,1000.0
2025-09-16T16:13:33.026300,0.080,1.810,321.840,-60.0,0.400,-0.400,181.080,1000.0
2025-09-16T16:13:33.027300,0.080,1.810,321.840,-60.0,0.400,-0.400,181.080,1000.0
2025-09-16T16:13:33.070799,0.080,1.810,321.840,-60.0,0.400,-0.400,181.080,1000.0
2025-09-16T16:13:33.074802,0.080,1.810,321.840,-60.0,0.400,-0.400,181.080,1000.0
2025-09-16T16:13:33.101803,0.080,1.810,321.840,-60.0,0.400,-0.400,181.080,1000.0
2025-09-16T16:13:33.102800,0.080,1.810,321.840,-60.0,0.400,-0.400,181.080,1000.0
2025-09-16T16:13:33.131735,0.080,1.810,321.840,-60.0,0.400,-0.400,181.080,1000.0
2025-09-16T16:13:33.160455,0.080,1.810,321.840,-60.0,0.400,-0.400,181.080,1000.0
2025-09-16T16:13:33.176456,0.080,1.810,321.840,-60.0,0.400,-0.400,181.080,1000.0
2025-09-16T16:13:33.190454,0.080,1.810,321.840,-60.0,0.400,-0.400,181.080,1000.0
2025-09-16T16:13:33.235165,0.080,1.810,321.840,-60.0,0.400,-0.400,181.080,1000.0
2025-09-16T16:13:33.237153,0.080,1.810,321.840,-60.0,0.400,-0.400,181.080,1000.0
2025-09-16T16:13:33.266154,0.080,1.810,321.840,-60.0,0.400,-0.400,181.080,1000.0
2025-09-16T16:13:33.270153,0.080,1.810,321.840,-60.0,0.400,-0.400,181.080,1000.0
2025-09-16T16:13:33.311153,0.080,1.810,321.840,-60.0,0.400,-0.400,181.080,1000.0
2025-09-16T16:13:33.312153,0.080,1.810,321.840,-60.0,0.400,-0.400,181.080,1000.0
2025-09-16T16:13:33.340159,0.080,1.810,321.840,-60.0,0.400,-0.400,181.080,1000.0
2025-09-16T16:13:33.370153,0.080,1.810,321.840,-60.0,0.400,-0.400,181.080,1000.0
2025-09-16T16:13:33.373155,0.080,1.810,321.840,-60.0,0.400,-0.400,181.080,1000.0
2025-09-16T16:13:33.400740,0.090,1.810,321.840,-60.0,0.400,-0.400,181.080,1000.0
2025-09-16T16:13:33.402741,0.090,1.810,321.840,-60.0,0.400,-0.400,181.080,1000.0
2025-09-16T16:13:33.432127,0.090,1.800,321.840,-60.0,0.400,-0.400,181.080,1000.0
2025-09-16T16:13:33.462279,0.090,1.800,321.840,-60.0,0.400,-0.400,181.080,1000.0
2025-09-16T16:13:33.466279,0.090,1.800,321.840,-60.0,0.400,-0.400,181.080,1000.0
2025-09-16T16:13:33.492718,0.080,1.790,321.840,-60.0,0.400,-0.400,181.080,1000.0
2025-09-16T16:13:33.493691,0.080,1.790,321.840,-60.0,0.400,-0.400,181.080,1000.0
2025-09-16T16:13:33.523289,0.080,1.790,321.840,-60.0,0.400,-0.400,181.080,1000.0
2025-09-16T16:13:33.583818,0.080,1.790,321.840,-60.0,0.400,-0.400,181.080,1000.0
2025-09-16T16:13:33.587816,0.090,1.790,321.840,-60.0,0.400,-0.400,181.080,1000.0
2025-09-16T16:13:33.613815,0.090,1.780,321.840,-59.9,0.400,-0.400,181.080,1000.0
2025-09-16T16:13:33.617816,0.090,1.780,321.840,-59.9,0.400,-0.400,181.080,1000.0
2025-09-16T16:13:33.643822,0.090,1.780,321.840,-59.9,0.400,-0.400,181.080,1000.0
2025-09-16T16:13:33.673960,0.090,1.780,321.840,-59.9,0.400,-0.400,181.080,1000.0
2025-09-16T16:13:33.676950,0.090,1.780,321.840,-59.9,0.400,-0.400,181.080,1000.0
2025-09-16T16:13:33.703109,0.090,1.780,321.840,-59.9,0.400,-0.400,181.080,1000.0
2025-09-16T16:13:33.705119,0.090,1.780,321.840,-59.9,0.400,-0.400,181.080,1000.0
2025-09-16T16:13:33.734923,0.090,1.780,321.840,-59.9,0.400,-0.400,181.080,1000.0
2025-09-16T16:13:33.765104,0.080,1.790,321.840,-59.9,0.400,-0.400,181.080,1000.0
2025-09-16T16:13:33.769099,0.080,1.790,321.840,-59.9,0.400,-0.400,181.080,1000.0
2025-09-16T16:13:33.795271,0.070,1.790,321.840,-59.9,0.400,-0.400,181.080,1000.0
2025-09-16T16:13:33.796270,0.070,1.790,321.840,-60.0,0.400,-0.400,181.080,1000.0
2025-09-16T16:13:33.840767,0.070,1.790,321.840,-60.0,0.400,-0.400,181.080,1000.0
2025-09-16T16:13:33.870806,0.070,1.800,321.840,-59.9,0.400,-0.400,181.080,1000.0
2025-09-16T16:13:33.888117,0.060,1.800,321.840,-59.9,0.400,-0.400,181.080,1000.0
2025-09-16T16:13:33.901118,0.060,1.800,321.840,-59.9,0.400,-0.400,181.080,1000.0
2025-09-16T16:13:33.916043,0.070,1.810,321.840,-59.9,0.400,-0.400,181.080,1000.0
2025-09-16T16:13:33.931036,0.070,1.810,321.840,-59.9,0.400,-0.400,181.080,1000.0
2025-09-16T16:13:33.977171,0.070,1.810,321.840,-59.9,0.400,-0.400,181.080,1000.0
2025-09-16T16:13:33.983172,0.070,1.800,321.840,-59.9,0.400,-0.400,181.080,1000.0
2025-09-16T16:13:34.007169,0.070,1.800,321.840,-59.9,0.400,-0.400,181.080,1000.0
2025-09-16T16:13:34.009170,0.070,1.800,321.840,-59.9,0.400,-0.400,181.080,1000.0
2025-09-16T16:13:34.037054,0.070,1.800,321.840,-59.9,0.400,-0.400,181.080,1000.0
2025-09-16T16:13:34.067764,0.070,1.800,321.840,-59.9,0.400,-0.400,181.080,1000.0
2025-09-16T16:13:34.070764,0.070,1.800,321.840,-59.9,0.400,-0.400,181.080,1000.0
2025-09-16T16:13:34.098615,0.080,1.800,321.840,-59.9,0.400,-0.400,181.080,1000.0
2025-09-16T16:13:34.100610,0.080,1.800,321.840,-59.9,0.400,-0.400,181.080,1000.0
2025-09-16T16:13:34.143778,0.080,1.790,321.840,-59.9,0.400,-0.400,181.080,1000.0
2025-09-16T16:13:34.174573,0.080,1.790,321.840,-59.9,0.400,-0.400,181.080,1000.0
2025-09-16T16:13:34.179572,0.080,1.790,321.840,-59.9,0.400,-0.400,181.080,1000.0
2025-09-16T16:13:34.203880,0.080,1.790,321.840,-59.9,0.400,-0.400,181.080,1000.0
2025-09-16T16:13:34.205881,0.080,1.790,321.840,-59.9,0.400,-0.400,181.080,1000.0
2025-09-16T16:13:34.235192,0.080,1.790,321.840,-59.9,0.400,-0.400,181.080,1000.0
2025-09-16T16:13:34.250492,0.080,1.790,321.840,-59.9,0.400,-0.400,181.080,1000.0
2025-09-16T16:13:34.265345,0.080,1.790,321.840,-59.9,0.400,-0.400,181.080,1000.0
2025-09-16T16:13:34.310544,0.080,1.790,321.840,-59.9,0.400,-0.400,181.080,1000.0
2025-09-16T16:13:34.312544,0.080,1.790,321.840,-59.9,0.400,-0.400,181.080,1000.0
2025-09-16T16:13:34.340797,0.080,1.790,321.840,-59.9,0.400,-0.400,181.080,1000.0
2025-09-16T16:13:34.341796,0.080,1.790,321.840,-59.9,0.400,-0.400,181.080,1000.0
2025-09-16T16:13:34.369807,0.080,1.780,321.840,-60.0,0.400,-0.400,181.080,1000.0
2025-09-16T16:13:34.416494,0.080,1.780,321.840,-60.0,0.400,-0.400,181.080,1000.0
2025-09-16T16:13:34.419489,0.090,1.780,321.840,-60.0,0.400,-0.400,181.080,1000.0
2025-09-16T16:13:34.445290,0.090,1.780,321.840,-60.0,0.400,-0.400,181.080,1000.0
2025-09-16T16:13:34.446289,0.090,1.780,321.840,-60.0,0.400,-0.400,181.080,1000.0
2025-09-16T16:13:34.475520,0.090,1.780,321.840,-60.0,0.400,-0.400,181.080,1000.0
2025-09-16T16:13:34.506065,0.090,1.780,321.840,-60.0,0.400,-0.400,181.080,1000.0
2025-09-16T16:13:34.507062,0.090,1.780,321.840,-60.0,0.400,-0.400,181.080,1000.0
2025-09-16T16:13:34.535360,0.090,1.780,321.840,-60.0,0.400,-0.400,181.080,1000.0
2025-09-16T16:13:34.537351,0.090,1.780,321.840,-60.0,0.400,-0.400,181.080,1000.0
2025-09-16T16:13:34.567556,0.090,1.780,321.840,-60.0,0.400,-0.400,181.080,1000.0
2025-09-16T16:13:34.597706,0.090,1.780,321.840,-59.9,0.400,-0.400,181.080,1000.0
2025-09-16T16:13:34.612982,0.090,1.780,321.840,-59.9,0.400,-0.400,181.080,1000.0
2025-09-16T16:13:34.642805,0.090,1.780,321.840,-59.9,0.400,-0.400,181.080,1000.0
2025-09-16T16:13:34.644805,0.090,1.780,321.840,-59.9,0.400,-0.400,181.080,1000.0
2025-09-16T16:13:34.687799,0.090,1.780,321.840,-59.9,0.400,-0.400,181.080,1000.0
2025-09-16T16:13:34.719098,0.090,1.780,321.840,-59.9,0.400,-0.400,181.080,1000.0
2025-09-16T16:13:34.721097,0.080,1.770,321.840,-59.9,0.400,-0.400,181.080,1000.0
2025-09-16T16:13:34.747638,0.080,1.770,321.840,-59.9,0.400,-0.400,181.080,1000.0
2025-09-16T16:13:34.749640,0.080,1.770,321.840,-59.9,0.400,-0.400,181.080,1000.0
2025-09-16T16:13:34.777472,0.080,1.770,321.840,-59.9,0.400,-0.400,181.080,1000.0
2025-09-16T16:13:34.808491,0.080,1.770,321.840,-59.9,0.400,-0.400,181.080,1000.0
2025-09-16T16:13:34.810490,0.080,1.770,321.840,-59.9,0.400,-0.400,181.080,1000.0
2025-09-16T16:13:34.839406,0.080,1.770,321.840,-59.9,0.400,-0.400,181.080,1000.0
2025-09-16T16:13:34.840407,0.080,1.770,321.840,-59.9,0.400,-0.400,181.080,1000.0
2025-09-16T16:13:34.870559,0.080,1.770,321.840,-60.0,0.400,-0.400,181.080,1000.0
2025-09-16T16:13:34.900303,0.080,1.770,321.840,-60.0,0.400,-0.400,181.080,1000.0
2025-09-16T16:13:34.915404,0.080,1.770,321.840,-60.0,0.400,-0.400,181.080,1000.0
2025-09-16T16:13:34.960758,0.080,1.770,321.840,-60.0,0.400,-0.400,181.080,1000.0
2025-09-16T16:13:34.961757,0.080,1.770,321.840,-60.0,0.400,-0.400,181.080,1000.0
2025-09-16T16:13:34.990763,0.090,1.780,321.840,-60.0,0.400,-0.400,181.080,1000.0
2025-09-16T16:13:35.021194,0.090,1.780,321.840,-60.0,0.400,-0.400,181.080,1000.0
2025-09-16T16:13:35.023192,0.090,1.780,321.840,-60.0,0.400,-0.400,181.080,1000.0
2025-09-16T16:13:35.051381,0.090,1.780,321.840,-60.0,0.400,-0.400,181.080,1000.0
2025-09-16T16:13:35.052380,0.090,1.780,321.840,-60.0,0.400,-0.400,181.080,1000.0
2025-09-16T16:13:35.081841,0.090,1.780,321.840,-60.0,0.400,-0.400,181.080,1000.0
2025-09-16T16:13:35.111894,0.080,1.790,321.840,-60.0,0.400,-0.400,181.080,1000.0
2025-09-16T16:13:35.114895,0.080,1.790,321.840,-60.0,0.400,-0.400,181.080,1000.0
2025-09-16T16:13:35.141995,0.090,1.800,321.840,-60.0,0.400,-0.400,181.080,1000.0
2025-09-16T16:13:35.142994,0.090,1.800,321.840,-60.0,0.400,-0.400,181.080,1000.0
2025-09-16T16:13:35.172437,0.090,1.810,321.840,-60.0,0.400,-0.400,181.080,1000.0
2025-09-16T16:13:35.173436,0.080,1.810,321.840,-60.0,0.400,-0.400,181.080,1000.0
2025-09-16T16:13:35.202513,0.080,1.810,321.840,-60.0,0.400,-0.400,181.080,1000.0
2025-09-16T16:13:35.248198,0.090,1.820,321.840,-60.0,0.400,-0.400,181.080,1000.0
2025-09-16T16:13:35.250199,0.090,1.820,321.840,-60.0,0.400,-0.400,181.080,1000.0
2025-09-16T16:13:35.278369,0.080,1.820,321.840,-60.0,0.400,-0.400,181.080,1000.0
2025-09-16T16:13:35.293594,0.080,1.820,321.840,-60.0,0.400,-0.400,181.080,1000.0
2025-09-16T16:13:35.324101,0.090,1.830,321.840,-60.0,0.400,-0.400,181.080,1000.0
2025-09-16T16:13:35.354160,0.090,1.830,321.830,-60.0,0.400,-0.400,181.080,1000.0
2025-09-16T16:13:35.355159,0.090,1.830,321.840,-60.0,0.400,-0.400,181.080,1000.0
2025-09-16T16:13:35.383957,0.100,1.820,321.840,-60.0,0.400,-0.400,181.080,1000.0
2025-09-16T16:13:35.385963,0.100,1.820,321.840,-60.0,0.400,-0.400,181.080,1000.0
2025-09-16T16:13:35.414407,0.100,1.820,321.840,-60.0,0.400,-0.400,181.080,1000.0
2025-09-16T16:13:35.444671,0.110,1.810,321.840,-59.9,0.400,-0.400,181.080,1000.0
2025-09-16T16:13:35.445662,0.110,1.820,321.840,-59.9,0.400,-0.400,181.080,1000.0
2025-09-16T16:13:35.475072,0.110,1.810,321.840,-60.0,0.400,-0.400,181.080,1000.0
2025-09-16T16:13:35.476069,0.110,1.810,321.840,-60.0,0.400,-0.400,181.080,1000.0
2025-09-16T16:13:35.521328,0.110,1.810,321.840,-59.9,0.400,-0.400,181.080,1000.0
2025-09-16T16:13:35.552348,0.110,1.810,321.840,-59.9,0.400,-0.400,181.080,1000.0
2025-09-16T16:13:35.553339,0.100,1.810,321.840,-59.9,0.400,-0.400,181.080,1000.0
2025-09-16T16:13:35.582316,0.100,1.810,321.840,-59.9,0.400,-0.400,181.080,1000.0
2025-09-16T16:13:35.584316,0.100,1.810,321.840,-59.9,0.400,-0.400,181.080,1000.0
2025-09-16T16:13:35.613023,0.100,1.800,321.840,-59.9,0.400,-0.400,181.080,1000.0
2025-09-16T16:13:35.658785,0.100,1.810,321.840,-59.9,0.400,-0.400,181.080,1000.0
2025-09-16T16:13:35.659783,0.100,1.810,321.840,-59.9,0.400,-0.400,181.080,1000.0
2025-09-16T16:13:35.687964,0.100,1.810,321.840,-59.9,0.400,-0.400,181.080,1000.0
2025-09-16T16:13:35.689955,0.100,1.810,321.840,-59.9,0.400,-0.400,181.080,1000.0
2025-09-16T16:13:35.720215,0.090,1.810,321.840,-59.9,0.400,-0.400,181.080,1000.0
2025-09-16T16:13:35.749455,0.090,1.810,321.840,-59.9,0.400,-0.400,181.080,1000.0
2025-09-16T16:13:35.751463,0.080,1.810,321.840,-59.9,0.400,-0.400,181.080,1000.0
2025-09-16T16:13:35.779813,0.080,1.820,321.840,-59.9,0.400,-0.400,181.080,1000.0
2025-09-16T16:13:35.780815,0.080,1.820,321.840,-59.9,0.400,-0.400,181.080,1000.0
2025-09-16T16:13:35.810245,0.080,1.820,321.840,-59.9,0.400,-0.400,181.080,1000.0
2025-09-16T16:13:35.854293,0.070,1.820,321.840,-59.9,0.400,-0.400,181.080,1000.0
2025-09-16T16:13:35.856285,0.070,1.820,321.850,-59.9,0.400,-0.400,181.080,1000.0
2025-09-16T16:13:35.885316,0.070,1.820,321.850,-59.9,0.400,-0.400,181.080,1000.0
2025-09-16T16:13:35.886316,0.080,1.820,321.840,-59.9,0.400,-0.400,181.080,1000.0
2025-09-16T16:13:35.915505,0.080,1.800,321.820,-59.9,0.400,-0.400,181.080,1000.0
2025-09-16T16:13:35.945818,0.080,1.800,321.830,-59.9,0.400,-0.400,181.080,1000.0
2025-09-16T16:13:35.961058,0.080,1.800,321.820,-59.9,0.400,-0.400,181.080,1000.0
2025-09-16T16:13:35.990746,0.080,1.790,321.820,-59.9,0.400,-0.400,181.080,1000.0
2025-09-16T16:13:35.992797,0.080,1.800,321.820,-59.9,0.400,-0.400,181.080,1000.0
2025-09-16T16:13:36.020544,0.080,1.800,321.820,-59.9,0.400,-0.400,181.080,1000.0
2025-09-16T16:13:36.022533,0.090,1.800,321.820,-59.9,0.400,-0.400,181.080,1000.0
2025-09-16T16:13:36.052230,0.080,1.790,321.820,-59.9,0.400,-0.400,181.080,1000.0
2025-09-16T16:13:36.082292,0.080,1.790,321.820,-59.9,0.400,-0.400,181.080,1000.0
2025-09-16T16:13:36.084293,0.080,1.790,321.820,-59.9,0.400,-0.400,181.080,1000.0
2025-09-16T16:13:36.127294,0.080,1.790,321.820,-59.9,0.400,-0.400,181.080,1000.0
2025-09-16T16:13:36.129292,0.080,1.790,321.820,-59.9,0.400,-0.400,181.080,1000.0
2025-09-16T16:13:36.157342,0.080,1.790,321.820,-59.9,0.400,-0.400,181.080,1000.0
2025-09-16T16:13:36.186383,0.080,1.790,321.820,-59.9,0.400,-0.400,181.080,1000.0
2025-09-16T16:13:36.188384,0.070,1.800,321.820,-59.9,0.400,-0.400,181.080,1000.0
2025-09-16T16:13:36.218201,0.070,1.790,321.820,-59.9,0.400,-0.400,181.080,1000.0
2025-09-16T16:13:36.221203,0.070,1.790,321.820,-59.9,0.400,-0.400,181.080,1000.0
2025-09-16T16:13:36.248575,0.070,1.790,321.820,-59.9,0.400,-0.400,181.080,1000.0
2025-09-16T16:13:36.278888,0.070,1.780,321.820,-59.9,0.400,-0.400,181.080,1000.0
2025-09-16T16:13:36.280888,0.060,1.790,321.820,-59.9,0.400,-0.400,181.080,1000.0
2025-09-16T16:13:36.309030,0.060,1.780,321.820,-59.9,0.400,-0.400,181.080,1000.0
2025-09-16T16:13:36.324083,0.060,1.780,321.830,-59.9,0.400,-0.400,181.080,1000.0
2025-09-16T16:13:36.353337,0.050,1.770,321.830,-59.9,0.400,-0.400,181.080,1000.0
2025-09-16T16:13:36.398143,0.050,1.770,321.830,-59.9,0.400,-0.400,181.080,1000.0
2025-09-16T16:13:36.400137,0.050,1.770,321.830,-59.9,0.400,-0.400,181.080,1000.0
2025-09-16T16:13:36.428741,0.050,1.780,321.840,-59.9,0.400,-0.400,181.080,1000.0
2025-09-16T16:13:36.430741,0.050,1.770,321.830,-59.9,0.400,-0.400,181.080,1000.0
2025-09-16T16:13:36.459665,0.050,1.770,321.830,-59.9,0.400,-0.400,181.080,1000.0
2025-09-16T16:13:36.489667,0.050,1.770,321.830,-60.0,0.400,-0.400,181.080,1000.0
2025-09-16T16:13:36.490664,0.050,1.770,321.830,-59.9,0.400,-0.400,181.080,1000.0
2025-09-16T16:13:36.520027,0.050,1.770,321.840,-59.9,0.400,-0.400,181.080,1000.0
2025-09-16T16:13:36.522027,0.050,1.770,321.830,-59.9,0.400,-0.400,181.080,1000.0
2025-09-16T16:13:36.550028,0.050,1.770,321.830,-59.9,0.400,-0.400,181.080,1000.0
2025-09-16T16:13:36.580027,0.050,1.770,321.830,-59.9,0.400,-0.400,181.080,1000.0
2025-09-16T16:13:36.581028,0.050,1.770,321.840,-59.9,0.400,-0.400,181.080,1000.0
2025-09-16T16:13:36.609396,0.060,1.780,321.830,-59.9,0.400,-0.400,181.080,1000.0
2025-09-16T16:13:36.611410,0.060,1.780,321.830,-59.9,0.400,-0.400,181.080,1000.0
2025-09-16T16:13:36.669425,0.050,1.780,321.840,-59.9,0.400,-0.400,181.080,1000.0
2025-09-16T16:13:36.700400,0.050,1.790,321.830,-60.0,0.400,-0.400,181.080,1000.0
2025-09-16T16:13:36.702399,0.050,1.780,321.840,-60.0,0.400,-0.400,181.080,1000.0
2025-09-16T16:13:36.729434,0.050,1.780,321.840,-60.0,0.400,-0.400,181.080,1000.0
2025-09-16T16:13:36.731442,0.050,1.790,321.840,-60.0,0.400,-0.400,181.080,1000.0
2025-09-16T16:13:36.760447,0.050,1.790,321.840,-60.0,0.400,-0.400,181.080,1000.0
2025-09-16T16:13:36.789434,0.050,1.790,321.840,-60.0,0.400,-0.400,181.080,1000.0
2025-09-16T16:13:36.791440,0.050,1.790,321.840,-60.0,0.400,-0.400,181.080,1000.0
2025-09-16T16:13:36.820411,0.060,1.790,321.830,-60.0,0.400,-0.400,181.080,1000.0
2025-09-16T16:13:36.822407,0.060,1.790,321.830,-59.9,0.400,-0.400,181.080,1000.0
2025-09-16T16:13:36.850381,0.060,1.790,321.840,-59.9,0.400,-0.400,181.080,1000.0
2025-09-16T16:13:36.854378,0.060,1.800,321.840,-59.9,0.400,-0.400,181.080,1000.0
2025-09-16T16:13:36.894886,0.070,1.800,321.840,-59.9,0.400,-0.400,181.080,1000.0
2025-09-16T16:13:36.924098,0.070,1.800,321.830,-59.9,0.400,-0.400,181.080,1000.0
2025-09-16T16:13:36.926098,0.070,1.800,321.840,-59.9,0.400,-0.400,181.080,1000.0
2025-09-16T16:13:36.955066,0.070,1.800,321.840,-59.9,0.400,-0.400,181.080,1000.0
2025-09-16T16:13:36.985459,0.070,1.800,321.840,-59.9,0.400,-0.400,181.080,1000.0
2025-09-16T16:13:36.999917,0.070,1.800,321.840,-59.9,0.400,-0.400,181.080,1000.0
2025-09-16T16:13:37.030721,0.070,1.800,321.840,-59.9,0.400,-0.400,181.080,1000.0
2025-09-16T16:13:37.031721,0.070,1.800,321.840,-60.0,0.400,-0.400,181.080,1000.0
2025-09-16T16:13:37.061529,0.080,1.790,321.840,-60.0,0.400,-0.400,181.080,1000.0
2025-09-16T16:13:37.064529,0.070,1.800,321.840,-60.0,0.400,-0.400,181.080,1000.0
2025-09-16T16:13:37.091511,0.070,1.810,321.840,-60.0,0.400,-0.400,181.080,1000.0
2025-09-16T16:13:37.137874,0.070,1.810,321.840,-60.0,0.400,-0.400,181.080,1000.0
2025-09-16T16:13:37.138880,0.070,1.810,321.840,-60.0,0.400,-0.400,181.080,1000.0
2025-09-16T16:13:37.168028,0.060,1.800,321.840,-60.0,0.400,-0.400,181.080,1000.0
2025-09-16T16:13:37.172026,0.060,1.810,321.840,-60.0,0.400,-0.400,181.080,1000.0
2025-09-16T16:13:37.198342,0.060,1.800,321.850,-60.0,0.400,-0.400,181.080,1000.0
2025-09-16T16:13:37.228474,0.070,1.810,321.840,-60.0,0.400,-0.400,181.080,1000.0
2025-09-16T16:13:37.230478,0.060,1.810,321.840,-60.0,0.400,-0.400,181.080,1000.0
2025-09-16T16:13:37.258562,0.060,1.810,321.840,-60.0,0.400,-0.400,181.080,1000.0
2025-09-16T16:13:37.273550,0.060,1.810,321.840,-60.0,0.400,-0.400,181.080,1000.0
2025-09-16T16:13:37.288856,0.060,1.810,321.840,-60.0,0.400,-0.400,181.080,1000.0
2025-09-16T16:13:37.320749,0.050,1.810,321.840,-60.0,0.400,-0.400,181.080,1000.0
2025-09-16T16:13:37.334767,0.050,1.810,321.840,-60.0,0.400,-0.400,181.080,1000.0
2025-09-16T16:13:37.364001,0.060,1.820,321.840,-60.0,0.400,-0.400,181.080,1000.0
2025-09-16T16:13:37.368007,0.060,1.820,321.840,-60.0,0.400,-0.400,181.080,1000.0
2025-09-16T16:13:37.395251,0.050,1.820,321.850,-60.0,0.400,-0.400,181.080,1000.0
2025-09-16T16:13:37.426297,0.050,1.820,321.850,-60.0,0.400,-0.400,181.080,1000.0
2025-09-16T16:13:37.427297,0.050,1.820,321.850,-60.0,0.400,-0.400,181.080,1000.0
2025-09-16T16:13:37.472406,0.050,1.820,321.850,-60.0,0.400,-0.400,181.080,1000.0
2025-09-16T16:13:37.475403,0.050,1.810,321.840,-60.0,0.400,-0.400,181.080,1000.0
2025-09-16T16:13:37.502573,0.050,1.820,321.850,-60.0,0.400,-0.400,181.080,1000.0
2025-09-16T16:13:37.531737,0.050,1.820,321.850,-59.9,0.400,-0.400,181.080,1000.0
2025-09-16T16:13:37.533734,0.050,1.810,321.850,-59.9,0.400,-0.400,181.080,1000.0
2025-09-16T16:13:37.562577,0.050,1.810,321.850,-59.9,0.400,-0.400,181.080,1000.0
2025-09-16T16:13:37.565577,0.050,1.810,321.850,-59.9,0.400,-0.400,181.080,1000.0
2025-09-16T16:13:37.592368,0.050,1.810,321.860,-59.9,0.400,-0.400,181.080,1000.0
2025-09-16T16:13:37.622399,0.050,1.820,321.860,-59.9,0.400,-0.400,181.080,1000.0
2025-09-16T16:13:37.623391,0.050,1.810,321.860,-59.9,0.400,-0.400,181.080,1000.0
2025-09-16T16:13:37.652892,0.050,1.810,321.860,-59.9,0.400,-0.400,181.080,1000.0
2025-09-16T16:13:37.671422,0.050,1.810,321.850,-59.9,0.400,-0.400,181.080,1000.0
2025-09-16T16:13:37.683279,0.040,1.820,321.850,-59.9,0.400,-0.400,181.080,1000.0
2025-09-16T16:13:37.744743,0.040,1.810,321.850,-59.9,0.400,-0.400,181.080,1000.0
2025-09-16T16:13:37.745744,0.040,1.810,321.850,-59.9,0.400,-0.400,181.080,1000.0
2025-09-16T16:13:37.774702,0.040,1.820,321.850,-59.9,0.400,-0.400,181.080,1000.0
2025-09-16T16:13:37.778696,0.040,1.820,321.840,-59.9,0.400,-0.400,181.080,1000.0
2025-09-16T16:13:37.803778,0.050,1.810,321.850,-59.9,0.400,-0.400,181.080,1000.0
2025-09-16T16:13:37.835518,0.040,1.820,321.850,-59.9,0.400,-0.400,181.080,1000.0
2025-09-16T16:13:37.837515,0.040,1.820,321.840,-59.9,0.400,-0.400,181.080,1000.0
2025-09-16T16:13:37.865629,0.040,1.820,321.840,-59.9,0.400,-0.400,181.080,1000.0
2025-09-16T16:13:37.868621,0.040,1.820,321.840,-59.9,0.400,-0.400,181.080,1000.0
2025-09-16T16:13:37.895721,0.040,1.820,321.840,-60.0,0.400,-0.400,181.080,1000.0
2025-09-16T16:13:37.924489,0.040,1.820,321.840,-60.0,0.400,-0.400,181.080,1000.0
2025-09-16T16:13:37.926482,0.040,1.820,321.840,-60.0,0.400,-0.400,181.080,1000.0
2025-09-16T16:13:37.955463,0.040,1.820,321.840,-60.0,0.400,-0.400,181.080,1000.0
2025-09-16T16:13:37.970527,0.040,1.820,321.840,-59.9,0.400,-0.400,181.080,1000.0
2025-09-16T16:13:38.001231,0.040,1.820,321.840,-59.9,0.400,-0.400,181.080,1000.0
2025-09-16T16:13:38.003235,0.040,1.820,321.840,-59.9,0.400,-0.400,181.080,1000.0
2025-09-16T16:13:38.031637,0.040,1.820,321.840,-60.0,0.400,-0.400,181.080,1000.0
2025-09-16T16:13:38.076728,0.040,1.810,321.840,-60.0,0.400,-0.400,181.080,1000.0
2025-09-16T16:13:38.079727,0.040,1.810,321.840,-60.0,0.400,-0.400,181.080,1000.0
2025-09-16T16:13:38.106689,0.040,1.810,321.840,-60.0,0.400,-0.400,181.080,1000.0
2025-09-16T16:13:38.107689,0.040,1.810,321.840,-59.9,0.400,-0.400,181.080,1000.0
2025-09-16T16:13:38.136442,0.040,1.810,321.840,-59.9,0.400,-0.400,181.080,1000.0
2025-09-16T16:13:38.166533,0.040,1.810,321.840,-59.9,0.400,-0.400,181.080,1000.0
2025-09-16T16:13:38.171531,0.040,1.810,321.840,-59.9,0.400,-0.400,181.080,1000.0
2025-09-16T16:13:38.197338,0.040,1.810,321.840,-59.9,0.400,-0.400,181.080,1000.0
2025-09-16T16:13:38.198340,0.040,1.810,321.840,-59.9,0.400,-0.400,181.080,1000.0
2025-09-16T16:13:38.227045,0.040,1.810,321.840,-59.9,0.400,-0.400,181.080,1000.0
2025-09-16T16:13:38.258947,0.040,1.810,321.840,-59.9,0.400,-0.400,181.080,1000.0
2025-09-16T16:13:38.262137,0.040,1.810,321.840,-59.9,0.400,-0.400,181.080,1000.0
2025-09-16T16:13:38.304055,0.040,1.810,321.840,-59.9,0.400,-0.400,181.080,1000.0
2025-09-16T16:13:38.305052,0.040,1.810,321.840,-59.9,0.400,-0.400,181.080,1000.0
2025-09-16T16:13:38.333713,0.040,1.810,321.840,-59.9,0.400,-0.400,181.080,1000.0
2025-09-16T16:13:38.363712,0.040,1.810,321.840,-59.9,0.400,-0.400,181.080,1000.0
2025-09-16T16:13:38.380712,0.040,1.810,321.850,-59.9,0.400,-0.400,181.080,1000.0
2025-09-16T16:13:38.408713,0.040,1.810,321.850,-59.9,0.400,-0.400,181.080,1000.0
2025-09-16T16:13:38.410712,0.040,1.810,321.850,-59.9,0.400,-0.400,181.080,1000.0
2025-09-16T16:13:38.438712,0.040,1.810,321.850,-59.9,0.400,-0.400,181.080,1000.0
2025-09-16T16:13:38.468716,0.040,1.810,321.850,-59.9,0.400,-0.400,181.080,1000.0
2025-09-16T16:13:38.472712,0.040,1.810,321.850,-59.8,0.400,-0.400,181.080,1000.0
2025-09-16T16:13:38.498720,0.040,1.810,321.850,-59.8,0.400,-0.400,181.080,1000.0
2025-09-16T16:13:38.499708,0.040,1.810,321.850,-59.8,0.400,-0.400,181.080,1000.0
2025-09-16T16:13:38.543395,0.040,1.810,321.850,-59.8,0.400,-0.400,181.080,1000.0
2025-09-16T16:13:38.573876,0.050,1.810,321.850,-59.9,0.400,-0.400,181.080,1000.0
2025-09-16T16:13:38.575877,0.050,1.810,321.850,-59.9,0.400,-0.400,181.080,1000.0
2025-09-16T16:13:38.604087,0.040,1.810,321.850,-59.9,0.400,-0.400,181.080,1000.0
2025-09-16T16:13:38.605099,0.050,1.820,321.850,-59.9,0.400,-0.400,181.080,1000.0
2025-09-16T16:13:38.634464,0.050,1.820,321.850,-59.9,0.400,-0.400,181.080,1000.0
2025-09-16T16:13:38.665215,0.050,1.820,321.850,-59.9,0.400,-0.400,181.080,1000.0
2025-09-16T16:13:38.680638,0.050,1.820,321.850,-59.9,0.400,-0.400,181.080,1000.0
2025-09-16T16:13:38.695290,0.050,1.820,321.850,-59.9,0.400,-0.400,181.080,1000.0
2025-09-16T16:13:38.696291,0.060,1.820,321.840,-59.9,0.400,-0.400,181.080,1000.0
2025-09-16T16:13:38.725763,0.060,1.810,321.840,-59.9,0.400,-0.400,181.080,1000.0
2025-09-16T16:13:38.771113,0.060,1.820,321.840,-59.9,0.400,-0.400,181.080,1000.0
2025-09-16T16:13:38.774113,0.060,1.820,321.840,-59.9,0.400,-0.400,181.080,1000.0
2025-09-16T16:13:38.816379,0.060,1.820,321.840,-59.9,0.400,-0.400,181.080,1000.0
2025-09-16T16:13:38.820384,0.060,1.820,321.840,-59.9,0.400,-0.400,181.080,1000.0
2025-09-16T16:13:38.846383,0.060,1.820,321.840,-59.9,0.400,-0.400,181.080,1000.0
2025-09-16T16:13:38.876378,0.070,1.820,321.840,-59.9,0.400,-0.400,181.080,1000.0
2025-09-16T16:13:38.879379,0.070,1.810,321.840,-59.9,0.400,-0.400,181.080,1000.0
2025-09-16T16:13:38.906374,0.070,1.810,321.840,-59.9,0.400,-0.400,181.080,1000.0
2025-09-16T16:13:38.907374,0.070,1.810,321.840,-59.9,0.400,-0.400,181.080,1000.0
2025-09-16T16:13:38.936839,0.070,1.810,321.840,-59.9,0.400,-0.400,181.080,1000.0
2025-09-16T16:13:38.937841,0.070,1.810,321.840,-59.9,0.400,-0.400,181.080,1000.0
2025-09-16T16:13:38.967359,0.080,1.820,321.840,-59.9,0.400,-0.400,181.080,1000.0
2025-09-16T16:13:38.997758,0.080,1.820,321.840,-59.9,0.400,-0.400,181.080,1000.0
2025-09-16T16:13:38.998753,0.080,1.820,321.840,-59.9,0.400,-0.400,181.080,1000.0
2025-09-16T16:13:39.027895,0.080,1.820,321.840,-59.9,0.400,-0.400,181.080,1000.0
2025-09-16T16:13:39.041912,0.070,1.810,321.840,-59.9,0.400,-0.400,181.080,1000.0
2025-09-16T16:13:39.071688,0.070,1.810,321.840,-60.0,0.400,-0.400,181.080,1000.0
2025-09-16T16:13:39.117517,0.080,1.800,321.840,-60.0,0.400,-0.400,181.080,1000.0
2025-09-16T16:13:39.119517,0.080,1.800,321.840,-60.0,0.400,-0.400,181.080,1000.0
2025-09-16T16:13:39.147576,0.080,1.800,321.840,-60.0,0.400,-0.400,181.080,1000.0
2025-09-16T16:13:39.149573,0.080,1.800,321.840,-60.0,0.400,-0.400,181.080,1000.0
2025-09-16T16:13:39.177536,0.080,1.800,321.840,-60.0,0.400,-0.400,181.080,1000.0
2025-09-16T16:13:39.207664,0.090,1.800,321.840,-60.0,0.400,-0.400,181.080,1000.0
2025-09-16T16:13:39.208665,0.090,1.800,321.840,-60.0,0.400,-0.400,181.080,1000.0
2025-09-16T16:13:39.238339,0.080,1.810,321.840,-60.0,0.400,-0.400,181.080,1000.0
2025-09-16T16:13:39.239339,0.080,1.800,321.840,-60.0,0.400,-0.400,181.080,1000.0
2025-09-16T16:13:39.268350,0.080,1.810,321.840,-60.0,0.400,-0.400,181.080,1000.0
2025-09-16T16:13:39.298414,0.090,1.810,321.840,-60.0,0.400,-0.400,181.080,1000.0
2025-09-16T16:13:39.300414,0.090,1.810,321.840,-60.0,0.400,-0.400,181.080,1000.0
2025-09-16T16:13:39.343629,0.090,1.800,321.840,-60.0,0.400,-0.400,181.080,1000.0
2025-09-16T16:13:39.344626,0.090,1.800,321.840,-60.0,0.400,-0.400,181.080,1000.0
2025-09-16T16:13:39.373380,0.090,1.810,321.840,-60.0,0.400,-0.400,181.080,1000.0
2025-09-16T16:13:39.419360,0.090,1.820,321.840,-60.0,0.400,-0.400,181.080,1000.0
2025-09-16T16:13:39.421365,0.090,1.820,321.840,-59.9,0.400,-0.400,181.080,1000.0
2025-09-16T16:13:39.449950,0.090,1.820,321.840,-59.9,0.400,-0.400,181.080,1000.0
2025-09-16T16:13:39.451953,0.090,1.830,321.840,-60.0,0.400,-0.400,181.080,1000.0
2025-09-16T16:13:39.480581,0.090,1.830,321.840,-60.0,0.400,-0.400,181.080,1000.0
2025-09-16T16:13:39.511048,0.090,1.830,321.840,-60.0,0.400,-0.400,181.080,1000.0
2025-09-16T16:13:39.513048,0.090,1.810,321.840,-60.0,0.400,-0.400,181.080,1000.0
2025-09-16T16:13:39.540056,0.090,1.810,321.840,-60.0,0.400,-0.400,181.080,1000.0
2025-09-16T16:13:39.542048,0.090,1.810,321.840,-60.0,0.400,-0.400,181.080,1000.0
2025-09-16T16:13:39.571204,0.090,1.810,321.840,-60.0,0.400,-0.400,181.080,1000.0
2025-09-16T16:13:39.616550,0.090,1.810,321.840,-60.0,0.400,-0.400,181.080,1000.0
2025-09-16T16:13:39.618555,0.090,1.800,321.830,-59.9,0.400,-0.400,181.080,1000.0
2025-09-16T16:13:39.647252,0.090,1.800,321.830,-59.9,0.400,-0.400,181.080,1000.0
2025-09-16T16:13:39.649243,0.090,1.800,321.830,-59.9,0.400,-0.400,181.080,1000.0
2025-09-16T16:13:39.677786,0.090,1.800,321.830,-59.9,0.400,-0.400,181.080,1000.0
2025-09-16T16:13:39.707825,0.090,1.800,321.830,-59.9,0.400,-0.400,181.080,1000.0
2025-09-16T16:13:39.708826,0.090,1.810,321.810,-59.9,0.400,-0.400,181.080,1000.0
2025-09-16T16:13:39.738150,0.080,1.820,321.780,-59.9,0.400,-0.400,181.080,1000.0
2025-09-16T16:13:39.753415,0.070,1.820,321.750,-59.9,0.400,-0.400,181.080,1000.0
2025-09-16T16:13:39.768418,0.070,1.830,321.700,-59.9,0.400,-0.400,181.080,1000.0
2025-09-16T16:13:39.814714,0.060,1.830,321.640,-59.9,0.400,-0.400,181.080,1000.0
2025-09-16T16:13:39.818716,0.050,1.840,321.570,-59.9,0.400,-0.400,181.080,1000.0
2025-09-16T16:13:39.843720,0.050,1.840,321.510,-59.9,0.400,-0.400,181.080,1000.0
2025-09-16T16:13:39.845713,0.040,1.850,321.450,-59.9,0.400,-0.400,181.080,1000.0
2025-09-16T16:13:39.874715,0.030,1.860,321.390,-59.9,0.400,-0.400,181.080,1000.0
2025-09-16T16:13:39.875714,0.040,1.860,321.330,-59.9,0.400,-0.400,181.080,1000.0
2025-09-16T16:13:39.920373,0.030,1.870,321.280,-59.9,0.400,-0.400,181.080,1000.0
2025-09-16T16:13:39.950381,0.020,1.880,321.240,-59.9,0.400,-0.400,181.080,1000.0
