Timestamp,Roll_Angle,Pitch_Angle,Yaw_Angle,Altitude,Roll_Setpoint,Pitch_Setpoint,Yaw_Setpoint,Altitude_Setpoint
2025-09-04T15:52:36.484815,-2.860,2.220,359.900,-85.0,0.200,-0.300,180.360,1000.0
2025-09-04T15:52:36.485815,-2.860,2.220,359.900,-85.0,0.200,-0.300,180.360,1000.0
2025-09-04T15:52:36.609815,-2.860,2.220,359.900,-85.0,0.200,-0.300,180.360,1000.0
2025-09-04T15:52:36.611814,-2.860,2.220,359.900,-85.0,0.200,-0.300,180.360,1000.0
2025-09-04T15:52:36.613816,-2.860,2.220,359.900,-85.0,0.200,-0.300,180.360,1000.0
2025-09-04T15:52:36.615814,-2.850,2.220,359.900,-85.0,0.200,-0.300,180.360,1000.0
2025-09-04T15:52:36.616815,-2.850,2.220,359.900,-85.0,0.200,-0.300,180.360,1000.0
2025-09-04T15:52:36.736843,-2.850,2.230,359.900,-85.0,0.200,-0.300,180.360,1000.0
2025-09-04T15:52:36.738853,-2.850,2.230,359.900,-85.0,0.200,-0.300,180.360,1000.0
2025-09-04T15:52:36.739852,-2.850,2.230,359.900,-85.0,0.200,-0.300,180.360,1000.0
2025-09-04T15:52:36.740846,-2.850,2.230,359.900,-85.0,0.200,-0.300,180.360,1000.0
2025-09-04T15:52:36.742844,-2.850,2.230,359.900,-85.0,0.200,-0.300,180.360,1000.0
2025-09-04T15:52:36.848842,-2.850,2.230,359.900,-85.0,0.200,-0.300,180.360,1000.0
2025-09-04T15:52:36.849841,-2.850,2.230,359.900,-85.0,0.200,-0.300,180.360,1000.0
2025-09-04T15:52:36.851842,-2.850,2.230,359.900,-85.0,0.200,-0.300,180.360,1000.0
2025-09-04T15:52:36.852846,-2.850,2.230,359.900,-85.0,0.200,-0.300,180.360,1000.0
2025-09-04T15:52:36.853843,-2.850,2.230,359.900,-85.0,0.200,-0.300,180.360,1000.0
2025-09-04T15:52:36.959872,-2.850,2.230,359.900,-85.0,0.200,-0.300,180.360,1000.0
2025-09-04T15:52:36.961874,-2.850,2.230,359.900,-85.0,0.200,-0.300,180.360,1000.0
2025-09-04T15:52:36.964877,-2.850,2.230,359.900,-85.0,0.200,-0.300,180.360,1000.0
2025-09-04T15:52:36.966872,-2.850,2.230,359.900,-85.1,0.200,-0.300,180.360,1000.0
2025-09-04T15:52:36.968875,-2.850,2.230,359.900,-85.1,0.200,-0.300,180.360,1000.0
2025-09-04T15:52:37.083871,-2.850,2.230,359.900,-85.1,0.200,-0.300,180.360,1000.0
2025-09-04T15:52:37.085871,-2.850,2.230,359.900,-85.0,0.200,-0.300,180.360,1000.0
2025-09-04T15:52:37.086869,-2.850,2.230,359.900,-85.0,0.200,-0.300,180.360,1000.0
2025-09-04T15:52:37.087870,-2.850,2.230,359.900,-85.0,0.200,-0.300,180.360,1000.0
2025-09-04T15:52:37.088870,-2.850,2.230,359.900,-85.0,0.200,-0.300,180.360,1000.0
2025-09-04T15:52:37.203464,-2.850,2.230,359.900,-85.0,0.200,-0.300,180.360,1000.0
2025-09-04T15:52:37.205457,-2.850,2.230,359.900,-85.0,0.200,-0.300,180.360,1000.0
2025-09-04T15:52:37.207460,-2.850,2.230,359.900,-85.0,0.200,-0.300,180.360,1000.0
2025-09-04T15:52:37.210463,-2.850,2.220,359.900,-85.0,0.200,-0.300,180.360,1000.0
2025-09-04T15:52:37.212460,-2.850,2.220,359.900,-85.0,0.200,-0.300,180.360,1000.0
2025-09-04T15:52:37.317029,-2.850,2.220,359.900,-85.0,0.200,-0.300,180.360,1000.0
2025-09-04T15:52:37.318041,-2.850,2.220,359.910,-85.0,0.200,-0.300,180.360,1000.0
2025-09-04T15:52:37.319029,-2.850,2.220,359.910,-85.0,0.200,-0.300,180.360,1000.0
2025-09-04T15:52:37.320028,-2.850,2.210,359.910,-85.0,0.200,-0.300,180.360,1000.0
2025-09-04T15:52:37.322028,-2.850,2.210,359.910,-85.0,0.200,-0.300,180.360,1000.0
2025-09-04T15:52:37.426030,-2.850,2.210,359.910,-85.0,0.200,-0.300,180.360,1000.0
2025-09-04T15:52:37.428027,-2.850,2.220,359.910,-85.0,0.200,-0.300,180.360,1000.0
2025-09-04T15:52:37.429028,-2.850,2.220,359.910,-85.0,0.200,-0.300,180.360,1000.0
2025-09-04T15:52:37.430029,-2.850,2.220,359.910,-85.0,0.200,-0.300,180.360,1000.0
2025-09-04T15:52:37.432029,-2.850,2.220,359.910,-85.0,0.200,-0.300,180.360,1000.0
2025-09-04T15:52:37.548243,-2.850,2.220,359.910,-85.0,0.200,-0.300,180.360,1000.0
2025-09-04T15:52:37.549241,-2.850,2.220,359.910,-85.0,0.200,-0.300,180.360,1000.0
2025-09-04T15:52:37.550242,-2.850,2.220,359.910,-85.0,0.200,-0.300,180.360,1000.0
2025-09-04T15:52:37.551242,-2.850,2.220,359.910,-85.0,0.200,-0.300,180.360,1000.0
2025-09-04T15:52:37.553242,-2.850,2.220,359.910,-85.0,0.200,-0.300,180.360,1000.0
2025-09-04T15:52:37.658243,-2.850,2.220,359.910,-85.0,0.200,-0.300,180.360,1000.0
2025-09-04T15:52:37.659245,-2.850,2.220,359.910,-85.0,0.200,-0.300,180.360,1000.0
2025-09-04T15:52:37.661246,-2.850,2.220,359.910,-85.0,0.200,-0.300,180.360,1000.0
2025-09-04T15:52:37.663252,-2.850,2.220,359.910,-85.0,0.200,-0.300,180.360,1000.0
2025-09-04T15:52:37.664242,-2.850,2.220,359.910,-85.0,0.200,-0.300,180.360,1000.0
2025-09-04T15:52:37.782790,-2.850,2.220,359.910,-85.0,0.200,-0.300,180.360,1000.0
2025-09-04T15:52:37.783789,-2.850,2.220,359.910,-85.0,0.200,-0.300,180.360,1000.0
2025-09-04T15:52:37.785789,-2.850,2.220,359.910,-85.0,0.200,-0.300,180.360,1000.0
2025-09-04T15:52:37.786789,-2.850,2.220,359.910,-85.0,0.200,-0.300,180.360,1000.0
2025-09-04T15:52:37.787789,-2.850,2.220,359.910,-85.0,0.200,-0.300,180.360,1000.0
2025-09-04T15:52:37.906795,-2.850,2.220,359.910,-85.0,0.200,-0.300,180.360,1000.0
2025-09-04T15:52:37.908792,-2.850,2.220,359.910,-85.0,0.200,-0.300,180.360,1000.0
2025-09-04T15:52:37.910791,-2.850,2.220,359.910,-85.0,0.200,-0.300,180.360,1000.0
2025-09-04T15:52:37.912791,-2.850,2.220,359.910,-85.0,0.200,-0.300,180.360,1000.0
2025-09-04T15:52:37.915795,-2.850,2.210,359.910,-85.0,0.200,-0.300,180.360,1000.0
2025-09-04T15:52:38.028790,-2.850,2.210,359.910,-85.0,0.200,-0.300,180.360,1000.0
2025-09-04T15:52:38.030789,-2.850,2.220,359.910,-85.0,0.200,-0.300,180.360,1000.0
2025-09-04T15:52:38.031790,-2.850,2.220,359.910,-85.0,0.200,-0.300,180.360,1000.0
2025-09-04T15:52:38.033792,-2.850,2.220,359.910,-85.0,0.200,-0.300,180.360,1000.0
2025-09-04T15:52:38.034790,-2.850,2.220,359.910,-85.0,0.200,-0.300,180.360,1000.0
2025-09-04T15:52:38.151789,-2.850,2.220,359.910,-85.0,0.200,-0.300,180.360,1000.0
2025-09-04T15:52:38.153789,-2.850,2.220,359.910,-85.0,0.200,-0.300,180.360,1000.0
2025-09-04T15:52:38.154789,-2.850,2.220,359.910,-85.0,0.200,-0.300,180.360,1000.0
2025-09-04T15:52:38.156790,-2.850,2.220,359.910,-85.0,0.200,-0.300,180.360,1000.0
2025-09-04T15:52:38.158791,-2.850,2.210,359.910,-85.0,0.200,-0.300,180.360,1000.0
2025-09-04T15:52:38.277789,-2.850,2.210,359.910,-85.1,0.200,-0.300,180.360,1000.0
2025-09-04T15:52:38.279788,-2.850,2.210,359.910,-85.1,0.200,-0.300,180.360,1000.0
2025-09-04T15:52:38.280788,-2.850,2.210,359.910,-85.1,0.200,-0.300,180.360,1000.0
2025-09-04T15:52:38.281789,-2.850,2.210,359.910,-85.1,0.200,-0.300,180.360,1000.0
2025-09-04T15:52:38.282790,-2.850,2.210,359.910,-85.1,0.200,-0.300,180.360,1000.0
2025-09-04T15:52:38.387788,-2.850,2.210,359.910,-85.1,0.200,-0.300,180.360,1000.0
2025-09-04T15:52:38.388789,-2.850,2.210,359.920,-85.1,0.200,-0.300,180.360,1000.0
2025-09-04T15:52:38.389789,-2.850,2.210,359.920,-85.1,0.200,-0.300,180.360,1000.0
2025-09-04T15:52:38.391792,-2.850,2.210,359.920,-85.1,0.200,-0.300,180.360,1000.0
2025-09-04T15:52:38.392791,-2.850,2.210,359.920,-85.1,0.200,-0.300,180.360,1000.0
2025-09-04T15:52:38.512792,-2.850,2.210,359.920,-85.1,0.200,-0.300,180.360,1000.0
2025-09-04T15:52:38.516792,-2.850,2.210,359.920,-85.1,0.200,-0.300,180.360,1000.0
2025-09-04T15:52:38.519793,-2.850,2.210,359.920,-85.1,0.200,-0.300,180.360,1000.0
2025-09-04T15:52:38.520793,-2.850,2.210,359.920,-85.1,0.200,-0.300,180.360,1000.0
2025-09-04T15:52:38.522789,-2.850,2.210,359.920,-85.0,0.200,-0.300,180.360,1000.0
2025-09-04T15:52:38.636817,-2.850,2.210,359.920,-85.0,0.200,-0.300,180.360,1000.0
2025-09-04T15:52:38.637828,-2.850,2.210,359.920,-85.0,0.200,-0.300,180.360,1000.0
2025-09-04T15:52:38.639816,-2.850,2.220,359.920,-85.0,0.200,-0.300,180.360,1000.0
2025-09-04T15:52:38.640816,-2.850,2.220,359.920,-85.0,0.200,-0.300,180.360,1000.0
2025-09-04T15:52:38.642818,-2.850,2.220,359.920,-85.0,0.200,-0.300,180.360,1000.0
2025-09-04T15:52:38.761817,-2.850,2.220,359.920,-85.0,0.200,-0.300,180.360,1000.0
2025-09-04T15:52:38.763815,-2.850,2.220,359.920,-85.0,0.200,-0.300,180.360,1000.0
2025-09-04T15:52:38.764817,-2.850,2.220,359.920,-85.0,0.200,-0.300,180.360,1000.0
2025-09-04T15:52:38.766824,-2.850,2.220,359.920,-85.0,0.200,-0.300,180.360,1000.0
2025-09-04T15:52:38.767817,-2.850,2.220,359.920,-85.0,0.200,-0.300,180.360,1000.0
2025-09-04T15:52:38.885817,-2.850,2.220,359.920,-85.0,0.200,-0.300,180.360,1000.0
2025-09-04T15:52:38.886819,-2.850,2.220,359.920,-85.0,0.200,-0.300,180.360,1000.0
2025-09-04T15:52:38.887817,-2.850,2.220,359.920,-85.0,0.200,-0.300,180.360,1000.0
2025-09-04T15:52:38.888816,-2.850,2.220,359.920,-85.0,0.200,-0.300,180.360,1000.0
2025-09-04T15:52:38.890819,-2.850,2.220,359.920,-85.0,0.200,-0.300,180.360,1000.0
2025-09-04T15:52:39.009817,-2.850,2.220,359.920,-85.0,0.200,-0.300,180.360,1000.0
2025-09-04T15:52:39.012816,-2.850,2.220,359.920,-85.0,0.200,-0.300,180.360,1000.0
2025-09-04T15:52:39.014815,-2.850,2.220,359.920,-85.0,0.200,-0.300,180.360,1000.0
2025-09-04T15:52:39.015816,-2.850,2.220,359.920,-85.0,0.200,-0.300,180.360,1000.0
2025-09-04T15:52:39.016816,-2.850,2.210,359.920,-85.0,0.200,-0.300,180.360,1000.0
2025-09-04T15:52:39.133816,-2.850,2.210,359.920,-85.0,0.200,-0.300,180.360,1000.0
2025-09-04T15:52:39.135818,-2.850,2.210,359.920,-85.0,0.200,-0.300,180.360,1000.0
2025-09-04T15:52:39.136816,-2.850,2.210,359.920,-85.0,0.200,-0.300,180.360,1000.0
2025-09-04T15:52:39.137816,-2.850,2.210,359.920,-85.0,0.200,-0.300,180.360,1000.0
2025-09-04T15:52:39.138817,-2.850,2.210,359.920,-85.0,0.200,-0.300,180.360,1000.0
2025-09-04T15:52:39.245214,-2.850,2.200,359.920,-85.0,0.200,-0.300,180.360,1000.0
2025-09-04T15:52:39.246211,-2.850,2.200,359.920,-85.0,0.200,-0.300,180.360,1000.0
2025-09-04T15:52:39.247212,-2.850,2.200,359.920,-85.0,0.200,-0.300,180.360,1000.0
2025-09-04T15:52:39.248212,-2.850,2.200,359.920,-85.0,0.200,-0.300,180.360,1000.0
2025-09-04T15:52:39.249211,-2.850,2.200,359.920,-85.0,0.200,-0.300,180.360,1000.0
2025-09-04T15:52:39.355212,-2.850,2.200,359.920,-85.0,0.200,-0.300,180.360,1000.0
2025-09-04T15:52:39.356212,-2.850,2.200,359.920,-85.0,0.200,-0.300,180.360,1000.0
2025-09-04T15:52:39.357212,-2.850,2.200,359.920,-85.0,0.200,-0.300,180.360,1000.0
2025-09-04T15:52:39.359216,-2.850,2.200,359.930,-85.0,0.200,-0.300,180.360,1000.0
2025-09-04T15:52:39.360212,-2.850,2.200,359.930,-85.0,0.200,-0.300,180.360,1000.0
2025-09-04T15:52:39.479194,-2.850,2.200,359.930,-85.0,0.200,-0.300,180.360,1000.0
2025-09-04T15:52:39.480193,-2.850,2.200,359.920,-85.0,0.200,-0.300,180.360,1000.0
2025-09-04T15:52:39.482194,-2.850,2.200,359.920,-85.0,0.200,-0.300,180.360,1000.0
2025-09-04T15:52:39.483195,-2.850,2.210,359.920,-85.0,0.200,-0.300,180.360,1000.0
2025-09-04T15:52:39.485195,-2.850,2.210,359.930,-85.0,0.200,-0.300,180.360,1000.0
2025-09-04T15:52:39.602156,-2.850,2.200,359.930,-85.0,0.200,-0.300,180.360,1000.0
2025-09-04T15:52:39.603142,-2.850,2.200,359.930,-85.0,0.200,-0.300,180.360,1000.0
2025-09-04T15:52:39.604142,-2.850,2.200,359.930,-85.0,0.200,-0.300,180.360,1000.0
2025-09-04T15:52:39.605142,-2.850,2.200,359.930,-85.0,0.200,-0.300,180.360,1000.0
2025-09-04T15:52:39.607143,-2.850,2.200,359.930,-85.0,0.200,-0.300,180.360,1000.0
2025-09-04T15:52:39.712152,-2.850,2.210,359.930,-85.0,0.200,-0.300,180.360,1000.0
2025-09-04T15:52:39.719158,-2.850,2.210,359.930,-85.0,0.200,-0.300,180.360,1000.0
2025-09-04T15:52:39.729153,-2.850,2.210,359.930,-85.0,0.200,-0.300,180.360,1000.0
2025-09-04T15:52:39.731157,-2.850,2.210,359.930,-85.0,0.200,-0.300,180.360,1000.0
2025-09-04T15:52:39.733153,-2.850,2.210,359.930,-85.0,0.200,-0.300,180.360,1000.0
2025-09-04T15:52:39.851198,-2.850,2.210,359.930,-85.0,0.200,-0.300,180.360,1000.0
2025-09-04T15:52:39.853198,-2.850,2.210,359.930,-85.0,0.200,-0.300,180.360,1000.0
2025-09-04T15:52:39.854198,-2.850,2.210,359.930,-85.0,0.200,-0.300,180.360,1000.0
2025-09-04T15:52:39.855198,-2.850,2.210,359.930,-85.0,0.200,-0.300,180.360,1000.0
2025-09-04T15:52:39.856199,-2.850,2.210,359.930,-85.0,0.200,-0.300,180.360,1000.0
2025-09-04T15:52:39.962199,-2.850,2.210,359.930,-85.0,0.200,-0.300,180.360,1000.0
2025-09-04T15:52:39.963198,-2.850,2.210,359.920,-85.1,0.200,-0.300,180.360,1000.0
2025-09-04T15:52:39.969208,-2.850,2.200,359.920,-85.1,0.200,-0.300,180.360,1000.0
2025-09-04T15:52:39.979204,-2.850,2.200,359.920,-85.1,0.200,-0.300,180.360,1000.0
2025-09-04T15:52:39.981201,-2.850,2.200,359.920,-85.1,0.200,-0.300,180.360,1000.0
2025-09-04T15:52:40.099242,-2.850,2.200,359.920,-85.0,0.200,-0.300,180.360,1000.0
2025-09-04T15:52:40.101241,-2.850,2.200,359.920,-85.0,0.200,-0.300,180.360,1000.0
2025-09-04T15:52:40.102242,-2.850,2.190,359.920,-85.0,0.200,-0.300,180.360,1000.0
2025-09-04T15:52:40.103243,-2.850,2.190,359.920,-85.0,0.200,-0.300,180.360,1000.0
2025-09-04T15:52:40.104242,-2.850,2.190,359.920,-85.0,0.200,-0.300,180.360,1000.0
2025-09-04T15:52:40.211242,-2.850,2.190,359.910,-85.0,0.200,-0.300,180.360,1000.0
2025-09-04T15:52:40.212243,-2.850,2.190,359.910,-85.0,0.200,-0.300,180.360,1000.0
2025-09-04T15:52:40.225252,-2.850,2.190,359.910,-85.0,0.200,-0.300,180.360,1000.0
2025-09-04T15:52:40.228245,-2.850,2.200,359.920,-85.0,0.200,-0.300,180.360,1000.0
2025-09-04T15:52:40.230243,-2.850,2.200,359.920,-85.0,0.200,-0.300,180.360,1000.0
2025-09-04T15:52:40.335241,-2.850,2.200,359.920,-85.0,0.200,-0.300,180.360,1000.0
2025-09-04T15:52:40.337245,-2.850,2.210,359.920,-85.0,0.200,-0.300,180.360,1000.0
2025-09-04T15:52:40.339242,-2.850,2.210,359.920,-85.1,0.200,-0.300,180.360,1000.0
2025-09-04T15:52:40.340243,-2.850,2.200,359.920,-85.1,0.200,-0.300,180.360,1000.0
2025-09-04T15:52:40.342243,-2.850,2.200,359.920,-85.1,0.200,-0.300,180.360,1000.0
2025-09-04T15:52:40.459241,-2.850,2.200,359.930,-85.0,0.200,-0.300,180.360,1000.0
2025-09-04T15:52:40.462243,-2.850,2.200,359.920,-85.0,0.200,-0.300,180.360,1000.0
2025-09-04T15:52:40.464243,-2.860,2.190,359.920,-85.0,0.200,-0.300,180.360,1000.0
2025-09-04T15:52:40.465242,-2.860,2.200,359.920,-85.0,0.200,-0.300,180.360,1000.0
2025-09-04T15:52:40.471251,-2.870,2.200,359.920,-85.0,0.200,-0.300,180.360,1000.0
2025-09-04T15:52:40.597242,-2.870,2.200,359.920,-85.0,0.200,-0.300,180.360,1000.0
2025-09-04T15:52:40.599244,-2.870,2.200,359.920,-85.0,0.200,-0.300,180.360,1000.0
2025-09-04T15:52:40.601244,-2.870,2.200,359.920,-85.0,0.200,-0.300,180.360,1000.0
2025-09-04T15:52:40.603241,-2.870,2.210,359.930,-85.0,0.200,-0.300,180.360,1000.0
2025-09-04T15:52:40.604243,-2.860,2.210,359.930,-85.0,0.200,-0.300,180.360,1000.0
2025-09-04T15:52:40.733810,-2.860,2.210,359.930,-85.0,0.200,-0.300,180.360,1000.0
2025-09-04T15:52:40.736854,-2.860,2.210,359.930,-85.0,0.200,-0.300,180.360,1000.0
2025-09-04T15:52:40.738842,-2.860,2.210,359.930,-85.0,0.200,-0.300,180.360,1000.0
2025-09-04T15:52:40.739808,-2.860,2.210,359.930,-85.0,0.200,-0.300,180.360,1000.0
2025-09-04T15:52:40.741809,-2.860,2.210,359.930,-85.0,0.200,-0.300,180.360,1000.0
2025-09-04T15:52:40.861815,-2.860,2.210,359.930,-85.0,0.200,-0.300,180.360,1000.0
2025-09-04T15:52:40.864812,-2.860,2.210,359.930,-85.0,0.200,-0.300,180.360,1000.0
2025-09-04T15:52:40.866808,-2.860,2.210,359.930,-85.0,0.200,-0.300,180.360,1000.0
2025-09-04T15:52:40.868808,-2.860,2.210,359.930,-85.0,0.200,-0.300,180.360,1000.0
2025-09-04T15:52:40.870816,-2.860,2.210,359.930,-85.0,0.200,-0.300,180.360,1000.0
2025-09-04T15:52:40.986809,-2.850,2.210,359.930,-85.0,0.200,-0.300,180.360,1000.0
2025-09-04T15:52:40.988819,-2.850,2.210,359.930,-85.0,0.200,-0.300,180.360,1000.0
2025-09-04T15:52:40.989810,-2.850,2.220,359.930,-85.0,0.200,-0.300,180.360,1000.0
2025-09-04T15:52:40.990810,-2.850,2.220,359.930,-85.0,0.200,-0.300,180.360,1000.0
2025-09-04T15:52:40.991811,-2.850,2.220,359.930,-85.0,0.200,-0.300,180.360,1000.0
2025-09-04T15:52:41.115320,-2.850,2.220,359.930,-85.0,0.200,-0.300,180.360,1000.0
2025-09-04T15:52:41.117323,-2.850,2.220,359.930,-85.0,0.200,-0.300,180.360,1000.0
2025-09-04T15:52:41.121319,-2.850,2.220,359.930,-85.0,0.200,-0.300,180.360,1000.0
2025-09-04T15:52:41.123320,-2.850,2.220,359.930,-85.0,0.200,-0.300,180.360,1000.0
2025-09-04T15:52:41.125323,-2.850,2.220,359.930,-85.0,0.200,-0.300,180.360,1000.0
2025-09-04T15:52:41.238835,-2.850,2.220,359.930,-85.0,0.200,-0.300,180.360,1000.0
2025-09-04T15:52:41.245877,-2.850,2.220,359.930,-85.0,0.200,-0.300,180.360,1000.0
2025-09-04T15:52:41.252842,-2.850,2.220,359.930,-85.0,0.200,-0.300,180.360,1000.0
2025-09-04T15:52:41.253835,-2.850,2.220,359.930,-85.0,0.200,-0.300,180.360,1000.0
2025-09-04T15:52:41.255832,-2.850,2.220,359.930,-85.0,0.200,-0.300,180.360,1000.0
2025-09-04T15:52:41.374833,-2.850,2.220,359.930,-85.0,0.200,-0.300,180.360,1000.0
2025-09-04T15:52:41.376835,-2.850,2.220,359.930,-85.0,0.200,-0.300,180.360,1000.0
2025-09-04T15:52:41.378835,-2.850,2.220,359.930,-85.0,0.200,-0.300,180.360,1000.0
2025-09-04T15:52:41.381834,-2.850,2.220,359.930,-85.0,0.200,-0.300,180.360,1000.0
2025-09-04T15:52:41.383835,-2.850,2.220,359.930,-85.0,0.200,-0.300,180.360,1000.0
2025-09-04T15:52:41.506837,-2.850,2.220,359.930,-85.0,0.200,-0.300,180.360,1000.0
2025-09-04T15:52:41.508835,-2.850,2.220,359.930,-85.0,0.200,-0.300,180.360,1000.0
2025-09-04T15:52:41.512834,-2.850,2.220,359.930,-85.0,0.200,-0.300,180.360,1000.0
2025-09-04T15:52:41.516839,-2.850,2.220,359.930,-85.0,0.200,-0.300,180.360,1000.0
2025-09-04T15:52:41.517836,-2.850,2.220,359.930,-85.0,0.200,-0.300,180.360,1000.0
2025-09-04T15:52:41.632400,-2.850,2.220,359.930,-85.0,0.200,-0.300,180.360,1000.0
2025-09-04T15:52:41.633402,-2.850,2.220,359.930,-85.0,0.200,-0.300,180.360,1000.0
2025-09-04T15:52:41.635401,-2.850,2.220,359.930,-85.0,0.200,-0.300,180.360,1000.0
2025-09-04T15:52:41.637399,-2.850,2.220,359.930,-85.0,0.200,-0.300,180.360,1000.0
2025-09-04T15:52:41.639403,-2.850,2.220,359.930,-85.0,0.200,-0.300,180.360,1000.0
2025-09-04T15:52:41.759926,-2.850,2.220,359.930,-85.0,0.200,-0.300,180.360,1000.0
2025-09-04T15:52:41.771921,-2.850,2.220,359.930,-85.0,0.200,-0.300,180.360,1000.0
2025-09-04T15:52:41.773920,-2.850,2.220,359.930,-85.0,0.200,-0.300,180.360,1000.0
2025-09-04T15:52:41.775920,-2.850,2.220,359.930,-85.0,0.200,-0.300,180.360,1000.0
2025-09-04T15:52:41.776921,-2.850,2.220,359.930,-85.0,0.200,-0.300,180.360,1000.0
2025-09-04T15:52:41.891920,-2.850,2.220,359.930,-85.0,0.200,-0.300,180.360,1000.0
2025-09-04T15:52:41.893925,-2.850,2.220,359.930,-85.1,0.200,-0.300,180.360,1000.0
2025-09-04T15:52:41.895923,-2.850,2.220,359.930,-85.1,0.200,-0.300,180.360,1000.0
2025-09-04T15:52:41.897923,-2.850,2.220,359.940,-85.1,0.200,-0.300,180.360,1000.0
2025-09-04T15:52:41.898926,-2.850,2.230,359.940,-85.1,0.200,-0.300,180.360,1000.0
2025-09-04T15:52:42.026944,-2.850,2.230,359.940,-85.1,0.200,-0.300,180.360,1000.0
2025-09-04T15:52:42.029945,-2.850,2.230,359.940,-85.1,0.200,-0.300,180.360,1000.0
2025-09-04T15:52:42.031944,-2.850,2.230,359.940,-85.1,0.200,-0.300,180.360,1000.0
2025-09-04T15:52:42.033942,-2.850,2.230,359.940,-85.0,0.200,-0.300,180.360,1000.0
2025-09-04T15:52:42.034945,-2.850,2.230,359.940,-85.0,0.200,-0.300,180.360,1000.0
2025-09-04T15:52:42.154007,-2.850,2.220,359.940,-85.0,0.200,-0.300,180.360,1000.0
2025-09-04T15:52:42.156017,-2.850,2.220,359.940,-85.0,0.200,-0.300,180.360,1000.0
2025-09-04T15:52:42.158015,-2.850,2.220,359.940,-85.0,0.200,-0.300,180.360,1000.0
2025-09-04T15:52:42.159008,-2.850,2.220,359.940,-85.0,0.200,-0.300,180.360,1000.0
2025-09-04T15:52:42.161011,-2.850,2.220,359.930,-85.0,0.200,-0.300,180.360,1000.0
2025-09-04T15:52:42.276979,-2.850,2.220,359.930,-85.0,0.200,-0.300,180.360,1000.0
2025-09-04T15:52:42.278981,-2.850,2.220,359.930,-85.0,0.200,-0.300,180.360,1000.0
2025-09-04T15:52:42.279979,-2.850,2.220,359.930,-85.0,0.200,-0.300,180.360,1000.0
2025-09-04T15:52:42.280881,-2.850,2.220,359.930,-85.0,0.200,-0.300,180.360,1000.0
2025-09-04T15:52:42.282873,-2.850,2.220,359.930,-85.0,0.200,-0.300,180.360,1000.0
2025-09-04T15:52:42.401079,-2.850,2.220,359.930,-85.0,0.200,-0.300,180.360,1000.0
2025-09-04T15:52:42.402078,-2.840,2.220,359.930,-85.0,0.200,-0.300,180.360,1000.0
2025-09-04T15:52:42.403078,-2.840,2.220,359.930,-85.0,0.200,-0.300,180.360,1000.0
2025-09-04T15:52:42.404078,-2.840,2.220,359.930,-85.0,0.200,-0.300,180.360,1000.0
2025-09-04T15:52:42.405078,-2.840,2.220,359.930,-85.0,0.200,-0.300,180.360,1000.0
2025-09-04T15:52:42.513094,-2.840,2.220,359.930,-85.0,0.200,-0.300,180.360,1000.0
2025-09-04T15:52:42.514079,-2.840,2.220,359.930,-85.0,0.200,-0.300,180.360,1000.0
2025-09-04T15:52:42.516080,-2.840,2.220,359.930,-85.0,0.200,-0.300,180.360,1000.0
2025-09-04T15:52:42.518081,-2.840,2.220,359.930,-85.0,0.200,-0.300,180.360,1000.0
2025-09-04T15:52:42.519092,-2.840,2.220,359.940,-85.0,0.200,-0.300,180.360,1000.0
2025-09-04T15:52:42.635543,-2.840,2.220,359.940,-85.0,0.200,-0.300,180.360,1000.0
2025-09-04T15:52:42.636544,-2.840,2.220,359.940,-85.0,0.200,-0.300,180.360,1000.0
2025-09-04T15:52:42.637544,-2.840,2.220,359.940,-85.0,0.200,-0.300,180.360,1000.0
2025-09-04T15:52:42.639542,-2.840,2.220,359.930,-85.0,0.200,-0.300,180.360,1000.0
2025-09-04T15:52:42.640544,-2.840,2.220,359.930,-85.0,0.200,-0.300,180.360,1000.0
2025-09-04T15:52:42.747063,-2.840,2.220,359.930,-85.0,0.200,-0.300,180.360,1000.0
2025-09-04T15:52:42.748060,-2.840,2.210,359.930,-85.0,0.200,-0.300,180.360,1000.0
2025-09-04T15:52:42.750095,-2.840,2.210,359.930,-85.0,0.200,-0.300,180.360,1000.0
2025-09-04T15:52:42.751097,-2.830,2.210,359.940,-85.0,0.200,-0.300,180.360,1000.0
2025-09-04T15:52:42.869906,-2.830,2.210,359.930,-85.0,0.200,-0.300,180.360,1000.0
2025-09-04T15:52:42.870906,-2.830,2.210,359.930,-85.0,0.200,-0.300,180.360,1000.0
2025-09-04T15:52:42.872906,-2.830,2.210,359.930,-85.0,0.200,-0.300,180.360,1000.0
2025-09-04T15:52:42.873906,-2.830,2.200,359.940,-85.0,0.200,-0.300,180.360,1000.0
2025-09-04T15:52:42.875906,-2.830,2.200,359.940,-85.0,0.200,-0.300,180.360,1000.0
2025-09-04T15:52:42.995932,-2.830,2.200,359.940,-85.0,0.200,-0.300,180.360,1000.0
2025-09-04T15:52:42.997930,-2.830,2.200,359.940,-85.0,0.200,-0.300,180.360,1000.0
2025-09-04T15:52:42.998929,-2.840,2.200,359.940,-85.0,0.200,-0.300,180.360,1000.0
2025-09-04T15:52:42.999928,-2.840,2.190,359.940,-85.0,0.200,-0.300,180.360,1000.0
2025-09-04T15:52:43.001931,-2.840,2.190,359.940,-85.0,0.200,-0.300,180.360,1000.0
2025-09-04T15:52:43.120794,-2.840,2.190,359.940,-85.0,0.200,-0.300,180.360,1000.0
2025-09-04T15:52:43.121793,-2.840,2.190,359.940,-85.0,0.200,-0.300,180.360,1000.0
2025-09-04T15:52:43.123792,-2.840,2.190,359.940,-85.0,0.200,-0.300,180.360,1000.0
2025-09-04T15:52:43.125791,-2.840,2.190,359.930,-85.1,0.200,-0.300,180.360,1000.0
2025-09-04T15:52:43.127795,-2.850,2.190,359.930,-85.1,0.200,-0.300,180.360,1000.0
2025-09-04T15:52:43.246807,-2.850,2.190,359.930,-85.1,0.200,-0.300,180.360,1000.0
2025-09-04T15:52:43.247824,-2.850,2.190,359.930,-85.1,0.200,-0.300,180.360,1000.0
2025-09-04T15:52:43.249814,-2.850,2.190,359.940,-85.1,0.200,-0.300,180.360,1000.0
2025-09-04T15:52:43.250813,-2.850,2.190,359.940,-85.1,0.200,-0.300,180.360,1000.0
2025-09-04T15:52:43.251806,-2.850,2.190,359.940,-85.1,0.200,-0.300,180.360,1000.0
2025-09-04T15:52:43.368426,-2.850,2.190,359.940,-85.1,0.200,-0.300,180.360,1000.0
2025-09-04T15:52:43.369427,-2.850,2.190,359.940,-85.1,0.200,-0.300,180.360,1000.0
2025-09-04T15:52:43.371427,-2.850,2.190,359.940,-85.1,0.200,-0.300,180.360,1000.0
2025-09-04T15:52:43.372426,-2.850,2.190,359.940,-85.1,0.200,-0.300,180.360,1000.0
2025-09-04T15:52:43.373426,-2.850,2.190,359.940,-85.0,0.200,-0.300,180.360,1000.0
2025-09-04T15:52:43.490451,-2.850,2.190,359.940,-85.0,0.200,-0.300,180.360,1000.0
2025-09-04T15:52:43.492443,-2.850,2.190,359.940,-85.0,0.200,-0.300,180.360,1000.0
2025-09-04T15:52:43.493442,-2.850,2.190,359.940,-85.0,0.200,-0.300,180.360,1000.0
2025-09-04T15:52:43.494443,-2.850,2.190,359.940,-85.0,0.200,-0.300,180.360,1000.0
2025-09-04T15:52:43.496443,-2.850,2.190,359.940,-85.0,0.200,-0.300,180.360,1000.0
2025-09-04T15:52:43.615563,-2.850,2.190,359.940,-85.0,0.200,-0.300,180.360,1000.0
2025-09-04T15:52:43.618563,-2.850,2.200,359.940,-85.0,0.200,-0.300,180.360,1000.0
2025-09-04T15:52:43.619563,-2.850,2.200,359.940,-85.0,0.200,-0.300,180.360,1000.0
2025-09-04T15:52:43.621561,-2.850,2.200,359.940,-85.0,0.200,-0.300,180.360,1000.0
2025-09-04T15:52:43.623561,-2.850,2.200,359.940,-85.0,0.200,-0.300,180.360,1000.0
2025-09-04T15:52:43.736550,-2.850,2.210,359.940,-85.0,0.200,-0.300,180.360,1000.0
2025-09-04T15:52:43.738550,-2.850,2.210,359.940,-85.0,0.200,-0.300,180.360,1000.0
2025-09-04T15:52:43.739550,-2.850,2.210,359.940,-85.0,0.200,-0.300,180.360,1000.0
2025-09-04T15:52:43.740550,-2.850,2.210,359.940,-85.0,0.200,-0.300,180.360,1000.0
2025-09-04T15:52:43.741551,-2.850,2.210,359.940,-85.0,0.200,-0.300,180.360,1000.0
2025-09-04T15:52:43.860850,-2.850,2.210,359.940,-85.0,0.200,-0.300,180.360,1000.0
2025-09-04T15:52:43.861853,-2.850,2.210,359.940,-85.0,0.200,-0.300,180.360,1000.0
2025-09-04T15:52:43.863855,-2.850,2.210,359.940,-85.0,0.200,-0.300,180.360,1000.0
2025-09-04T15:52:43.865852,-2.850,2.210,359.940,-85.0,0.200,-0.300,180.360,1000.0
2025-09-04T15:52:43.866851,-2.850,2.210,359.940,-85.0,0.200,-0.300,180.360,1000.0
2025-09-04T15:52:43.983853,-2.850,2.220,359.940,-85.0,0.200,-0.300,180.360,1000.0
2025-09-04T15:52:43.985854,-2.850,2.220,359.940,-85.0,0.200,-0.300,180.360,1000.0
2025-09-04T15:52:43.986853,-2.850,2.210,359.940,-85.0,0.200,-0.300,180.360,1000.0
2025-09-04T15:52:44.105851,-2.850,2.210,359.940,-85.0,0.200,-0.300,180.360,1000.0
2025-09-04T15:52:44.107851,-2.850,2.210,359.940,-85.0,0.200,-0.300,180.360,1000.0
2025-09-04T15:52:44.108850,-2.850,2.210,359.940,-85.0,0.200,-0.300,180.360,1000.0
2025-09-04T15:52:44.109851,-2.850,2.210,359.940,-85.0,0.200,-0.300,180.360,1000.0
2025-09-04T15:52:44.111858,-2.850,2.210,359.940,-85.0,0.200,-0.300,180.360,1000.0
2025-09-04T15:52:44.229982,-2.850,2.200,359.940,-85.0,0.200,-0.300,180.360,1000.0
2025-09-04T15:52:44.230984,-2.850,2.200,359.940,-85.0,0.200,-0.300,180.360,1000.0
2025-09-04T15:52:44.231982,-2.850,2.200,359.940,-85.0,0.200,-0.300,180.360,1000.0
2025-09-04T15:52:44.232982,-2.850,2.200,359.940,-85.0,0.200,-0.300,180.360,1000.0
2025-09-04T15:52:44.234982,-2.850,2.200,359.940,-85.0,0.200,-0.300,180.360,1000.0
2025-09-04T15:52:44.350930,-2.860,2.200,359.940,-85.0,0.200,-0.300,180.360,1000.0
2025-09-04T15:52:44.352932,-2.860,2.210,359.940,-85.0,0.200,-0.300,180.360,1000.0
2025-09-04T15:52:44.353932,-2.870,2.210,359.940,-85.0,0.200,-0.300,180.360,1000.0
2025-09-04T15:52:44.354932,-2.870,2.210,359.940,-85.0,0.200,-0.300,180.360,1000.0
2025-09-04T15:52:44.460624,-2.870,2.210,359.940,-85.0,0.200,-0.300,180.360,1000.0
2025-09-04T15:52:44.462621,-2.870,2.210,359.940,-85.0,0.200,-0.300,180.360,1000.0
2025-09-04T15:52:44.464629,-2.870,2.210,359.940,-85.0,0.200,-0.300,180.360,1000.0
2025-09-04T15:52:44.465626,-2.870,2.210,359.940,-85.0,0.200,-0.300,180.360,1000.0
2025-09-04T15:52:44.466624,-2.870,2.210,359.940,-85.0,0.200,-0.300,180.360,1000.0
2025-09-04T15:52:44.583955,-2.870,2.210,359.930,-85.0,0.200,-0.300,180.360,1000.0
2025-09-04T15:52:44.584956,-2.870,2.210,359.930,-85.0,0.200,-0.300,180.360,1000.0
2025-09-04T15:52:44.585956,-2.870,2.210,359.930,-85.0,0.200,-0.300,180.360,1000.0
2025-09-04T15:52:44.586957,-2.860,2.210,359.930,-85.0,0.200,-0.300,180.360,1000.0
2025-09-04T15:52:44.588959,-2.860,2.210,359.930,-85.0,0.200,-0.300,180.360,1000.0
2025-09-04T15:52:44.705849,-2.860,2.220,359.930,-85.0,0.200,-0.300,180.360,1000.0
2025-09-04T15:52:44.707844,-2.860,2.220,359.940,-85.0,0.200,-0.300,180.360,1000.0
2025-09-04T15:52:44.708843,-2.860,2.220,359.940,-85.0,0.200,-0.300,180.360,1000.0
2025-09-04T15:52:44.709844,-2.860,2.220,359.940,-85.0,0.200,-0.300,180.360,1000.0
2025-09-04T15:52:44.710844,-2.860,2.220,359.940,-85.0,0.200,-0.300,180.360,1000.0
2025-09-04T15:52:44.712845,-2.860,2.220,359.940,-85.0,0.200,-0.300,180.360,1000.0
2025-09-04T15:52:44.714846,-2.860,2.220,359.940,-85.0,0.200,-0.300,180.360,1000.0
2025-09-04T15:52:44.716846,-2.850,2.220,359.940,-85.0,0.200,-0.300,180.360,1000.0
2025-09-04T15:52:44.718846,-2.850,2.220,359.940,-85.0,0.200,-0.300,180.360,1000.0
2025-09-04T15:52:44.830801,-2.850,2.220,359.940,-85.0,0.200,-0.300,180.360,1000.0
2025-09-04T15:52:44.831799,-2.850,2.220,359.940,-85.0,0.200,-0.300,180.360,1000.0
2025-09-04T15:52:44.833798,-2.850,2.220,359.940,-85.0,0.200,-0.300,180.360,1000.0
2025-09-04T15:52:44.834798,-2.850,2.220,359.940,-85.0,0.200,-0.300,180.360,1000.0
2025-09-04T15:52:44.835799,-2.850,2.220,359.940,-85.0,0.200,-0.300,180.360,1000.0
2025-09-04T15:52:44.951824,-2.850,2.220,359.940,-85.0,0.200,-0.300,180.360,1000.0
2025-09-04T15:52:44.953823,-2.850,2.220,359.940,-85.0,0.200,-0.300,180.360,1000.0
2025-09-04T15:52:44.954824,-2.850,2.220,359.940,-85.0,0.200,-0.300,180.360,1000.0
2025-09-04T15:52:44.955824,-2.850,2.220,359.940,-85.0,0.200,-0.300,180.360,1000.0
2025-09-04T15:52:44.956823,-2.850,2.220,359.940,-85.0,0.200,-0.300,180.360,1000.0
2025-09-04T15:52:45.074824,-2.850,2.220,359.940,-85.0,0.200,-0.300,180.360,1000.0
2025-09-04T15:52:45.075824,-2.850,2.220,359.940,-85.0,0.200,-0.300,180.360,1000.0
2025-09-04T15:52:45.076824,-2.850,2.230,359.940,-85.0,0.200,-0.300,180.360,1000.0
2025-09-04T15:52:45.077823,-2.850,2.230,359.940,-85.0,0.200,-0.300,180.360,1000.0
2025-09-04T15:52:45.182373,-2.850,2.230,359.940,-85.0,0.200,-0.300,180.360,1000.0
2025-09-04T15:52:45.183372,-2.850,2.230,359.940,-85.0,0.200,-0.300,180.360,1000.0
2025-09-04T15:52:45.185371,-2.850,2.230,359.940,-85.0,0.200,-0.300,180.360,1000.0
2025-09-04T15:52:45.186371,-2.850,2.230,359.940,-85.0,0.200,-0.300,180.360,1000.0
2025-09-04T15:52:45.187372,-2.850,2.230,359.940,-85.0,0.200,-0.300,180.360,1000.0
2025-09-04T15:52:45.291371,-2.850,2.230,359.940,-85.0,0.200,-0.300,180.360,1000.0
2025-09-04T15:52:45.292368,-2.850,2.230,359.940,-85.0,0.200,-0.300,180.360,1000.0
2025-09-04T15:52:45.294373,-2.850,2.230,359.940,-85.0,0.200,-0.300,180.360,1000.0
2025-09-04T15:52:45.297047,-2.850,2.230,359.940,-85.0,0.200,-0.300,180.360,1000.0
2025-09-04T15:52:45.299371,-2.850,2.230,359.940,-85.0,0.200,-0.300,180.360,1000.0
2025-09-04T15:52:45.415112,-2.850,2.230,359.930,-85.0,0.200,-0.300,180.360,1000.0
2025-09-04T15:52:45.417112,-2.850,2.230,359.930,-85.0,0.200,-0.300,180.360,1000.0
2025-09-04T15:52:45.419115,-2.850,2.220,359.930,-85.0,0.200,-0.300,180.360,1000.0
2025-09-04T15:52:45.538487,-2.850,2.220,359.930,-85.0,0.200,-0.300,180.360,1000.0
2025-09-04T15:52:45.540480,-2.850,2.220,359.940,-85.0,0.200,-0.300,180.360,1000.0
2025-09-04T15:52:45.541480,-2.850,2.220,359.930,-85.0,0.200,-0.300,180.360,1000.0
2025-09-04T15:52:45.542480,-2.850,2.220,359.930,-85.0,0.200,-0.300,180.360,1000.0
2025-09-04T15:52:45.543480,-2.850,2.220,359.930,-85.0,0.200,-0.300,180.360,1000.0
2025-09-04T15:52:45.649131,-2.850,2.220,359.940,-85.0,0.200,-0.300,180.360,1000.0
2025-09-04T15:52:45.650138,-2.850,2.220,359.940,-85.0,0.200,-0.300,180.360,1000.0
2025-09-04T15:52:45.651125,-2.850,2.220,359.940,-85.0,0.200,-0.300,180.360,1000.0
2025-09-04T15:52:45.652125,-2.850,2.220,359.940,-85.0,0.200,-0.300,180.360,1000.0
2025-09-04T15:52:45.653127,-2.850,2.220,359.940,-85.0,0.200,-0.300,180.360,1000.0
2025-09-04T15:52:45.772571,-2.850,2.220,359.940,-85.0,0.200,-0.300,180.360,1000.0
2025-09-04T15:52:45.773572,-2.850,2.220,359.940,-85.0,0.200,-0.300,180.360,1000.0
2025-09-04T15:52:45.775573,-2.850,2.220,359.940,-85.0,0.200,-0.300,180.360,1000.0
2025-09-04T15:52:45.776570,-2.850,2.220,359.940,-85.0,0.200,-0.300,180.360,1000.0
2025-09-04T15:52:45.777572,-2.850,2.230,359.940,-85.0,-2.850,2.230,359.940,-85.0
2025-09-04T15:52:45.778571,-2.850,2.230,359.940,-85.0,-2.850,2.230,359.940,-85.0
2025-09-04T15:52:45.780574,-2.850,2.230,359.940,-85.0,-2.850,2.230,359.940,-85.0
2025-09-04T15:52:45.781571,-2.850,2.230,359.940,-85.0,-2.850,2.230,359.940,-85.0
2025-09-04T15:52:46.440462,-2.850,2.230,359.940,-85.0,-2.850,2.230,359.940,-85.0
2025-09-04T15:52:46.441464,-2.850,2.230,359.940,-85.0,-2.850,2.230,359.940,-85.0
2025-09-04T15:52:46.443463,-2.850,2.230,359.940,-85.0,-2.850,2.230,359.940,-85.0
2025-09-04T15:52:46.444463,-2.850,2.230,359.940,-85.1,-2.850,2.230,359.940,-85.1
2025-09-04T15:52:46.445469,-2.850,2.230,359.940,-85.1,-2.850,2.230,359.940,-85.1
2025-09-04T15:52:47.099855,-2.850,2.230,359.940,-85.0,-2.850,2.230,359.940,-85.0
2025-09-04T15:52:47.101703,-2.850,2.230,359.940,-85.0,-2.850,2.230,359.940,-85.0
2025-09-04T15:52:47.102699,-2.850,2.230,359.940,-85.1,-2.850,2.230,359.940,-85.1
2025-09-04T15:52:47.103698,-2.850,2.230,359.940,-85.1,-2.850,2.230,359.940,-85.1
2025-09-04T15:52:47.105698,-2.850,2.230,359.940,-85.0,-2.850,2.230,359.940,-85.0
2025-09-04T15:52:47.751012,-2.850,2.230,359.940,-85.0,-2.850,2.230,359.940,-85.0
2025-09-04T15:52:47.753013,-2.850,2.230,359.940,-85.0,-2.850,2.230,359.940,-85.0
2025-09-04T15:52:47.754012,-2.850,2.230,359.940,-85.0,-2.850,2.230,359.940,-85.0
2025-09-04T15:52:47.755014,-2.850,2.230,359.940,-85.0,-2.850,2.230,359.940,-85.0
2025-09-04T15:52:47.757015,-2.850,2.230,359.940,-85.0,-2.850,2.230,359.940,-85.0
2025-09-04T15:52:48.413842,-2.850,2.230,359.940,-85.0,-2.850,2.230,359.940,-85.0
2025-09-04T15:52:48.416841,-2.850,2.230,359.940,-85.0,-2.850,2.230,359.940,-85.0
2025-09-04T15:52:48.418843,-2.850,2.230,359.940,-85.0,-2.850,2.230,359.940,-85.0
2025-09-04T15:52:48.420842,-2.850,2.230,359.940,-85.0,-2.850,2.230,359.940,-85.0
2025-09-04T15:52:48.421842,-2.850,2.230,359.940,-85.0,-2.850,2.230,359.940,-85.0
2025-09-04T15:52:49.077839,-2.850,2.230,359.940,-85.0,-2.850,2.230,359.940,-85.0
2025-09-04T15:52:49.078841,-2.850,2.230,359.940,-85.0,-2.850,2.230,359.940,-85.0
2025-09-04T15:52:49.079848,-2.850,2.230,359.940,-85.0,-2.850,2.230,359.940,-85.0
2025-09-04T15:52:49.081950,-2.850,2.230,359.940,-85.0,-2.850,2.230,359.940,-85.0
2025-09-04T15:52:49.083841,-2.850,2.230,359.940,-85.0,-2.850,2.230,359.940,-85.0
2025-09-04T15:52:49.740349,-2.850,2.230,359.940,-85.0,-2.850,2.230,359.940,-85.0
2025-09-04T15:52:49.742351,-2.850,2.220,359.940,-85.0,-2.850,2.220,359.940,-85.0
2025-09-04T15:52:49.744353,-2.850,2.220,359.940,-85.0,-2.850,2.220,359.940,-85.0
2025-09-04T15:52:49.746350,-2.850,2.220,359.940,-85.0,-2.850,2.220,359.940,-85.0
2025-09-04T15:52:49.748352,-2.850,2.210,359.940,-85.0,-2.850,2.210,359.940,-85.0
2025-09-04T15:52:50.406335,-2.850,2.210,359.940,-85.0,-2.850,2.210,359.940,-85.0
2025-09-04T15:52:50.407334,-2.850,2.210,359.940,-85.0,-2.850,2.210,359.940,-85.0
2025-09-04T15:52:50.408335,-2.850,2.210,359.940,-85.0,-2.850,2.210,359.940,-85.0
2025-09-04T15:52:50.410336,-2.850,2.210,359.940,-85.0,-2.850,2.210,359.940,-85.0
2025-09-04T15:52:50.412336,-2.850,2.210,359.940,-85.0,-2.850,2.210,359.940,-85.0
2025-09-04T15:52:51.069132,-2.850,2.200,359.940,-85.0,-2.850,2.200,359.940,-85.0
2025-09-04T15:52:51.071120,-2.850,2.200,359.940,-85.0,-2.850,2.200,359.940,-85.0
2025-09-04T15:52:51.072120,-2.850,2.200,359.940,-85.0,-2.850,2.200,359.940,-85.0
2025-09-04T15:52:51.073121,-2.850,2.200,359.940,-85.0,-2.850,2.200,359.940,-85.0
2025-09-04T15:52:51.074121,-2.850,2.200,359.940,-85.0,-2.850,2.200,359.940,-85.0
2025-09-04T15:52:51.722512,-2.850,2.190,359.940,-85.0,-2.850,2.190,359.940,-85.0
2025-09-04T15:52:51.724512,-2.850,2.190,359.940,-85.0,-2.850,2.190,359.940,-85.0
2025-09-04T15:52:51.725511,-2.850,2.190,359.940,-85.1,-2.850,2.190,359.940,-85.1
2025-09-04T15:52:51.726512,-2.850,2.190,359.940,-85.1,-2.850,2.190,359.940,-85.1
2025-09-04T15:52:51.727511,-2.850,2.190,359.940,-85.1,-2.850,2.190,359.940,-85.1
2025-09-04T15:52:51.728511,-2.850,2.190,359.940,-85.1,-2.850,2.190,359.940,-85.1
2025-09-04T15:52:51.730511,-2.850,2.190,359.940,-85.0,-2.850,2.190,359.940,-85.0
2025-09-04T15:52:51.731511,-2.850,2.190,359.940,-85.0,-2.850,2.190,359.940,-85.0
2025-09-04T15:52:52.392157,-2.850,2.190,359.940,-85.0,-2.850,2.190,359.940,-85.0
2025-09-04T15:52:52.394156,-2.850,2.190,359.940,-85.0,-2.850,2.190,359.940,-85.0
2025-09-04T15:52:52.395156,-2.850,2.190,359.940,-85.0,-2.850,2.190,359.940,-85.0
2025-09-04T15:52:52.396156,-2.850,2.190,359.940,-85.0,-2.850,2.190,359.940,-85.0
2025-09-04T15:52:52.397157,-2.850,2.190,359.940,-85.0,-2.850,2.190,359.940,-85.0
2025-09-04T15:52:53.044447,-2.850,2.190,359.940,-85.0,-2.850,2.190,359.940,-85.0
2025-09-04T15:52:53.045447,-2.850,2.190,359.940,-85.0,-2.850,2.190,359.940,-85.0
2025-09-04T15:52:53.046446,-2.850,2.190,359.940,-85.0,-2.850,2.190,359.940,-85.0
2025-09-04T15:52:53.048446,-2.850,2.190,359.940,-85.0,-2.850,2.190,359.940,-85.0
2025-09-04T15:52:53.049448,-2.850,2.190,359.940,-85.0,-2.850,2.190,359.940,-85.0
2025-09-04T15:52:53.711286,-2.850,2.190,359.940,-85.0,-2.850,2.190,359.940,-85.0
2025-09-04T15:52:53.713288,-2.850,2.190,359.940,-85.0,-2.850,2.190,359.940,-85.0
2025-09-04T15:52:53.714286,-2.850,2.190,359.940,-85.0,-2.850,2.190,359.940,-85.0
2025-09-04T15:52:53.716285,-2.850,2.190,359.940,-85.0,-2.850,2.190,359.940,-85.0
2025-09-04T15:52:53.717289,-2.850,2.190,359.940,-85.0,-2.850,2.190,359.940,-85.0
2025-09-04T15:52:54.377619,-2.850,2.190,359.940,-85.1,-2.850,2.190,359.940,-85.1
2025-09-04T15:52:54.378619,-2.850,2.200,359.940,-85.1,-2.850,2.200,359.940,-85.1
2025-09-04T15:52:54.379619,-2.850,2.200,359.940,-85.1,-2.850,2.200,359.940,-85.1
2025-09-04T15:52:54.381620,-2.850,2.200,359.940,-85.1,-2.850,2.200,359.940,-85.1
2025-09-04T15:52:54.382622,-2.850,2.200,359.940,-85.1,-2.850,2.200,359.940,-85.1
2025-09-04T15:52:55.028633,-2.850,2.210,359.940,-85.1,-2.850,2.210,359.940,-85.1
2025-09-04T15:52:55.030625,-2.850,2.210,359.940,-85.1,-2.850,2.210,359.940,-85.1
2025-09-04T15:52:55.031624,-2.850,2.210,359.940,-85.1,-2.850,2.210,359.940,-85.1
2025-09-04T15:52:55.032624,-2.850,2.210,359.940,-85.1,-2.850,2.210,359.940,-85.1
2025-09-04T15:52:55.034625,-2.850,2.210,359.940,-85.1,-2.850,2.210,359.940,-85.1
2025-09-04T15:52:55.681217,-2.850,2.210,359.940,-85.0,-2.850,2.210,359.940,-85.0
2025-09-04T15:52:55.683217,-2.850,2.210,359.940,-85.0,-2.850,2.210,359.940,-85.0
2025-09-04T15:52:55.684218,-2.850,2.210,359.940,-85.0,-2.850,2.210,359.940,-85.0
2025-09-04T15:52:55.686219,-2.850,2.210,359.940,-85.0,-2.850,2.210,359.940,-85.0
2025-09-04T15:52:55.687223,-2.850,2.210,359.940,-85.0,-2.850,2.210,359.940,-85.0
2025-09-04T15:52:56.350670,-2.850,2.210,359.940,-85.0,-2.850,2.210,359.940,-85.0
2025-09-04T15:52:56.352673,-2.850,2.210,359.940,-85.0,-2.850,2.210,359.940,-85.0
2025-09-04T15:52:56.354675,-2.850,2.210,359.940,-85.0,-2.850,2.210,359.940,-85.0
2025-09-04T15:52:56.355673,-2.850,2.210,359.940,-85.0,-2.850,2.210,359.940,-85.0
2025-09-04T15:52:56.356672,-2.850,2.210,359.940,-85.0,-2.850,2.210,359.940,-85.0
2025-09-04T15:52:57.014290,-2.850,2.210,359.940,-85.0,-2.850,2.210,359.940,-85.0
2025-09-04T15:52:57.016290,-2.850,2.210,359.940,-85.0,-2.850,2.210,359.940,-85.0
2025-09-04T15:52:57.017290,-2.850,2.210,359.940,-85.0,-2.850,2.210,359.940,-85.0
2025-09-04T15:52:57.018292,-2.850,2.210,359.940,-85.0,-2.850,2.210,359.940,-85.0
2025-09-04T15:52:57.020294,-2.850,2.220,359.940,-85.0,-2.850,2.220,359.940,-85.0
2025-09-04T15:52:57.659078,-2.850,2.220,359.940,-85.0,-2.850,2.220,359.940,-85.0
2025-09-04T15:52:57.660079,-2.850,2.220,359.940,-85.0,-2.850,2.220,359.940,-85.0
2025-09-04T15:52:57.661084,-2.850,2.220,359.940,-85.0,-2.850,2.220,359.940,-85.0
2025-09-04T15:52:57.662079,-2.850,2.220,359.940,-85.0,-2.850,2.220,359.940,-85.0
2025-09-04T15:52:57.664079,-2.850,2.220,359.940,-85.0,-2.850,2.220,359.940,-85.0
2025-09-04T15:52:58.328223,-2.860,2.220,359.940,-85.0,-2.860,2.220,359.940,-85.0
2025-09-04T15:52:58.330223,-2.860,2.220,359.940,-85.0,-2.860,2.220,359.940,-85.0
2025-09-04T15:52:58.331222,-2.870,2.220,359.940,-85.0,-2.870,2.220,359.940,-85.0
2025-09-04T15:52:58.332224,-2.860,2.220,359.940,-85.0,-2.860,2.220,359.940,-85.0
2025-09-04T15:52:58.333233,-2.860,2.220,359.940,-85.0,-2.860,2.220,359.940,-85.0
2025-09-04T15:52:58.981632,-2.860,2.220,359.940,-85.0,-2.860,2.220,359.940,-85.0
2025-09-04T15:52:58.982630,-2.860,2.220,359.940,-85.0,-2.860,2.220,359.940,-85.0
2025-09-04T15:52:58.984632,-2.860,2.220,359.940,-85.0,-2.860,2.220,359.940,-85.0
2025-09-04T15:52:58.985632,-2.860,2.220,359.940,-85.0,-2.860,2.220,359.940,-85.0
2025-09-04T15:52:58.987635,-2.860,2.220,359.940,-85.0,-2.860,2.220,359.940,-85.0
2025-09-04T15:52:59.646652,-2.860,2.220,359.940,-85.0,-2.860,2.220,359.940,-85.0
2025-09-04T15:52:59.647651,-2.860,2.220,359.940,-85.0,-2.860,2.220,359.940,-85.0
2025-09-04T15:52:59.648651,-2.860,2.220,359.940,-85.0,-2.860,2.220,359.940,-85.0
2025-09-04T15:52:59.649654,-2.850,2.220,359.940,-85.0,-2.850,2.220,359.940,-85.0
2025-09-04T15:52:59.650653,-2.850,2.220,359.940,-85.0,-2.850,2.220,359.940,-85.0
2025-09-04T15:53:00.298950,-2.850,2.220,359.940,-85.0,-2.850,2.220,359.940,-85.0
2025-09-04T15:53:00.299955,-2.850,2.220,359.940,-84.9,-2.850,2.220,359.940,-84.9
2025-09-04T15:53:00.300951,-2.850,2.220,359.940,-84.9,-2.850,2.220,359.940,-84.9
2025-09-04T15:53:00.302952,-2.850,2.220,359.940,-85.0,-2.850,2.220,359.940,-85.0
2025-09-04T15:53:00.303953,-2.850,2.220,359.940,-84.9,-2.850,2.220,359.940,-84.9
2025-09-04T15:53:00.956513,-2.850,2.220,359.940,-84.9,-2.850,2.220,359.940,-84.9
2025-09-04T15:53:00.957514,-2.850,2.220,359.940,-84.9,-2.850,2.220,359.940,-84.9
2025-09-04T15:53:00.959516,-2.850,2.220,359.940,-84.9,-2.850,2.220,359.940,-84.9
2025-09-04T15:53:00.960516,-2.850,2.220,359.940,-84.9,-2.850,2.220,359.940,-84.9
2025-09-04T15:53:00.961515,-2.850,2.220,359.940,-84.9,-2.850,2.220,359.940,-84.9
2025-09-04T15:53:01.623475,-2.850,2.230,359.940,-84.9,-2.850,2.230,359.940,-84.9
2025-09-04T15:53:01.624487,-2.850,2.230,359.940,-84.9,-2.850,2.230,359.940,-84.9
2025-09-04T15:53:01.626476,-2.850,2.230,359.940,-84.9,-2.850,2.230,359.940,-84.9
2025-09-04T15:53:01.627478,-2.850,2.230,359.940,-85.0,-2.850,2.230,359.940,-85.0
2025-09-04T15:53:01.628477,-2.850,2.230,359.940,-85.0,-2.850,2.230,359.940,-85.0
2025-09-04T15:53:02.290569,-2.850,2.230,359.940,-85.0,-2.850,2.230,359.940,-85.0
2025-09-04T15:53:02.292570,-2.850,2.230,359.940,-85.0,-2.850,2.230,359.940,-85.0
2025-09-04T15:53:02.294569,-2.850,2.230,359.940,-85.0,-2.850,2.230,359.940,-85.0
2025-09-04T15:53:02.295569,-2.850,2.230,359.940,-85.0,-2.850,2.230,359.940,-85.0
2025-09-04T15:53:02.296569,-2.850,2.230,359.940,-85.0,-2.850,2.230,359.940,-85.0
2025-09-04T15:53:02.953407,-2.850,2.230,359.940,-85.0,-2.850,2.230,359.940,-85.0
2025-09-04T15:53:02.954406,-2.850,2.230,359.940,-85.0,-2.850,2.230,359.940,-85.0
2025-09-04T15:53:02.956408,-2.850,2.230,359.940,-85.0,-2.850,2.230,359.940,-85.0
2025-09-04T15:53:02.958409,-2.850,2.230,359.940,-85.0,-2.850,2.230,359.940,-85.0
2025-09-04T15:53:02.959410,-2.850,2.230,359.940,-85.0,-2.850,2.230,359.940,-85.0
2025-09-04T15:53:03.614312,-2.850,2.230,359.940,-85.0,-2.850,2.230,359.940,-85.0
2025-09-04T15:53:03.615312,-2.850,2.230,359.940,-85.0,-2.850,2.230,359.940,-85.0
2025-09-04T15:53:03.618312,-2.850,2.230,359.940,-85.0,-2.850,2.230,359.940,-85.0
2025-09-04T15:53:03.619313,-2.850,2.230,359.940,-85.0,-2.850,2.230,359.940,-85.0
2025-09-04T15:53:03.621312,-2.840,2.230,359.940,-85.0,-2.840,2.230,359.940,-85.0
2025-09-04T15:53:04.281691,-2.840,2.230,359.940,-85.0,-2.840,2.230,359.940,-85.0
2025-09-04T15:53:04.283691,-2.840,2.230,359.940,-85.0,-2.840,2.230,359.940,-85.0
2025-09-04T15:53:04.285692,-2.840,2.230,359.940,-85.0,-2.840,2.230,359.940,-85.0
2025-09-04T15:53:04.287694,-2.850,2.230,359.940,-85.0,-2.850,2.230,359.940,-85.0
2025-09-04T15:53:04.289695,-2.850,2.230,359.940,-85.0,-2.850,2.230,359.940,-85.0
2025-09-04T15:53:04.940521,-2.850,2.230,359.940,-85.0,-2.850,2.230,359.940,-85.0
2025-09-04T15:53:04.942521,-2.850,2.230,359.940,-85.0,-2.850,2.230,359.940,-85.0
2025-09-04T15:53:04.943523,-2.850,2.230,359.940,-85.0,0.200,-0.300,180.360,1000.0
2025-09-04T15:53:04.945524,-2.850,2.230,359.940,-85.0,0.200,-0.300,180.360,1000.0
2025-09-04T15:53:04.946521,-2.850,2.230,359.940,-85.0,0.200,-0.300,180.360,1000.0
2025-09-04T15:53:05.050521,-2.850,2.230,359.940,-85.0,0.200,-0.300,180.360,1000.0
2025-09-04T15:53:05.051520,-2.850,2.230,359.940,-85.0,0.200,-0.300,180.360,1000.0
2025-09-04T15:53:05.053520,-2.850,2.230,359.940,-85.0,0.200,-0.300,180.360,1000.0
2025-09-04T15:53:05.054521,-2.850,2.230,359.940,-85.0,0.200,-0.300,180.360,1000.0
2025-09-04T15:53:05.055520,-2.850,2.230,359.940,-85.0,0.200,-0.300,180.360,1000.0
2025-09-04T15:53:05.174521,-2.850,2.230,359.940,-85.0,0.200,-0.300,180.360,1000.0
2025-09-04T15:53:05.175521,-2.850,2.230,359.940,-85.0,0.200,-0.300,180.360,1000.0
2025-09-04T15:53:05.176521,-2.850,2.230,359.940,-85.0,0.200,-0.300,180.360,1000.0
2025-09-04T15:53:05.178521,-2.850,2.230,359.940,-85.0,0.200,-0.300,180.360,1000.0
2025-09-04T15:53:05.179523,-2.850,2.230,359.940,-85.0,0.200,-0.300,180.360,1000.0
2025-09-04T15:53:05.295216,-2.850,2.230,359.940,-85.0,0.200,-0.300,180.360,1000.0
2025-09-04T15:53:05.296216,-2.850,2.230,359.940,-85.0,0.200,-0.300,180.360,1000.0
2025-09-04T15:53:05.297215,-2.850,2.230,359.940,-85.0,0.200,-0.300,180.360,1000.0
2025-09-04T15:53:05.298215,-2.850,2.230,359.940,-85.0,0.200,-0.300,180.360,1000.0
2025-09-04T15:53:05.300216,-2.850,2.230,359.940,-85.0,0.200,-0.300,180.360,1000.0
2025-09-04T15:53:05.405568,-2.850,2.230,359.940,-85.0,0.200,-0.300,180.360,1000.0
2025-09-04T15:53:05.407569,-2.850,2.230,359.930,-85.1,0.200,-0.300,180.360,1000.0
2025-09-04T15:53:05.408568,-2.850,2.230,359.930,-85.1,0.200,-0.300,180.360,1000.0
2025-09-04T15:53:05.410568,-2.850,2.230,359.930,-85.1,0.200,-0.300,180.360,1000.0
2025-09-04T15:53:05.411568,-2.850,2.230,359.930,-85.1,0.200,-0.300,180.360,1000.0
2025-09-04T15:53:05.528906,-2.850,2.230,359.930,-85.1,0.200,-0.300,180.360,1000.0
2025-09-04T15:53:05.529905,-2.850,2.230,359.930,-85.0,0.200,-0.300,180.360,1000.0
2025-09-04T15:53:05.531904,-2.850,2.230,359.930,-85.0,0.200,-0.300,180.360,1000.0
2025-09-04T15:53:05.532904,-2.850,2.230,359.930,-85.0,0.200,-0.300,180.360,1000.0
2025-09-04T15:53:05.533904,-2.850,2.230,359.930,-85.0,0.200,-0.300,180.360,1000.0
2025-09-04T15:53:05.639659,-2.850,2.230,359.930,-85.0,0.200,-0.300,180.360,1000.0
2025-09-04T15:53:05.641662,-2.850,2.230,359.930,-85.0,0.200,-0.300,180.360,1000.0
2025-09-04T15:53:05.643658,-2.850,2.230,359.930,-85.0,0.200,-0.300,180.360,1000.0
2025-09-04T15:53:05.645662,-2.850,2.230,359.930,-85.0,0.200,-0.300,180.360,1000.0
2025-09-04T15:53:05.646658,-2.850,2.230,359.930,-85.0,0.200,-0.300,180.360,1000.0
2025-09-04T15:53:05.761908,-2.850,2.230,359.930,-85.0,0.200,-0.300,180.360,1000.0
2025-09-04T15:53:05.763910,-2.850,2.230,359.930,-85.0,0.200,-0.300,180.360,1000.0
2025-09-04T15:53:05.765908,-2.850,2.230,359.930,-85.0,0.200,-0.300,180.360,1000.0
2025-09-04T15:53:05.766909,-2.850,2.230,359.930,-85.0,0.200,-0.300,180.360,1000.0
2025-09-04T15:53:05.767909,-2.850,2.230,359.940,-85.0,0.200,-0.300,180.360,1000.0
2025-09-04T15:53:05.871931,-2.850,2.230,359.940,-85.0,0.200,-0.300,180.360,1000.0
2025-09-04T15:53:05.873933,-2.850,2.230,359.940,-85.0,0.200,-0.300,180.360,1000.0
2025-09-04T15:53:05.875933,-2.850,2.230,359.940,-85.1,0.200,-0.300,180.360,1000.0
2025-09-04T15:53:05.876934,-2.850,2.230,359.940,-85.1,0.200,-0.300,180.360,1000.0
2025-09-04T15:53:05.877933,-2.850,2.230,359.940,-85.1,0.200,-0.300,180.360,1000.0
2025-09-04T15:53:05.995978,-2.850,2.230,359.940,-85.0,0.200,-0.300,180.360,1000.0
2025-09-04T15:53:05.997981,-2.850,2.230,359.940,-85.0,0.200,-0.300,180.360,1000.0
2025-09-04T15:53:05.998980,-2.850,2.230,359.940,-85.0,0.200,-0.300,180.360,1000.0
2025-09-04T15:53:05.999981,-2.850,2.230,359.940,-85.0,0.200,-0.300,180.360,1000.0
2025-09-04T15:53:06.000981,-2.850,2.230,359.940,-85.0,0.200,-0.300,180.360,1000.0
2025-09-04T15:53:06.105502,-2.850,2.230,359.940,-85.0,0.200,-0.300,180.360,1000.0
2025-09-04T15:53:06.107500,-2.850,2.230,359.940,-85.0,0.200,-0.300,180.360,1000.0
2025-09-04T15:53:06.109498,-2.850,2.230,359.940,-85.0,0.200,-0.300,180.360,1000.0
2025-09-04T15:53:06.111498,-2.850,2.230,359.940,-85.0,0.200,-0.300,180.360,1000.0
2025-09-04T15:53:06.114498,-2.850,2.230,359.940,-85.0,0.200,-0.300,180.360,1000.0
2025-09-04T15:53:06.230169,-2.850,2.230,359.940,-85.0,0.200,-0.300,180.360,1000.0
2025-09-04T15:53:06.232168,-2.850,2.230,359.940,-85.0,0.200,-0.300,180.360,1000.0
2025-09-04T15:53:06.234167,-2.850,2.230,359.940,-85.0,0.200,-0.300,180.360,1000.0
2025-09-04T15:53:06.235167,-2.850,2.230,359.940,-85.0,0.200,-0.300,180.360,1000.0
2025-09-04T15:53:06.236166,-2.850,2.240,359.940,-85.0,0.200,-0.300,180.360,1000.0
2025-09-04T15:53:06.352953,-2.850,2.240,359.930,-85.0,0.200,-0.300,180.360,1000.0
2025-09-04T15:53:06.353952,-2.850,2.240,359.930,-85.0,0.200,-0.300,180.360,1000.0
2025-09-04T15:53:06.355953,-2.850,2.240,359.930,-85.0,0.200,-0.300,180.360,1000.0
2025-09-04T15:53:06.356954,-2.850,2.240,359.930,-85.0,0.200,-0.300,180.360,1000.0
2025-09-04T15:53:06.358954,-2.860,2.250,359.930,-85.0,0.200,-0.300,180.360,1000.0
2025-09-04T15:53:06.477538,-2.860,2.250,359.930,-85.0,0.200,-0.300,180.360,1000.0
2025-09-04T15:53:06.478537,-2.860,2.250,359.930,-85.0,0.200,-0.300,180.360,1000.0
2025-09-04T15:53:06.480537,-2.850,2.260,359.930,-85.0,0.200,-0.300,180.360,1000.0
2025-09-04T15:53:06.481544,-2.850,2.260,359.930,-85.0,0.200,-0.300,180.360,1000.0
2025-09-04T15:53:06.482537,-2.850,2.260,359.930,-85.0,0.200,-0.300,180.360,1000.0
2025-09-04T15:53:06.601282,-2.860,2.260,359.930,-85.0,0.200,-0.300,180.360,1000.0
2025-09-04T15:53:06.603281,-2.860,2.260,359.930,-85.0,0.200,-0.300,180.360,1000.0
2025-09-04T15:53:06.604281,-2.860,2.260,359.930,-85.0,0.200,-0.300,180.360,1000.0
2025-09-04T15:53:06.605282,-2.850,2.260,359.930,-85.0,0.200,-0.300,180.360,1000.0
2025-09-04T15:53:06.607282,-2.850,2.260,359.930,-85.0,0.200,-0.300,180.360,1000.0
2025-09-04T15:53:06.712264,-2.850,2.260,359.930,-85.0,0.200,-0.300,180.360,1000.0
2025-09-04T15:53:06.715261,-2.850,2.260,359.940,-85.0,0.200,-0.300,180.360,1000.0
2025-09-04T15:53:06.717260,-2.860,2.240,359.930,-85.0,0.200,-0.300,180.360,1000.0
2025-09-04T15:53:06.718260,-2.870,2.240,359.920,-85.0,0.200,-0.300,180.360,1000.0
2025-09-04T15:53:06.719261,-2.870,2.240,359.920,-85.0,0.200,-0.300,180.360,1000.0
2025-09-04T15:53:06.833271,-2.870,2.240,359.920,-85.0,0.200,-0.300,180.360,1000.0
2025-09-04T15:53:06.834260,-2.870,2.240,359.920,-85.0,0.200,-0.300,180.360,1000.0
2025-09-04T15:53:06.836270,-2.870,2.240,359.920,-85.0,0.200,-0.300,180.360,1000.0
2025-09-04T15:53:06.838261,-2.850,2.210,359.940,-85.0,-2.850,2.210,359.940,-85.0
2025-09-04T15:53:06.839260,-2.850,2.210,359.940,-85.0,-2.850,2.210,359.940,-85.0
2025-09-04T15:53:06.841263,-2.850,2.210,359.940,-85.0,-2.850,2.210,359.940,-85.0
