Timestamp,Roll_Angle,Pitch_Angle,Yaw_Angle,Altitude,Roll_Setpoint,Pitch_Setpoint,Yaw_Setpoint,Altitude_Setpoint
2025-09-08T18:36:08.583925,-23.610,-53.310,129.920,-56.2,0.000,0.000,355.940,1402.0
2025-09-08T18:36:08.601927,-23.620,-53.320,129.930,-56.2,0.000,0.000,355.940,1402.0
2025-09-08T18:36:08.614926,-23.620,-53.320,129.930,-56.2,0.000,0.000,355.940,1402.0
2025-09-08T18:36:08.660925,-23.620,-53.320,129.930,-56.2,0.000,0.000,355.940,1402.0
2025-09-08T18:36:08.661926,-23.620,-53.330,129.930,-56.2,0.000,0.000,355.940,1402.0
2025-09-08T18:36:08.689930,-23.620,-53.330,129.930,-56.2,0.000,0.000,355.940,1402.0
2025-09-08T18:36:08.695930,-23.630,-53.330,129.930,-56.1,0.000,0.000,355.940,1402.0
2025-09-08T18:36:08.719925,-23.630,-53.330,129.930,-56.1,0.000,0.000,355.940,1402.0
2025-09-08T18:36:08.721925,-23.630,-53.330,129.930,-56.1,0.000,0.000,355.940,1402.0
2025-09-08T18:36:08.750929,-23.630,-53.330,129.930,-56.1,0.000,0.000,355.940,1402.0
2025-09-08T18:36:08.794926,-23.630,-53.330,129.930,-56.1,0.000,0.000,355.940,1402.0
2025-09-08T18:36:08.800929,-23.630,-53.330,129.930,-56.1,0.000,0.000,355.940,1402.0
2025-09-08T18:36:08.824927,-23.630,-53.330,129.930,-56.1,0.000,0.000,355.940,1402.0
2025-09-08T18:36:08.854928,-23.630,-53.340,129.930,-56.1,0.000,0.000,355.940,1402.0
2025-09-08T18:36:08.857927,-23.630,-53.340,129.930,-56.2,0.000,0.000,355.940,1402.0
2025-09-08T18:36:08.884927,-23.630,-53.340,129.930,-56.2,0.000,0.000,355.940,1402.0
2025-09-08T18:36:08.889929,-23.640,-53.340,129.930,-56.2,0.000,0.000,355.940,1402.0
2025-09-08T18:36:08.913929,-23.640,-53.340,129.930,-56.2,0.000,0.000,355.940,1402.0
2025-09-08T18:36:08.915929,-23.640,-53.340,129.930,-56.2,0.000,0.000,355.940,1402.0
2025-09-08T18:36:08.944928,-23.640,-53.340,129.930,-56.2,0.000,0.000,355.940,1402.0
2025-09-08T18:36:08.989929,-23.650,-53.340,129.930,-56.2,0.000,0.000,355.940,1402.0
2025-09-08T18:36:08.994928,-23.640,-53.330,129.930,-56.2,0.000,0.000,355.940,1402.0
2025-09-08T18:36:09.019991,-23.650,-53.320,129.920,-56.2,0.000,0.000,355.940,1402.0
2025-09-08T18:36:09.021959,-23.650,-53.320,129.920,-56.2,0.000,0.000,355.940,1402.0
2025-09-08T18:36:09.063971,-23.650,-53.320,129.920,-56.2,0.000,0.000,355.940,1402.0
2025-09-08T18:36:09.094927,-23.660,-53.320,129.930,-56.2,0.000,0.000,355.940,1402.0
2025-09-08T18:36:09.099955,-23.660,-53.320,129.930,-56.2,0.000,0.000,355.940,1402.0
2025-09-08T18:36:09.124927,-23.660,-53.310,129.920,-56.2,0.000,0.000,355.940,1402.0
2025-09-08T18:36:09.126929,-23.660,-53.310,129.920,-56.2,0.000,0.000,355.940,1402.0
2025-09-08T18:36:09.154930,-23.660,-53.310,129.920,-56.2,0.000,0.000,355.940,1402.0
2025-09-08T18:36:09.184968,-23.660,-53.310,129.920,-56.2,0.000,0.000,355.940,1402.0
2025-09-08T18:36:09.187932,-23.660,-53.310,129.920,-56.2,0.000,0.000,355.940,1402.0
2025-09-08T18:36:09.213925,-23.650,-53.300,129.920,-56.2,0.000,0.000,355.940,1402.0
2025-09-08T18:36:09.215926,-23.650,-53.300,129.920,-56.2,0.000,0.000,355.940,1402.0
2025-09-08T18:36:09.261077,-23.650,-53.300,129.920,-56.2,0.000,0.000,355.940,1402.0
2025-09-08T18:36:09.292082,-23.650,-53.300,129.920,-56.2,0.000,0.000,355.940,1402.0
2025-09-08T18:36:09.300075,-23.650,-53.300,129.920,-56.2,0.000,0.000,355.940,1402.0
2025-09-08T18:36:09.321078,-23.650,-53.300,129.910,-56.2,0.000,0.000,355.940,1402.0
2025-09-08T18:36:09.336076,-23.650,-53.300,129.920,-56.2,0.000,0.000,355.940,1402.0
2025-09-08T18:36:09.352089,-23.650,-53.300,129.920,-56.2,0.000,0.000,355.940,1402.0
2025-09-08T18:36:09.396078,-23.650,-53.300,129.920,-56.2,0.000,0.000,355.940,1402.0
2025-09-08T18:36:09.400082,-23.660,-53.310,129.920,-56.2,0.000,0.000,355.940,1402.0
2025-09-08T18:36:09.426076,-23.660,-53.320,129.920,-56.2,0.000,0.000,355.940,1402.0
2025-09-08T18:36:09.428079,-23.650,-53.320,129.920,-56.2,0.000,0.000,355.940,1402.0
2025-09-08T18:36:09.456079,-23.650,-53.320,129.920,-56.2,0.000,0.000,355.940,1402.0
2025-09-08T18:36:09.500074,-23.650,-53.320,129.920,-56.2,0.000,0.000,355.940,1402.0
2025-09-08T18:36:09.504078,-23.650,-53.320,129.920,-56.2,0.000,0.000,355.940,1402.0
2025-09-08T18:36:09.531076,-23.650,-53.320,129.920,-56.2,0.000,0.000,355.940,1402.0
2025-09-08T18:36:09.533077,-23.650,-53.320,129.920,-56.2,0.000,0.000,355.940,1402.0
2025-09-08T18:36:09.561076,-23.650,-53.320,129.920,-56.2,0.000,0.000,355.940,1402.0
2025-09-08T18:36:09.591079,-23.650,-53.320,129.920,-56.2,0.000,0.000,355.940,1402.0
2025-09-08T18:36:09.606089,-23.650,-53.320,129.920,-56.2,0.000,0.000,355.940,1402.0
2025-09-08T18:36:09.621077,-23.650,-53.320,129.920,-56.2,0.000,0.000,355.940,1402.0
2025-09-08T18:36:09.623076,-23.650,-53.320,129.920,-56.2,0.000,0.000,355.940,1402.0
2025-09-08T18:36:09.651079,-23.650,-53.310,129.920,-56.2,0.000,0.000,355.940,1402.0
2025-09-08T18:36:09.696078,-23.650,-53.300,129.920,-56.2,0.000,0.000,355.940,1402.0
2025-09-08T18:36:09.701084,-23.650,-53.300,129.920,-56.2,0.000,0.000,355.940,1402.0
2025-09-08T18:36:09.741073,-23.650,-53.300,129.920,-56.2,0.000,0.000,355.940,1402.0
2025-09-08T18:36:09.743079,-23.650,-53.300,129.920,-56.2,0.000,0.000,355.940,1402.0
2025-09-08T18:36:09.771075,-23.650,-53.300,129.920,-56.2,0.000,0.000,355.940,1402.0
2025-09-08T18:36:09.801086,-23.650,-53.300,129.910,-56.2,0.000,0.000,355.940,1402.0
2025-09-08T18:36:09.805075,-23.650,-53.300,129.910,-56.2,0.000,0.000,355.940,1402.0
2025-09-08T18:36:09.831075,-23.650,-53.300,129.910,-56.2,0.000,0.000,355.940,1402.0
2025-09-08T18:36:09.833076,-23.650,-53.300,129.910,-56.2,0.000,0.000,355.940,1402.0
2025-09-08T18:36:09.861077,-23.650,-53.300,129.910,-56.2,0.000,0.000,355.940,1402.0
2025-09-08T18:36:09.862076,-23.650,-53.300,129.910,-56.2,0.000,0.000,355.940,1402.0
2025-09-08T18:36:09.891078,-23.650,-53.300,129.910,-56.2,0.000,0.000,355.940,1402.0
2025-09-08T18:36:09.921119,-23.650,-53.300,129.910,-56.2,0.000,0.000,355.940,1402.0
2025-09-08T18:36:09.923077,-23.650,-53.300,129.910,-56.2,0.000,0.000,355.940,1402.0
2025-09-08T18:36:09.952075,-23.650,-53.300,129.910,-56.2,0.000,0.000,355.940,1402.0
2025-09-08T18:36:09.953085,-23.660,-53.290,129.910,-56.2,0.000,0.000,355.940,1402.0
2025-09-08T18:36:09.996083,-23.660,-53.290,129.910,-56.2,0.000,0.000,355.940,1402.0
2025-09-08T18:36:10.026076,-23.660,-53.290,129.910,-56.2,0.000,0.000,355.940,1402.0
2025-09-08T18:36:10.040076,-23.660,-53.290,129.910,-56.2,0.000,0.000,355.940,1402.0
2025-09-08T18:36:10.071077,-23.660,-53.290,129.910,-56.2,0.000,0.000,355.940,1402.0
2025-09-08T18:36:10.072075,-23.660,-53.290,129.910,-56.2,0.000,0.000,355.940,1402.0
2025-09-08T18:36:10.101077,-23.670,-53.290,129.910,-56.2,0.000,0.000,355.940,1402.0
2025-09-08T18:36:10.131074,-23.670,-53.290,129.910,-56.2,0.000,0.000,355.940,1402.0
2025-09-08T18:36:10.133075,-23.670,-53.290,129.910,-56.2,0.000,0.000,355.940,1402.0
2025-09-08T18:36:10.161079,-23.670,-53.290,129.910,-56.2,0.000,0.000,355.940,1402.0
2025-09-08T18:36:10.162079,-23.670,-53.290,129.910,-56.2,0.000,0.000,355.940,1402.0
2025-09-08T18:36:10.191078,-23.670,-53.290,129.910,-56.2,0.000,0.000,355.940,1402.0
2025-09-08T18:36:10.236074,-23.670,-53.290,129.910,-56.2,0.000,0.000,355.940,1402.0
2025-09-08T18:36:10.237074,-23.670,-53.290,129.910,-56.2,0.000,0.000,355.940,1402.0
2025-09-08T18:36:10.266075,-23.670,-53.290,129.910,-56.2,0.000,0.000,355.940,1402.0
2025-09-08T18:36:10.267074,-23.660,-53.300,129.910,-56.2,0.000,0.000,355.940,1402.0
2025-09-08T18:36:10.296073,-23.660,-53.300,129.920,-56.2,0.000,0.000,355.940,1402.0
2025-09-08T18:36:10.326079,-23.650,-53.300,129.920,-56.2,0.000,0.000,355.940,1402.0
2025-09-08T18:36:10.327076,-23.650,-53.300,129.920,-56.2,0.000,0.000,355.940,1402.0
2025-09-08T18:36:10.356076,-23.650,-53.300,129.920,-56.2,0.000,0.000,355.940,1402.0
2025-09-08T18:36:10.361076,-23.650,-53.310,129.910,-56.2,0.000,0.000,355.940,1402.0
2025-09-08T18:36:10.386075,-23.650,-53.310,129.920,-56.2,0.000,0.000,355.940,1402.0
2025-09-08T18:36:10.431082,-23.650,-53.310,129.920,-56.2,0.000,0.000,355.940,1402.0
2025-09-08T18:36:10.433076,-23.640,-53.310,129.920,-56.2,0.000,0.000,355.940,1402.0
2025-09-08T18:36:10.476075,-23.640,-53.310,129.920,-56.2,0.000,0.000,355.940,1402.0
2025-09-08T18:36:10.478077,-23.640,-53.310,129.920,-56.2,0.000,0.000,355.940,1402.0
2025-09-08T18:36:10.506074,-23.650,-53.310,129.920,-56.2,0.000,0.000,355.940,1402.0
2025-09-08T18:36:10.536084,-23.650,-53.310,129.920,-56.2,0.000,0.000,355.940,1402.0
2025-09-08T18:36:10.538075,-23.650,-53.310,129.910,-56.2,0.000,0.000,355.940,1402.0
2025-09-08T18:36:10.565073,-23.650,-53.300,129.920,-56.2,0.000,0.000,355.940,1402.0
2025-09-08T18:36:10.567075,-23.650,-53.300,129.920,-56.2,0.000,0.000,355.940,1402.0
2025-09-08T18:36:10.596074,-23.650,-53.300,129.920,-56.2,0.000,0.000,355.940,1402.0
2025-09-08T18:36:10.626078,-23.650,-53.300,129.920,-56.2,0.000,0.000,355.940,1402.0
2025-09-08T18:36:10.628076,-23.660,-53.300,129.920,-56.2,0.000,0.000,355.940,1402.0
2025-09-08T18:36:10.656075,-23.660,-53.300,129.920,-56.2,0.000,0.000,355.940,1402.0
2025-09-08T18:36:10.659078,-23.660,-53.300,129.920,-56.2,0.000,0.000,355.940,1402.0
2025-09-08T18:36:10.701074,-23.660,-53.300,129.920,-56.2,0.000,0.000,355.940,1402.0
2025-09-08T18:36:10.746075,-23.660,-53.300,129.920,-56.2,0.000,0.000,355.940,1402.0
2025-09-08T18:36:10.748081,-23.660,-53.300,129.920,-56.2,0.000,0.000,355.940,1402.0
2025-09-08T18:36:10.776077,-23.660,-53.300,129.920,-56.2,0.000,0.000,355.940,1402.0
2025-09-08T18:36:10.778078,-23.660,-53.300,129.920,-56.2,0.000,0.000,355.940,1402.0
2025-09-08T18:36:10.806085,-23.660,-53.290,129.910,-56.2,0.000,0.000,355.940,1402.0
2025-09-08T18:36:10.808077,-23.660,-53.290,129.910,-56.2,0.000,0.000,355.940,1402.0
2025-09-08T18:36:10.836078,-23.660,-53.290,129.910,-56.2,0.000,0.000,355.940,1402.0
2025-09-08T18:36:10.865075,-23.660,-53.290,129.910,-56.2,0.000,0.000,355.940,1402.0
2025-09-08T18:36:10.867075,-23.660,-53.290,129.910,-56.2,0.000,0.000,355.940,1402.0
2025-09-08T18:36:10.895072,-23.660,-53.290,129.910,-56.2,0.000,0.000,355.940,1402.0
2025-09-08T18:36:10.897074,-23.660,-53.290,129.910,-56.2,0.000,0.000,355.940,1402.0
2025-09-08T18:36:10.941075,-23.660,-53.290,129.910,-56.2,0.000,0.000,355.940,1402.0
2025-09-08T18:36:10.971076,-23.660,-53.290,129.910,-56.2,0.000,0.000,355.940,1402.0
2025-09-08T18:36:10.973076,-23.660,-53.290,129.910,-56.2,0.000,0.000,355.940,1402.0
2025-09-08T18:36:11.002075,-23.660,-53.290,129.910,-56.2,0.000,0.000,355.940,1402.0
2025-09-08T18:36:11.004077,-23.660,-53.290,129.910,-56.2,0.000,0.000,355.940,1402.0
2025-09-08T18:36:11.031074,-23.660,-53.290,129.910,-56.2,0.000,0.000,355.940,1402.0
2025-09-08T18:36:11.076076,-23.660,-53.290,129.910,-56.2,0.000,0.000,355.940,1402.0
2025-09-08T18:36:11.078077,-23.660,-53.290,129.910,-56.2,0.000,0.000,355.940,1402.0
2025-09-08T18:36:11.091079,-23.650,-53.300,129.910,-56.2,0.000,0.000,355.940,1402.0
2025-09-08T18:36:11.106077,-23.650,-53.300,129.910,-56.2,0.000,0.000,355.940,1402.0
2025-09-08T18:36:11.136075,-23.650,-53.300,129.910,-56.2,0.000,0.000,355.940,1402.0
2025-09-08T18:36:11.181074,-23.650,-53.300,129.920,-56.2,0.000,0.000,355.940,1402.0
2025-09-08T18:36:11.183075,-23.650,-53.310,129.920,-56.2,0.000,0.000,355.940,1402.0
2025-09-08T18:36:11.211076,-23.650,-53.310,129.920,-56.2,0.000,0.000,355.940,1402.0
2025-09-08T18:36:11.212076,-23.640,-53.310,129.920,-56.2,0.000,0.000,355.940,1402.0
2025-09-08T18:36:11.241076,-23.640,-53.310,129.920,-56.2,0.000,0.000,355.940,1402.0
2025-09-08T18:36:11.271075,-23.640,-53.310,129.920,-56.2,0.000,0.000,355.940,1402.0
2025-09-08T18:36:11.273079,-23.640,-53.310,129.920,-56.2,0.000,0.000,355.940,1402.0
2025-09-08T18:36:11.302076,-23.640,-53.300,129.920,-56.2,0.000,0.000,355.940,1402.0
2025-09-08T18:36:11.304074,-23.640,-53.310,129.920,-56.2,0.000,0.000,355.940,1402.0
2025-09-08T18:36:11.333077,-23.630,-53.310,129.920,-56.2,0.000,0.000,355.940,1402.0
2025-09-08T18:36:11.362075,-23.640,-53.300,129.920,-56.2,0.000,0.000,355.940,1402.0
2025-09-08T18:36:11.364076,-23.640,-53.310,129.920,-56.2,0.000,0.000,355.940,1402.0
2025-09-08T18:36:11.392079,-23.630,-53.310,129.920,-56.2,0.000,0.000,355.940,1402.0
2025-09-08T18:36:11.422075,-23.640,-53.320,129.920,-56.2,0.000,0.000,355.940,1402.0
2025-09-08T18:36:11.424080,-23.640,-53.320,129.920,-56.2,0.000,0.000,355.940,1402.0
2025-09-08T18:36:11.483080,-23.630,-53.320,129.920,-56.2,0.000,0.000,355.940,1402.0
2025-09-08T18:36:11.485074,-23.630,-53.330,129.920,-56.2,0.000,0.000,355.940,1402.0
2025-09-08T18:36:11.512076,-23.630,-53.330,129.920,-56.2,0.000,0.000,355.940,1402.0
2025-09-08T18:36:11.513076,-23.620,-53.330,129.930,-56.2,0.000,0.000,355.940,1402.0
2025-09-08T18:36:11.542079,-23.620,-53.330,129.930,-56.2,0.000,0.000,355.940,1402.0
2025-09-08T18:36:11.572076,-23.620,-53.330,129.930,-56.2,0.000,0.000,355.940,1402.0
2025-09-08T18:36:11.574077,-23.620,-53.330,129.930,-56.2,0.000,0.000,355.940,1402.0
2025-09-08T18:36:11.602075,-23.610,-53.330,129.920,-56.2,0.000,0.000,355.940,1402.0
2025-09-08T18:36:11.603075,-23.620,-53.340,129.930,-56.2,0.000,0.000,355.940,1402.0
2025-09-08T18:36:11.633079,-23.620,-53.340,129.930,-56.2,0.000,0.000,355.940,1402.0
2025-09-08T18:36:11.677076,-23.620,-53.340,129.920,-56.2,0.000,0.000,355.940,1402.0
2025-09-08T18:36:11.679076,-23.620,-53.340,129.930,-56.2,0.000,0.000,355.940,1402.0
2025-09-08T18:36:11.707075,-23.620,-53.340,129.930,-56.2,0.000,0.000,355.940,1402.0
2025-09-08T18:36:11.709076,-23.620,-53.340,129.930,-56.2,0.000,0.000,355.940,1402.0
2025-09-08T18:36:11.737075,-23.610,-53.340,129.930,-56.2,0.000,0.000,355.940,1402.0
2025-09-08T18:36:11.767075,-23.620,-53.340,129.940,-56.2,0.000,0.000,355.940,1402.0
2025-09-08T18:36:11.782079,-23.620,-53.340,129.940,-56.2,0.000,0.000,355.940,1402.0
2025-09-08T18:36:11.812080,-23.620,-53.340,129.930,-56.2,0.000,0.000,355.940,1402.0
2025-09-08T18:36:11.814109,-23.610,-53.340,129.930,-56.2,0.000,0.000,355.940,1402.0
2025-09-08T18:36:11.842080,-23.610,-53.340,129.930,-56.2,0.000,0.000,355.940,1402.0
2025-09-08T18:36:11.871074,-23.610,-53.340,129.940,-56.2,0.000,0.000,355.940,1402.0
2025-09-08T18:36:11.873074,-23.610,-53.340,129.940,-56.2,0.000,0.000,355.940,1402.0
2025-09-08T18:36:11.917076,-23.610,-53.340,129.940,-56.2,0.000,0.000,355.940,1402.0
2025-09-08T18:36:11.919075,-23.610,-53.340,129.940,-56.1,0.000,0.000,355.940,1402.0
2025-09-08T18:36:11.947112,-23.600,-53.340,129.940,-56.1,0.000,0.000,355.940,1402.0
2025-09-08T18:36:11.950076,-23.610,-53.340,129.940,-56.1,0.000,0.000,355.940,1402.0
2025-09-08T18:36:11.977077,-23.610,-53.340,129.940,-56.1,0.000,0.000,355.940,1402.0
2025-09-08T18:36:12.007082,-23.610,-53.340,129.940,-56.1,0.000,0.000,355.940,1402.0
2025-09-08T18:36:12.010076,-23.610,-53.340,129.940,-56.1,0.000,0.000,355.940,1402.0
2025-09-08T18:36:12.037078,-23.610,-53.340,129.940,-56.1,0.000,0.000,355.940,1402.0
2025-09-08T18:36:12.039075,-23.610,-53.340,129.940,-56.1,0.000,0.000,355.940,1402.0
2025-09-08T18:36:12.067075,-23.610,-53.350,129.940,-56.2,0.000,0.000,355.940,1402.0
2025-09-08T18:36:12.097076,-23.610,-53.350,129.940,-56.2,0.000,0.000,355.940,1402.0
2025-09-08T18:36:12.098077,-23.610,-53.350,129.930,-56.2,0.000,0.000,355.940,1402.0
2025-09-08T18:36:12.142077,-23.620,-53.350,129.930,-56.2,0.000,0.000,355.940,1402.0
2025-09-08T18:36:12.144078,-23.610,-53.350,129.940,-56.2,0.000,0.000,355.940,1402.0
2025-09-08T18:36:12.187075,-23.620,-53.340,129.940,-56.2,0.000,0.000,355.940,1402.0
2025-09-08T18:36:12.217074,-23.620,-53.350,129.940,-56.2,0.000,0.000,355.940,1402.0
2025-09-08T18:36:12.218075,-23.620,-53.350,129.940,-56.2,0.000,0.000,355.940,1402.0
2025-09-08T18:36:12.247076,-23.620,-53.350,129.940,-56.2,0.000,0.000,355.940,1402.0
2025-09-08T18:36:12.249078,-23.620,-53.340,129.930,-56.2,0.000,0.000,355.940,1402.0
2025-09-08T18:36:12.277078,-23.620,-53.340,129.930,-56.2,0.000,0.000,355.940,1402.0
2025-09-08T18:36:12.307075,-23.620,-53.340,129.930,-56.1,0.000,0.000,355.940,1402.0
2025-09-08T18:36:12.309075,-23.620,-53.340,129.940,-56.1,0.000,0.000,355.940,1402.0
2025-09-08T18:36:12.337120,-23.620,-53.340,129.940,-56.1,0.000,0.000,355.940,1402.0
2025-09-08T18:36:12.338074,-23.620,-53.340,129.940,-56.1,0.000,0.000,355.940,1402.0
2025-09-08T18:36:12.383076,-23.620,-53.340,129.940,-56.1,0.000,0.000,355.940,1402.0
2025-09-08T18:36:12.412086,-23.630,-53.330,129.930,-56.1,0.000,0.000,355.940,1402.0
2025-09-08T18:36:12.414075,-23.630,-53.330,129.930,-56.1,0.000,0.000,355.940,1402.0
2025-09-08T18:36:12.442078,-23.630,-53.330,129.930,-56.1,0.000,0.000,355.940,1402.0
2025-09-08T18:36:12.444078,-23.630,-53.330,129.930,-56.1,0.000,0.000,355.940,1402.0
2025-09-08T18:36:12.472077,-23.630,-53.330,129.930,-56.1,0.000,0.000,355.940,1402.0
2025-09-08T18:36:12.502075,-23.630,-53.330,129.930,-56.1,0.000,0.000,355.940,1402.0
2025-09-08T18:36:12.517079,-23.640,-53.330,129.940,-56.1,0.000,0.000,355.940,1402.0
2025-09-08T18:36:12.547077,-23.640,-53.330,129.940,-56.1,0.000,0.000,355.940,1402.0
2025-09-08T18:36:12.549079,-23.640,-53.330,129.940,-56.1,0.000,0.000,355.940,1402.0
2025-09-08T18:36:12.577075,-23.640,-53.330,129.940,-56.2,0.000,0.000,355.940,1402.0
2025-09-08T18:36:12.622127,-23.640,-53.330,129.930,-56.2,0.000,0.000,355.940,1402.0
2025-09-08T18:36:12.624075,-23.640,-53.330,129.930,-56.2,0.000,0.000,355.940,1402.0
2025-09-08T18:36:12.652090,-23.640,-53.330,129.930,-56.1,0.000,0.000,355.940,1402.0
2025-09-08T18:36:12.656076,-23.650,-53.340,129.930,-56.1,0.000,0.000,355.940,1402.0
2025-09-08T18:36:12.682077,-23.650,-53.330,129.930,-56.2,0.000,0.000,355.940,1402.0
2025-09-08T18:36:12.712076,-23.650,-53.330,129.930,-56.2,0.000,0.000,355.940,1402.0
2025-09-08T18:36:12.713075,-23.650,-53.330,129.930,-56.2,0.000,0.000,355.940,1402.0
2025-09-08T18:36:12.742077,-23.650,-53.330,129.930,-56.2,0.000,0.000,355.940,1402.0
2025-09-08T18:36:12.744077,-23.650,-53.320,129.920,-56.2,0.000,0.000,355.940,1402.0
2025-09-08T18:36:12.772077,-23.650,-53.320,129.920,-56.2,0.000,0.000,355.940,1402.0
2025-09-08T18:36:12.817075,-23.660,-53.320,129.930,-56.2,0.000,0.000,355.940,1402.0
2025-09-08T18:36:12.818075,-23.660,-53.320,129.930,-56.2,0.000,0.000,355.940,1402.0
2025-09-08T18:36:12.833079,-23.650,-53.310,129.930,-56.2,0.000,0.000,355.940,1402.0
2025-09-08T18:36:12.862077,-23.660,-53.320,129.930,-56.2,0.000,0.000,355.940,1402.0
2025-09-08T18:36:12.892082,-23.660,-53.320,129.930,-56.2,0.000,0.000,355.940,1402.0
2025-09-08T18:36:12.896078,-23.660,-53.320,129.930,-56.2,0.000,0.000,355.940,1402.0
2025-09-08T18:36:12.921074,-23.660,-53.320,129.930,-56.2,0.000,0.000,355.940,1402.0
2025-09-08T18:36:12.952076,-23.660,-53.330,129.930,-56.2,0.000,0.000,355.940,1402.0
2025-09-08T18:36:12.954077,-23.660,-53.330,129.930,-56.2,0.000,0.000,355.940,1402.0
2025-09-08T18:36:12.983081,-23.660,-53.330,129.930,-56.2,0.000,0.000,355.940,1402.0
2025-09-08T18:36:12.987076,-23.660,-53.330,129.930,-56.2,0.000,0.000,355.940,1402.0
2025-09-08T18:36:13.012076,-23.660,-53.330,129.930,-56.2,0.000,0.000,355.940,1402.0
2025-09-08T18:36:13.042078,-23.650,-53.330,129.930,-56.2,0.000,0.000,355.940,1402.0
2025-09-08T18:36:13.043079,-23.650,-53.330,129.930,-56.2,0.000,0.000,355.940,1402.0
2025-09-08T18:36:13.087074,-23.650,-53.330,129.930,-56.2,0.000,0.000,355.940,1402.0
2025-09-08T18:36:13.091076,-23.660,-53.330,129.920,-56.2,0.000,0.000,355.940,1402.0
2025-09-08T18:36:13.117083,-23.660,-53.330,129.920,-56.2,0.000,0.000,355.940,1402.0
2025-09-08T18:36:13.147086,-23.660,-53.330,129.920,-56.2,0.000,0.000,355.940,1402.0
2025-09-08T18:36:13.150077,-23.650,-53.330,129.930,-56.2,0.000,0.000,355.940,1402.0
2025-09-08T18:36:13.177077,-23.650,-53.340,129.940,-56.2,0.000,0.000,355.940,1402.0
2025-09-08T18:36:13.195077,-23.660,-53.340,129.930,-56.2,0.000,0.000,355.940,1402.0
2025-09-08T18:36:13.222078,-23.660,-53.340,129.930,-56.2,0.000,0.000,355.940,1402.0
2025-09-08T18:36:13.252076,-23.660,-53.340,129.930,-56.1,0.000,0.000,355.940,1402.0
2025-09-08T18:36:13.254078,-23.660,-53.330,129.930,-56.1,0.000,0.000,355.940,1402.0
2025-09-08T18:36:13.282077,-23.660,-53.330,129.930,-56.1,0.000,0.000,355.940,1402.0
2025-09-08T18:36:13.289075,-23.660,-53.330,129.930,-56.1,0.000,0.000,355.940,1402.0
2025-09-08T18:36:13.327074,-23.650,-53.330,129.930,-56.1,0.000,0.000,355.940,1402.0
2025-09-08T18:36:13.357075,-23.650,-53.340,129.930,-56.1,0.000,0.000,355.940,1402.0
2025-09-08T18:36:13.362076,-23.640,-53.330,129.930,-56.1,0.000,0.000,355.940,1402.0
2025-09-08T18:36:13.388087,-23.640,-53.330,129.930,-56.1,0.000,0.000,355.940,1402.0
2025-09-08T18:36:13.392078,-23.640,-53.330,129.930,-56.1,0.000,0.000,355.940,1402.0
2025-09-08T18:36:13.417075,-23.640,-53.320,129.930,-56.1,0.000,0.000,355.940,1402.0
2025-09-08T18:36:13.447077,-23.640,-53.320,129.930,-56.1,0.000,0.000,355.940,1402.0
2025-09-08T18:36:13.450079,-23.640,-53.320,129.930,-56.1,0.000,0.000,355.940,1402.0
2025-09-08T18:36:13.477077,-23.640,-53.320,129.930,-56.1,0.000,0.000,355.940,1402.0
2025-09-08T18:36:13.495076,-23.640,-53.320,129.930,-56.1,0.000,0.000,355.940,1402.0
2025-09-08T18:36:13.507076,-23.630,-53.320,129.920,-56.1,0.000,0.000,355.940,1402.0
2025-09-08T18:36:13.567112,-23.640,-53.320,129.930,-56.1,0.000,0.000,355.940,1402.0
2025-09-08T18:36:13.569119,-23.640,-53.330,129.930,-56.1,0.000,0.000,355.940,1402.0
2025-09-08T18:36:13.597076,-23.650,-53.320,129.920,-56.1,0.000,0.000,355.940,1402.0
2025-09-08T18:36:13.601075,-23.650,-53.320,129.920,-56.2,0.000,0.000,355.940,1402.0
2025-09-08T18:36:13.627074,-23.650,-53.320,129.920,-56.2,0.000,0.000,355.940,1402.0
2025-09-08T18:36:13.657081,-23.640,-53.310,129.930,-56.2,0.000,0.000,355.940,1402.0
2025-09-08T18:36:13.661076,-23.650,-53.310,129.920,-56.2,0.000,0.000,355.940,1402.0
2025-09-08T18:36:13.688074,-23.650,-53.300,129.920,-56.2,0.000,0.000,355.940,1402.0
2025-09-08T18:36:13.693081,-23.640,-53.300,129.920,-56.2,0.000,0.000,355.940,1402.0
2025-09-08T18:36:13.717078,-23.640,-53.300,129.920,-56.2,0.000,0.000,355.940,1402.0
2025-09-08T18:36:13.747077,-23.640,-53.300,129.930,-56.2,0.000,0.000,355.940,1402.0
2025-09-08T18:36:13.748076,-23.640,-53.300,129.930,-56.2,0.000,0.000,355.940,1402.0
2025-09-08T18:36:13.777076,-23.640,-53.310,129.930,-56.2,0.000,0.000,355.940,1402.0
2025-09-08T18:36:13.781075,-23.640,-53.310,129.930,-56.2,0.000,0.000,355.940,1402.0
2025-09-08T18:36:13.822074,-23.640,-53.310,129.930,-56.2,0.000,0.000,355.940,1402.0
2025-09-08T18:36:13.824118,-23.640,-53.310,129.930,-56.2,0.000,0.000,355.940,1402.0
2025-09-08T18:36:13.852076,-23.640,-53.310,129.930,-56.2,0.000,0.000,355.940,1402.0
2025-09-08T18:36:13.897078,-23.630,-53.310,129.920,-56.2,0.000,0.000,355.940,1402.0
2025-09-08T18:36:13.900078,-23.630,-53.320,129.930,-56.2,0.000,0.000,355.940,1402.0
2025-09-08T18:36:13.912076,-23.630,-53.320,129.930,-56.2,0.000,0.000,355.940,1402.0
2025-09-08T18:36:13.957118,-23.630,-53.320,129.930,-56.2,0.000,0.000,355.940,1402.0
2025-09-08T18:36:13.961075,-23.630,-53.320,129.930,-56.2,0.000,0.000,355.940,1402.0
2025-09-08T18:36:13.988076,-23.630,-53.320,129.930,-56.2,0.000,0.000,355.940,1402.0
2025-09-08T18:36:13.992076,-23.630,-53.320,129.930,-56.2,0.000,0.000,355.940,1402.0
2025-09-08T18:36:14.017077,-23.640,-53.310,129.930,-56.2,0.000,0.000,355.940,1402.0
2025-09-08T18:36:14.019079,-23.640,-53.310,129.930,-56.2,0.000,0.000,355.940,1402.0
2025-09-08T18:36:14.062114,-23.640,-53.310,129.930,-56.2,0.000,0.000,355.940,1402.0
2025-09-08T18:36:14.092077,-23.640,-53.310,129.930,-56.2,0.000,0.000,355.940,1402.0
2025-09-08T18:36:14.098085,-23.640,-53.300,129.930,-56.2,0.000,0.000,355.940,1402.0
2025-09-08T18:36:14.122075,-23.640,-53.300,129.930,-56.2,0.000,0.000,355.940,1402.0
2025-09-08T18:36:14.124125,-23.640,-53.300,129.920,-56.2,0.000,0.000,355.940,1402.0
2025-09-08T18:36:14.152086,-23.640,-53.300,129.920,-56.2,0.000,0.000,355.940,1402.0
2025-09-08T18:36:14.182080,-23.640,-53.300,129.920,-56.2,0.000,0.000,355.940,1402.0
2025-09-08T18:36:14.197074,-23.640,-53.300,129.920,-56.2,0.000,0.000,355.940,1402.0
2025-09-08T18:36:14.212076,-23.650,-53.300,129.920,-56.2,0.000,0.000,355.940,1402.0
2025-09-08T18:36:14.227080,-23.650,-53.300,129.920,-56.2,0.000,0.000,355.940,1402.0
2025-09-08T18:36:14.242075,-23.650,-53.300,129.920,-56.2,0.000,0.000,355.940,1402.0
2025-09-08T18:36:14.302076,-23.650,-53.290,129.920,-56.2,0.000,0.000,355.940,1402.0
2025-09-08T18:36:14.307081,-23.650,-53.290,129.920,-56.2,0.000,0.000,355.940,1402.0
2025-09-08T18:36:14.332078,-23.650,-53.290,129.920,-56.2,0.000,0.000,355.940,1402.0
2025-09-08T18:36:14.334085,-23.650,-53.290,129.920,-56.2,0.000,0.000,355.940,1402.0
2025-09-08T18:36:14.362074,-23.650,-53.290,129.920,-56.2,0.000,0.000,355.940,1402.0
2025-09-08T18:36:14.392076,-23.650,-53.290,129.920,-56.2,0.000,0.000,355.940,1402.0
2025-09-08T18:36:14.397080,-23.650,-53.290,129.910,-56.2,0.000,0.000,355.940,1402.0
2025-09-08T18:36:14.422078,-23.650,-53.290,129.910,-56.2,0.000,0.000,355.940,1402.0
2025-09-08T18:36:14.424108,-23.650,-53.290,129.910,-56.2,0.000,0.000,355.940,1402.0
2025-09-08T18:36:14.452075,-23.650,-53.290,129.920,-56.2,0.000,0.000,355.940,1402.0
2025-09-08T18:36:14.482077,-23.650,-53.290,129.920,-56.2,0.000,0.000,355.940,1402.0
2025-09-08T18:36:14.488076,-23.650,-53.290,129.920,-56.2,0.000,0.000,355.940,1402.0
2025-09-08T18:36:14.527079,-23.650,-53.290,129.910,-56.2,0.000,0.000,355.940,1402.0
2025-09-08T18:36:14.529076,-23.650,-53.290,129.920,-56.2,0.000,0.000,355.940,1402.0
2025-09-08T18:36:14.557076,-23.640,-53.300,129.920,-56.2,0.000,0.000,355.940,1402.0
2025-09-08T18:36:14.587077,-23.640,-53.300,129.920,-56.2,0.000,0.000,355.940,1402.0
2025-09-08T18:36:14.606075,-23.640,-53.310,129.930,-56.2,0.000,0.000,355.940,1402.0
2025-09-08T18:36:14.632075,-23.640,-53.310,129.930,-56.2,0.000,0.000,355.940,1402.0
2025-09-08T18:36:14.633074,-23.640,-53.310,129.930,-56.2,0.000,0.000,355.940,1402.0
2025-09-08T18:36:14.662080,-23.630,-53.310,129.920,-56.2,0.000,0.000,355.940,1402.0
2025-09-08T18:36:14.692076,-23.630,-53.320,129.930,-56.2,0.000,0.000,355.940,1402.0
2025-09-08T18:36:14.697076,-23.630,-53.320,129.930,-56.2,0.000,0.000,355.940,1402.0
2025-09-08T18:36:14.722076,-23.620,-53.330,129.930,-56.2,0.000,0.000,355.940,1402.0
2025-09-08T18:36:14.723075,-23.620,-53.330,129.930,-56.2,0.000,0.000,355.940,1402.0
2025-09-08T18:36:14.767078,-23.620,-53.330,129.930,-56.2,0.000,0.000,355.940,1402.0
2025-09-08T18:36:14.797073,-23.620,-53.330,129.940,-56.2,0.000,0.000,355.940,1402.0
2025-09-08T18:36:14.803076,-23.620,-53.330,129.940,-56.2,0.000,0.000,355.940,1402.0
2025-09-08T18:36:14.827076,-23.620,-53.340,129.940,-56.2,0.000,0.000,355.940,1402.0
2025-09-08T18:36:14.829075,-23.620,-53.340,129.940,-56.2,0.000,0.000,355.940,1402.0
2025-09-08T18:36:14.857085,-23.620,-53.340,129.940,-56.2,0.000,0.000,355.940,1402.0
2025-09-08T18:36:14.887075,-23.620,-53.340,129.940,-56.2,0.000,0.000,355.940,1402.0
2025-09-08T18:36:14.905076,-23.620,-53.340,129.940,-56.1,0.000,0.000,355.940,1402.0
2025-09-08T18:36:14.917077,-23.620,-53.340,129.940,-56.1,0.000,0.000,355.940,1402.0
2025-09-08T18:36:14.918076,-23.610,-53.340,129.930,-56.1,0.000,0.000,355.940,1402.0
2025-09-08T18:36:14.947075,-23.610,-53.340,129.930,-56.1,0.000,0.000,355.940,1402.0
2025-09-08T18:36:14.962081,-23.610,-53.350,129.940,-56.1,0.000,0.000,355.940,1402.0
2025-09-08T18:36:15.007076,-23.610,-53.350,129.940,-56.1,0.000,0.000,355.940,1402.0
2025-09-08T18:36:15.037076,-23.610,-53.350,129.940,-56.1,0.000,0.000,355.940,1402.0
2025-09-08T18:36:15.039076,-23.610,-53.350,129.940,-56.1,0.000,0.000,355.940,1402.0
2025-09-08T18:36:15.067075,-23.610,-53.350,129.940,-56.1,0.000,0.000,355.940,1402.0
2025-09-08T18:36:15.069074,-23.610,-53.350,129.940,-56.1,0.000,0.000,355.940,1402.0
2025-09-08T18:36:15.097082,-23.610,-53.350,129.940,-56.1,0.000,0.000,355.940,1402.0
2025-09-08T18:36:15.127081,-23.610,-53.350,129.940,-56.1,0.000,0.000,355.940,1402.0
2025-09-08T18:36:15.129079,-23.610,-53.350,129.940,-56.1,0.000,0.000,355.940,1402.0
2025-09-08T18:36:15.157078,-23.610,-53.350,129.940,-56.1,0.000,0.000,355.940,1402.0
2025-09-08T18:36:15.161082,-23.610,-53.350,129.940,-56.1,0.000,0.000,355.940,1402.0
2025-09-08T18:36:15.187079,-23.610,-53.350,129.940,-56.1,0.000,0.000,355.940,1402.0
2025-09-08T18:36:15.232132,-23.610,-53.350,129.940,-56.1,0.000,0.000,355.940,1402.0
2025-09-08T18:36:15.234078,-23.610,-53.340,129.940,-56.1,0.000,0.000,355.940,1402.0
2025-09-08T18:36:15.262081,-23.610,-53.340,129.940,-56.1,0.000,0.000,355.940,1402.0
2025-09-08T18:36:15.264079,-23.610,-53.340,129.940,-56.1,0.000,0.000,355.940,1402.0
2025-09-08T18:36:15.292077,-23.610,-53.350,129.940,-56.1,0.000,0.000,355.940,1402.0
2025-09-08T18:36:15.337079,-23.620,-53.350,129.950,-56.2,0.000,0.000,355.940,1402.0
2025-09-08T18:36:15.339077,-23.620,-53.350,129.950,-56.2,0.000,0.000,355.940,1402.0
2025-09-08T18:36:15.367076,-23.620,-53.350,129.950,-56.2,0.000,0.000,355.940,1402.0
2025-09-08T18:36:15.369074,-23.620,-53.350,129.950,-56.2,0.000,0.000,355.940,1402.0
2025-09-08T18:36:15.397079,-23.620,-53.350,129.950,-56.2,0.000,0.000,355.940,1402.0
2025-09-08T18:36:15.428076,-23.620,-53.350,129.950,-56.2,0.000,0.000,355.940,1402.0
2025-09-08T18:36:15.430077,-23.620,-53.340,129.950,-56.2,0.000,0.000,355.940,1402.0
2025-09-08T18:36:15.472113,-23.620,-53.340,129.950,-56.2,0.000,0.000,355.940,1402.0
2025-09-08T18:36:15.474111,-23.630,-53.340,129.960,-56.2,0.000,0.000,355.940,1402.0
2025-09-08T18:36:15.503111,-23.630,-53.350,129.950,-56.2,0.000,0.000,355.940,1402.0
2025-09-08T18:36:15.532077,-23.630,-53.350,129.950,-56.2,0.000,0.000,355.940,1402.0
2025-09-08T18:36:15.534074,-23.640,-53.360,129.950,-56.2,0.000,0.000,355.940,1402.0
2025-09-08T18:36:15.562078,-23.640,-53.360,129.950,-56.2,0.000,0.000,355.940,1402.0
2025-09-08T18:36:15.563079,-23.640,-53.360,129.950,-56.2,0.000,0.000,355.940,1402.0
2025-09-08T18:36:15.592076,-23.640,-53.360,129.950,-56.2,0.000,0.000,355.940,1402.0
2025-09-08T18:36:15.622075,-23.630,-53.360,129.960,-56.1,0.000,0.000,355.940,1402.0
2025-09-08T18:36:15.637075,-23.640,-53.370,129.960,-56.1,0.000,0.000,355.940,1402.0
2025-09-08T18:36:15.667130,-23.630,-53.360,129.960,-56.1,0.000,0.000,355.940,1402.0
2025-09-08T18:36:15.668075,-23.640,-53.360,129.960,-56.1,0.000,0.000,355.940,1402.0
2025-09-08T18:36:15.712077,-23.640,-53.360,129.960,-56.2,0.000,0.000,355.940,1402.0
2025-09-08T18:36:15.741677,-23.640,-53.360,129.960,-56.2,0.000,0.000,355.940,1402.0
2025-09-08T18:36:15.743688,-23.640,-53.360,129.960,-56.2,0.000,0.000,355.940,1402.0
2025-09-08T18:36:15.772686,-23.640,-53.350,129.960,-56.2,0.000,0.000,355.940,1402.0
2025-09-08T18:36:15.773683,-23.630,-53.350,129.960,-56.2,0.000,0.000,355.940,1402.0
2025-09-08T18:36:15.802687,-23.640,-53.350,129.970,-56.2,0.000,0.000,355.940,1402.0
2025-09-08T18:36:15.832684,-23.640,-53.350,129.970,-56.1,0.000,0.000,355.940,1402.0
2025-09-08T18:36:15.834684,-23.630,-53.350,129.970,-56.1,0.000,0.000,355.940,1402.0
2025-09-08T18:36:15.863685,-23.640,-53.350,129.970,-56.1,0.000,0.000,355.940,1402.0
2025-09-08T18:36:15.864683,-23.630,-53.350,129.980,-56.1,0.000,0.000,355.940,1402.0
2025-09-08T18:36:15.894688,-23.630,-53.340,129.970,-56.1,0.000,0.000,355.940,1402.0
2025-09-08T18:36:15.895689,-23.630,-53.340,129.970,-56.1,0.000,0.000,355.940,1402.0
2025-09-08T18:36:15.924684,-23.630,-53.340,129.970,-56.2,0.000,0.000,355.940,1402.0
2025-09-08T18:36:15.954684,-23.630,-53.340,129.970,-56.2,0.000,0.000,355.940,1402.0
2025-09-08T18:36:15.985686,-23.630,-53.340,129.970,-56.2,0.000,0.000,355.940,1402.0
2025-09-08T18:36:15.989686,-23.620,-53.340,129.980,-56.2,0.000,0.000,355.940,1402.0
2025-09-08T18:36:16.044689,-23.620,-53.340,129.980,-56.2,0.000,0.000,355.940,1402.0
2025-09-08T18:36:16.045687,-23.630,-53.340,129.970,-56.2,0.000,0.000,355.940,1402.0
2025-09-08T18:36:16.073683,-23.620,-53.330,129.970,-56.2,0.000,0.000,355.940,1402.0
2025-09-08T18:36:16.075685,-23.620,-53.330,129.970,-56.2,0.000,0.000,355.940,1402.0
2025-09-08T18:36:16.104685,-23.630,-53.320,129.970,-56.2,0.000,0.000,355.940,1402.0
2025-09-08T18:36:16.106685,-23.620,-53.330,129.970,-56.2,0.000,0.000,355.940,1402.0
2025-09-08T18:36:16.134688,-23.630,-53.320,129.970,-56.2,0.000,0.000,355.940,1402.0
2025-09-08T18:36:16.164685,-23.620,-53.320,129.970,-56.2,0.000,0.000,355.940,1402.0
2025-09-08T18:36:16.165685,-23.630,-53.320,129.970,-56.2,0.000,0.000,355.940,1402.0
2025-09-08T18:36:16.194686,-23.620,-53.330,129.970,-56.2,0.000,0.000,355.940,1402.0
2025-09-08T18:36:16.195691,-23.620,-53.320,129.970,-56.2,0.000,0.000,355.940,1402.0
2025-09-08T18:36:16.239685,-23.620,-53.330,129.970,-56.2,0.000,0.000,355.940,1402.0
2025-09-08T18:36:16.269684,-23.620,-53.340,129.970,-56.2,0.000,0.000,355.940,1402.0
2025-09-08T18:36:16.271687,-23.620,-53.340,129.970,-56.2,0.000,0.000,355.940,1402.0
2025-09-08T18:36:16.299687,-23.620,-53.340,129.970,-56.2,0.000,0.000,355.940,1402.0
2025-09-08T18:36:16.300687,-23.610,-53.340,129.980,-56.2,0.000,0.000,355.940,1402.0
2025-09-08T18:36:16.329685,-23.610,-53.340,129.980,-56.2,0.000,0.000,355.940,1402.0
2025-09-08T18:36:16.374685,-23.610,-53.340,129.980,-56.2,0.000,0.000,355.940,1402.0
2025-09-08T18:36:16.376685,-23.610,-53.340,129.980,-56.2,0.000,0.000,355.940,1402.0
2025-09-08T18:36:16.403683,-23.610,-53.340,129.980,-56.2,0.000,0.000,355.940,1402.0
2025-09-08T18:36:16.405685,-23.620,-53.350,129.980,-56.2,0.000,0.000,355.940,1402.0
2025-09-08T18:36:16.435686,-23.620,-53.350,129.980,-56.2,0.000,0.000,355.940,1402.0
2025-09-08T18:36:16.479687,-23.610,-53.350,129.980,-56.2,0.000,0.000,355.940,1402.0
2025-09-08T18:36:16.481683,-23.610,-53.350,129.980,-56.2,0.000,0.000,355.940,1402.0
2025-09-08T18:36:16.509694,-23.610,-53.350,129.980,-56.2,0.000,0.000,355.940,1402.0
2025-09-08T18:36:16.511687,-23.610,-53.350,129.980,-56.2,0.000,0.000,355.940,1402.0
2025-09-08T18:36:16.539688,-23.610,-53.350,129.980,-56.2,0.000,0.000,355.940,1402.0
2025-09-08T18:36:16.568683,-23.610,-53.350,129.980,-56.2,0.000,0.000,355.940,1402.0
2025-09-08T18:36:16.570685,-23.610,-53.350,129.980,-56.2,0.000,0.000,355.940,1402.0
2025-09-08T18:36:16.599685,-23.610,-53.350,129.980,-56.2,0.000,0.000,355.940,1402.0
2025-09-08T18:36:16.601688,-23.610,-53.350,129.980,-56.2,0.000,0.000,355.940,1402.0
2025-09-08T18:36:16.628685,-23.610,-53.350,129.980,-56.2,0.000,0.000,355.940,1402.0
2025-09-08T18:36:16.659688,-23.610,-53.350,129.980,-56.2,0.000,0.000,355.940,1402.0
2025-09-08T18:36:16.674689,-23.610,-53.350,129.980,-56.2,0.000,0.000,355.940,1402.0
2025-09-08T18:36:16.719683,-23.610,-53.350,129.980,-56.2,0.000,0.000,355.940,1402.0
2025-09-08T18:36:16.720684,-23.610,-53.350,129.980,-56.2,0.000,0.000,355.940,1402.0
2025-09-08T18:36:16.722685,-23.610,-53.350,129.980,-56.2,0.000,0.000,355.940,1402.0
2025-09-08T18:36:16.779684,-23.610,-53.350,129.980,-56.2,0.000,0.000,355.940,1402.0
2025-09-08T18:36:16.781695,-23.620,-53.350,129.980,-56.2,0.000,0.000,355.940,1402.0
2025-09-08T18:36:16.809687,-23.620,-53.350,129.980,-56.2,0.000,0.000,355.940,1402.0
2025-09-08T18:36:16.811684,-23.620,-53.350,129.980,-56.1,0.000,0.000,355.940,1402.0
2025-09-08T18:36:16.839685,-23.620,-53.350,129.980,-56.1,0.000,0.000,355.940,1402.0
2025-09-08T18:36:16.869690,-23.620,-53.350,129.980,-56.1,0.000,0.000,355.940,1402.0
2025-09-08T18:36:16.872688,-23.620,-53.350,129.980,-56.1,0.000,0.000,355.940,1402.0
2025-09-08T18:36:16.899686,-23.620,-53.350,129.980,-56.1,0.000,0.000,355.940,1402.0
2025-09-08T18:36:16.900687,-23.620,-53.350,129.980,-56.1,0.000,0.000,355.940,1402.0
2025-09-08T18:36:16.944698,-23.620,-53.350,129.980,-56.1,0.000,0.000,355.940,1402.0
2025-09-08T18:36:16.974751,-23.620,-53.350,129.980,-56.1,0.000,0.000,355.940,1402.0
2025-09-08T18:36:16.976688,-23.620,-53.350,129.980,-56.1,0.000,0.000,355.940,1402.0
2025-09-08T18:36:17.004687,-23.620,-53.350,129.980,-56.1,0.000,0.000,355.940,1402.0
2025-09-08T18:36:17.006687,-23.620,-53.340,129.980,-56.1,0.000,0.000,355.940,1402.0
2025-09-08T18:36:17.034685,-23.620,-53.350,129.980,-56.1,0.000,0.000,355.940,1402.0
2025-09-08T18:36:17.049686,-23.620,-53.340,129.980,-56.1,0.000,0.000,355.940,1402.0
2025-09-08T18:36:17.079685,-23.620,-53.350,129.980,-56.1,0.000,0.000,355.940,1402.0
2025-09-08T18:36:17.109690,-23.620,-53.350,129.980,-56.1,0.000,0.000,355.940,1402.0
2025-09-08T18:36:17.112688,-23.620,-53.350,129.980,-56.1,0.000,0.000,355.940,1402.0
2025-09-08T18:36:17.140690,-23.620,-53.350,129.980,-56.1,0.000,0.000,355.940,1402.0
2025-09-08T18:36:17.142689,-23.620,-53.350,129.980,-56.1,0.000,0.000,355.940,1402.0
2025-09-08T18:36:17.185695,-23.620,-53.350,129.980,-56.1,0.000,0.000,355.940,1402.0
2025-09-08T18:36:17.214686,-23.620,-53.350,129.980,-56.1,0.000,0.000,355.940,1402.0
2025-09-08T18:36:17.216685,-23.620,-53.350,129.980,-56.1,0.000,0.000,355.940,1402.0
2025-09-08T18:36:17.244689,-23.620,-53.350,129.980,-56.1,0.000,0.000,355.940,1402.0
2025-09-08T18:36:17.245689,-23.620,-53.350,129.980,-56.2,0.000,0.000,355.940,1402.0
2025-09-08T18:36:17.274684,-23.620,-53.350,129.980,-56.2,0.000,0.000,355.940,1402.0
2025-09-08T18:36:17.304686,-23.620,-53.350,129.980,-56.2,0.000,0.000,355.940,1402.0
2025-09-08T18:36:17.305686,-23.620,-53.350,129.980,-56.2,0.000,0.000,355.940,1402.0
2025-09-08T18:36:17.334692,-23.620,-53.350,129.980,-56.2,0.000,0.000,355.940,1402.0
2025-09-08T18:36:17.337687,-23.620,-53.340,129.980,-56.2,0.000,0.000,355.940,1402.0
2025-09-08T18:36:17.379685,-23.620,-53.340,129.970,-56.2,0.000,0.000,355.940,1402.0
2025-09-08T18:36:17.409686,-23.620,-53.330,129.980,-56.2,0.000,0.000,355.940,1402.0
2025-09-08T18:36:17.411689,-23.620,-53.330,129.980,-56.2,0.000,0.000,355.940,1402.0
2025-09-08T18:36:17.454685,-23.620,-53.330,129.980,-56.2,0.000,0.000,355.940,1402.0
2025-09-08T18:36:17.455686,-23.620,-53.330,129.980,-56.2,0.000,0.000,355.940,1402.0
2025-09-08T18:36:17.484685,-23.620,-53.330,129.980,-56.2,0.000,0.000,355.940,1402.0
2025-09-08T18:36:17.514684,-23.630,-53.320,129.970,-56.2,0.000,0.000,355.940,1402.0
2025-09-08T18:36:17.516684,-23.620,-53.320,129.970,-56.2,0.000,0.000,355.940,1402.0
2025-09-08T18:36:17.544689,-23.630,-53.310,129.970,-56.2,0.000,0.000,355.940,1402.0
2025-09-08T18:36:17.546688,-23.630,-53.310,129.970,-56.2,0.000,0.000,355.940,1402.0
2025-09-08T18:36:17.573684,-23.630,-53.310,129.970,-56.2,0.000,0.000,355.940,1402.0
2025-09-08T18:36:17.604685,-23.630,-53.310,129.970,-56.2,0.000,0.000,355.940,1402.0
2025-09-08T18:36:17.606683,-23.630,-53.310,129.970,-56.2,0.000,0.000,355.940,1402.0
2025-09-08T18:36:17.649686,-23.630,-53.310,129.970,-56.2,0.000,0.000,355.940,1402.0
2025-09-08T18:36:17.651688,-23.630,-53.310,129.970,-56.2,0.000,0.000,355.940,1402.0
2025-09-08T18:36:17.679685,-23.630,-53.310,129.970,-56.2,0.000,0.000,355.940,1402.0
2025-09-08T18:36:17.709685,-23.640,-53.300,129.970,-56.2,0.000,0.000,355.940,1402.0
2025-09-08T18:36:17.712688,-23.640,-53.300,129.970,-56.2,0.000,0.000,355.940,1402.0
2025-09-08T18:36:17.739686,-23.630,-53.300,129.960,-56.2,0.000,0.000,355.940,1402.0
2025-09-08T18:36:17.753720,-23.630,-53.300,129.960,-56.2,0.000,0.000,355.940,1402.0
2025-09-08T18:36:17.785692,-23.630,-53.300,129.960,-56.2,0.000,0.000,355.940,1402.0
2025-09-08T18:36:17.814689,-23.640,-53.290,129.960,-56.2,0.000,0.000,355.940,1402.0
2025-09-08T18:36:17.816683,-23.640,-53.290,129.960,-56.2,0.000,0.000,355.940,1402.0
2025-09-08T18:36:17.844692,-23.640,-53.290,129.960,-56.2,0.000,0.000,355.940,1402.0
2025-09-08T18:36:17.846690,-23.640,-53.290,129.960,-56.2,0.000,0.000,355.940,1402.0
2025-09-08T18:36:17.889685,-23.630,-53.290,129.960,-56.2,0.000,0.000,355.940,1402.0
2025-09-08T18:36:17.919683,-23.630,-53.290,129.960,-56.2,0.000,0.000,355.940,1402.0
2025-09-08T18:36:17.920684,-23.640,-53.280,129.960,-56.2,0.000,0.000,355.940,1402.0
2025-09-08T18:36:17.949687,-23.640,-53.280,129.960,-56.2,0.000,0.000,355.940,1402.0
2025-09-08T18:36:17.951688,-23.640,-53.290,129.960,-56.2,0.000,0.000,355.940,1402.0
2025-09-08T18:36:17.979686,-23.640,-53.290,129.950,-56.2,0.000,0.000,355.940,1402.0
2025-09-08T18:36:17.983687,-23.640,-53.290,129.950,-56.2,0.000,0.000,355.940,1402.0
2025-09-08T18:36:18.009684,-23.640,-53.280,129.960,-56.2,0.000,0.000,355.940,1402.0
2025-09-08T18:36:18.039719,-23.650,-53.280,129.950,-56.2,0.000,0.000,355.940,1402.0
2025-09-08T18:36:18.040685,-23.650,-53.280,129.950,-56.2,0.000,0.000,355.940,1402.0
2025-09-08T18:36:18.068683,-23.650,-53.280,129.950,-56.2,0.000,0.000,355.940,1402.0
2025-09-08T18:36:18.085688,-23.650,-53.280,129.950,-56.2,0.000,0.000,355.940,1402.0
2025-09-08T18:36:18.099687,-23.660,-53.280,129.950,-56.2,0.000,0.000,355.940,1402.0
2025-09-08T18:36:18.159685,-23.660,-53.290,129.950,-56.2,0.000,0.000,355.940,1402.0
2025-09-08T18:36:18.161695,-23.660,-53.280,129.950,-56.2,0.000,0.000,355.940,1402.0
2025-09-08T18:36:18.189689,-23.660,-53.280,129.950,-56.2,0.000,0.000,355.940,1402.0
2025-09-08T18:36:18.193718,-23.650,-53.280,129.950,-56.2,0.000,0.000,355.940,1402.0
2025-09-08T18:36:18.219686,-23.650,-53.290,129.950,-56.2,0.000,0.000,355.940,1402.0
2025-09-08T18:36:18.249685,-23.650,-53.300,129.950,-56.2,0.000,0.000,355.940,1402.0
2025-09-08T18:36:18.251689,-23.640,-53.300,129.950,-56.2,0.000,0.000,355.940,1402.0
2025-09-08T18:36:18.279684,-23.640,-53.300,129.950,-56.2,0.000,0.000,355.940,1402.0
2025-09-08T18:36:18.283687,-23.640,-53.310,129.950,-56.2,0.000,0.000,355.940,1402.0
2025-09-08T18:36:18.309685,-23.640,-53.310,129.950,-56.2,0.000,0.000,355.940,1402.0
2025-09-08T18:36:18.339684,-23.630,-53.320,129.950,-56.2,0.000,0.000,355.940,1402.0
2025-09-08T18:36:18.341686,-23.630,-53.320,129.950,-56.2,0.000,0.000,355.940,1402.0
2025-09-08T18:36:18.385690,-23.630,-53.320,129.950,-56.2,0.000,0.000,355.940,1402.0
2025-09-08T18:36:18.390720,-23.640,-53.330,129.950,-56.2,0.000,0.000,355.940,1402.0
2025-09-08T18:36:18.414689,-23.640,-53.320,129.950,-56.2,0.000,0.000,355.940,1402.0
2025-09-08T18:36:18.459682,-23.650,-53.330,129.950,-56.2,0.000,0.000,355.940,1402.0
2025-09-08T18:36:18.462685,-23.650,-53.330,129.950,-56.2,0.000,0.000,355.940,1402.0
2025-09-08T18:36:18.489685,-23.650,-53.320,129.950,-56.2,0.000,0.000,355.940,1402.0
2025-09-08T18:36:18.493687,-23.650,-53.330,129.950,-56.2,0.000,0.000,355.940,1402.0
2025-09-08T18:36:18.519692,-23.660,-53.330,129.950,-56.2,0.000,0.000,355.940,1402.0
2025-09-08T18:36:18.549688,-23.650,-53.340,129.960,-56.2,0.000,0.000,355.940,1402.0
2025-09-08T18:36:18.552687,-23.660,-53.330,129.950,-56.2,0.000,0.000,355.940,1402.0
2025-09-08T18:36:18.579687,-23.660,-53.340,129.950,-56.2,0.000,0.000,355.940,1402.0
2025-09-08T18:36:18.582687,-23.660,-53.340,129.950,-56.2,0.000,0.000,355.940,1402.0
2025-09-08T18:36:18.624685,-23.660,-53.340,129.960,-56.2,0.000,0.000,355.940,1402.0
2025-09-08T18:36:18.654684,-23.650,-53.340,129.960,-56.2,0.000,0.000,355.940,1402.0
2025-09-08T18:36:18.657684,-23.650,-53.340,129.950,-56.2,0.000,0.000,355.940,1402.0
2025-09-08T18:36:18.684687,-23.650,-53.340,129.950,-56.2,0.000,0.000,355.940,1402.0
2025-09-08T18:36:18.689684,-23.650,-53.340,129.950,-56.2,0.000,0.000,355.940,1402.0
2025-09-08T18:36:18.714686,-23.650,-53.340,129.950,-56.2,0.000,0.000,355.940,1402.0
2025-09-08T18:36:18.744686,-23.650,-53.340,129.950,-56.2,0.000,0.000,355.940,1402.0
2025-09-08T18:36:18.746688,-23.650,-53.340,129.950,-56.2,0.000,0.000,355.940,1402.0
2025-09-08T18:36:18.774684,-23.650,-53.340,129.950,-56.2,0.000,0.000,355.940,1402.0
2025-09-08T18:36:18.791685,-23.650,-53.350,129.960,-56.2,0.000,0.000,355.940,1402.0
2025-09-08T18:36:18.804686,-23.650,-53.350,129.960,-56.2,0.000,0.000,355.940,1402.0
2025-09-08T18:36:18.864684,-23.650,-53.350,129.960,-56.2,0.000,0.000,355.940,1402.0
2025-09-08T18:36:18.866684,-23.650,-53.350,129.960,-56.2,0.000,0.000,355.940,1402.0
2025-09-08T18:36:18.894684,-23.650,-53.350,129.960,-56.2,0.000,0.000,355.940,1402.0
2025-09-08T18:36:18.899688,-23.650,-53.350,129.960,-56.2,0.000,0.000,355.940,1402.0
2025-09-08T18:36:18.924689,-23.650,-53.350,129.960,-56.2,0.000,0.000,355.940,1402.0
2025-09-08T18:36:18.926689,-23.650,-53.350,129.960,-56.2,0.000,0.000,355.940,1402.0
2025-09-08T18:36:18.954685,-23.650,-53.350,129.960,-56.2,0.000,0.000,355.940,1402.0
2025-09-08T18:36:18.985688,-23.650,-53.350,129.960,-56.2,0.000,0.000,355.940,1402.0
2025-09-08T18:36:18.990684,-23.650,-53.350,129.960,-56.2,0.000,0.000,355.940,1402.0
2025-09-08T18:36:19.014699,-23.650,-53.350,129.960,-56.2,0.000,0.000,355.940,1402.0
2025-09-08T18:36:19.044684,-23.650,-53.350,129.960,-56.2,0.000,0.000,355.940,1402.0
2025-09-08T18:36:19.047698,-23.650,-53.350,129.960,-56.2,0.000,0.000,355.940,1402.0
2025-09-08T18:36:19.089736,-23.650,-53.350,129.960,-56.2,0.000,0.000,355.940,1402.0
2025-09-08T18:36:19.092685,-23.650,-53.350,129.960,-56.2,0.000,0.000,355.940,1402.0
2025-09-08T18:36:19.119731,-23.650,-53.350,129.960,-56.2,0.000,0.000,355.940,1402.0
2025-09-08T18:36:19.120685,-23.650,-53.350,129.960,-56.2,0.000,0.000,355.940,1402.0
2025-09-08T18:36:19.149685,-23.650,-53.350,129.960,-56.2,0.000,0.000,355.940,1402.0
2025-09-08T18:36:19.194699,-23.650,-53.350,129.960,-56.2,0.000,0.000,355.940,1402.0
2025-09-08T18:36:19.199689,-23.650,-53.350,129.960,-56.2,0.000,0.000,355.940,1402.0
2025-09-08T18:36:19.224687,-23.650,-53.350,129.960,-56.2,0.000,0.000,355.940,1402.0
2025-09-08T18:36:19.226688,-23.650,-53.350,129.960,-56.2,0.000,0.000,355.940,1402.0
2025-09-08T18:36:19.253685,-23.650,-53.350,129.960,-56.2,0.000,0.000,355.940,1402.0
2025-09-08T18:36:19.284684,-23.650,-53.350,129.960,-56.2,0.000,0.000,355.940,1402.0
2025-09-08T18:36:19.289689,-23.650,-53.350,129.960,-56.2,0.000,0.000,355.940,1402.0
2025-09-08T18:36:19.329683,-23.650,-53.350,129.960,-56.2,0.000,0.000,355.940,1402.0
2025-09-08T18:36:19.330684,-23.650,-53.350,129.960,-56.2,0.000,0.000,355.940,1402.0
2025-09-08T18:36:19.358684,-23.650,-53.350,129.960,-56.2,0.000,0.000,355.940,1402.0
2025-09-08T18:36:19.389683,-23.650,-53.350,129.960,-56.2,0.000,0.000,355.940,1402.0
2025-09-08T18:36:19.392684,-23.650,-53.350,129.960,-56.2,0.000,0.000,355.940,1402.0
2025-09-08T18:36:19.419684,-23.650,-53.350,129.960,-56.2,0.000,0.000,355.940,1402.0
2025-09-08T18:36:19.421689,-23.650,-53.350,129.960,-56.2,0.000,0.000,355.940,1402.0
2025-09-08T18:36:19.449686,-23.650,-53.350,129.960,-56.2,0.000,0.000,355.940,1402.0
2025-09-08T18:36:19.479683,-23.650,-53.350,129.960,-56.2,0.000,0.000,355.940,1402.0
2025-09-08T18:36:19.496688,-23.650,-53.350,129.960,-56.2,0.000,0.000,355.940,1402.0
2025-09-08T18:36:19.524685,-23.650,-53.350,129.960,-56.2,0.000,0.000,355.940,1402.0
2025-09-08T18:36:19.525687,-23.650,-53.350,129.960,-56.2,0.000,0.000,355.940,1402.0
2025-09-08T18:36:19.569698,-23.650,-53.350,129.960,-56.2,0.000,0.000,355.940,1402.0
2025-09-08T18:36:19.599686,-23.650,-53.350,129.960,-56.2,0.000,0.000,355.940,1402.0
2025-09-08T18:36:19.602688,-23.650,-53.350,129.960,-56.1,0.000,0.000,355.940,1402.0
2025-09-08T18:36:19.629688,-23.650,-53.350,129.960,-56.1,0.000,0.000,355.940,1402.0
2025-09-08T18:36:19.630688,-23.650,-53.350,129.960,-56.1,0.000,0.000,355.940,1402.0
2025-09-08T18:36:19.659685,-23.650,-53.350,129.960,-56.2,0.000,0.000,355.940,1402.0
2025-09-08T18:36:19.689686,-23.650,-53.350,129.960,-56.2,0.000,0.000,355.940,1402.0
2025-09-08T18:36:19.693687,-23.650,-53.350,129.960,-56.2,0.000,0.000,355.940,1402.0
2025-09-08T18:36:19.719683,-23.650,-53.350,129.960,-56.2,0.000,0.000,355.940,1402.0
2025-09-08T18:36:19.720683,-23.650,-53.350,129.960,-56.2,0.000,0.000,355.940,1402.0
2025-09-08T18:36:19.749686,-23.650,-53.350,129.960,-56.2,0.000,0.000,355.940,1402.0
2025-09-08T18:36:19.794693,-23.650,-53.350,129.950,-56.2,0.000,0.000,355.940,1402.0
2025-09-08T18:36:19.798688,-23.650,-53.350,129.950,-56.2,0.000,0.000,355.940,1402.0
2025-09-08T18:36:19.824685,-23.650,-53.350,129.950,-56.2,0.000,0.000,355.940,1402.0
2025-09-08T18:36:19.825686,-23.650,-53.350,129.960,-56.2,0.000,0.000,355.940,1402.0
2025-09-08T18:36:19.854682,-23.640,-53.360,129.950,-56.2,0.000,0.000,355.940,1402.0
2025-09-08T18:36:19.899687,-23.640,-53.360,129.950,-56.2,0.000,0.000,355.940,1402.0
2025-09-08T18:36:19.903687,-23.650,-53.350,129.950,-56.2,0.000,0.000,355.940,1402.0
2025-09-08T18:36:19.929689,-23.640,-53.350,129.950,-56.2,0.000,0.000,355.940,1402.0
2025-09-08T18:36:19.931685,-23.640,-53.350,129.950,-56.2,0.000,0.000,355.940,1402.0
2025-09-08T18:36:19.958683,-23.650,-53.340,129.950,-56.2,0.000,0.000,355.940,1402.0
2025-09-08T18:36:19.989685,-23.650,-53.340,129.950,-56.2,0.000,0.000,355.940,1402.0
2025-09-08T18:36:19.993688,-23.650,-53.340,129.950,-56.2,0.000,0.000,355.940,1402.0
2025-09-08T18:36:20.034686,-23.650,-53.330,129.950,-56.2,0.000,0.000,355.940,1402.0
2025-09-08T18:36:20.036690,-23.650,-53.330,129.950,-56.2,0.000,0.000,355.940,1402.0
2025-09-08T18:36:20.064686,-23.650,-53.340,129.960,-56.2,0.000,0.000,355.940,1402.0
2025-09-08T18:36:20.067688,-23.650,-53.340,129.960,-56.2,0.000,0.000,355.940,1402.0
2025-09-08T18:36:20.094684,-23.650,-53.340,129.960,-56.2,0.000,0.000,355.940,1402.0
2025-09-08T18:36:20.124685,-23.660,-53.340,129.960,-56.2,0.000,0.000,355.940,1402.0
2025-09-08T18:36:20.126683,-23.650,-53.340,129.960,-56.2,0.000,0.000,355.940,1402.0
2025-09-08T18:36:20.153683,-23.650,-53.340,129.960,-56.2,0.000,0.000,355.940,1402.0
2025-09-08T18:36:20.155686,-23.660,-53.340,129.960,-56.2,0.000,0.000,355.940,1402.0
2025-09-08T18:36:20.184685,-23.650,-53.340,129.960,-56.2,0.000,0.000,355.940,1402.0
2025-09-08T18:36:20.214684,-23.650,-53.330,129.960,-56.2,0.000,0.000,355.940,1402.0
2025-09-08T18:36:20.229686,-23.650,-53.330,129.960,-56.2,0.000,0.000,355.940,1402.0
2025-09-08T18:36:20.274684,-23.650,-53.330,129.960,-56.2,0.000,0.000,355.940,1402.0
2025-09-08T18:36:20.276687,-23.650,-53.330,129.960,-56.2,0.000,0.000,355.940,1402.0
2025-09-08T18:36:20.304685,-23.650,-53.330,129.960,-56.2,0.000,0.000,355.940,1402.0
2025-09-08T18:36:20.334686,-23.650,-53.330,129.960,-56.2,0.000,0.000,355.940,1402.0
2025-09-08T18:36:20.336685,-23.640,-53.340,129.960,-56.2,0.000,0.000,355.940,1402.0
2025-09-08T18:36:20.370688,-23.640,-53.340,129.960,-56.2,0.000,0.000,355.940,1402.0
2025-09-08T18:36:20.373687,-23.640,-53.340,129.960,-56.2,0.000,0.000,355.940,1402.0
2025-09-08T18:36:20.394685,-23.630,-53.340,129.960,-56.2,0.000,0.000,355.940,1402.0
2025-09-08T18:36:20.424686,-23.630,-53.340,129.960,-56.2,0.000,0.000,355.940,1402.0
2025-09-08T18:36:20.426687,-23.630,-53.340,129.970,-56.2,0.000,0.000,355.940,1402.0
2025-09-08T18:36:20.456686,-23.630,-53.340,129.970,-56.2,0.000,0.000,355.940,1402.0
2025-09-08T18:36:20.462688,-23.630,-53.340,129.970,-56.2,0.000,0.000,355.940,1402.0
2025-09-08T18:36:20.499685,-23.630,-53.340,129.970,-56.2,0.000,0.000,355.940,1402.0
2025-09-08T18:36:20.532684,-23.620,-53.340,129.970,-56.2,0.000,0.000,355.940,1402.0
2025-09-08T18:36:20.534685,-23.620,-53.340,129.970,-56.2,0.000,0.000,355.940,1402.0
2025-09-08T18:36:20.559687,-23.620,-53.340,129.970,-56.2,0.000,0.000,355.940,1402.0
2025-09-08T18:36:20.574688,-23.620,-53.340,129.970,-56.2,0.000,0.000,355.940,1402.0
2025-09-08T18:36:20.603685,-23.620,-53.350,129.970,-56.2,0.000,0.000,355.940,1402.0
2025-09-08T18:36:20.634685,-23.620,-53.340,129.970,-56.2,0.000,0.000,355.940,1402.0
2025-09-08T18:36:20.637687,-23.620,-53.340,129.970,-56.2,0.000,0.000,355.940,1402.0
2025-09-08T18:36:20.665685,-23.620,-53.350,129.980,-56.2,0.000,0.000,355.940,1402.0
2025-09-08T18:36:20.667686,-23.620,-53.350,129.970,-56.2,0.000,0.000,355.940,1402.0
2025-09-08T18:36:20.695687,-23.610,-53.360,129.980,-56.2,0.000,0.000,355.940,1402.0
2025-09-08T18:36:20.725683,-23.610,-53.360,129.980,-56.2,0.000,0.000,355.940,1402.0
2025-09-08T18:36:20.727684,-23.610,-53.360,129.980,-56.2,0.000,0.000,355.940,1402.0
2025-09-08T18:36:20.770685,-23.610,-53.360,129.980,-56.2,0.000,0.000,355.940,1402.0
2025-09-08T18:36:20.771685,-23.610,-53.360,129.980,-56.2,0.000,0.000,355.940,1402.0
2025-09-08T18:36:20.799683,-23.610,-53.360,129.980,-56.2,0.000,0.000,355.940,1402.0
2025-09-08T18:36:20.830685,-23.610,-53.360,129.980,-56.2,0.000,0.000,355.940,1402.0
2025-09-08T18:36:20.832686,-23.610,-53.360,129.980,-56.2,0.000,0.000,355.940,1402.0
2025-09-08T18:36:20.860685,-23.610,-53.360,129.980,-56.2,0.000,0.000,355.940,1402.0
2025-09-08T18:36:20.875685,-23.610,-53.360,129.980,-56.2,0.000,0.000,355.940,1402.0
2025-09-08T18:36:20.891690,-23.610,-53.360,129.980,-56.2,0.000,0.000,355.940,1402.0
2025-09-08T18:36:20.936685,-23.610,-53.360,129.980,-56.2,0.000,0.000,355.940,1402.0
2025-09-08T18:36:20.938719,-23.610,-53.360,129.980,-56.2,0.000,0.000,355.940,1402.0
2025-09-08T18:36:20.965686,-23.610,-53.360,129.980,-56.2,0.000,0.000,355.940,1402.0
2025-09-08T18:36:20.967685,-23.610,-53.360,129.980,-56.2,0.000,0.000,355.940,1402.0
2025-09-08T18:36:21.010736,-23.610,-53.360,129.980,-56.2,0.000,0.000,355.940,1402.0
2025-09-08T18:36:21.012685,-23.610,-53.360,129.980,-56.2,0.000,0.000,355.940,1402.0
2025-09-08T18:36:21.040685,-23.610,-53.360,129.980,-56.2,0.000,0.000,355.940,1402.0
2025-09-08T18:36:21.070685,-23.610,-53.360,129.980,-56.2,0.000,0.000,355.940,1402.0
2025-09-08T18:36:21.072684,-23.610,-53.360,129.980,-56.1,0.000,0.000,355.940,1402.0
2025-09-08T18:36:21.100687,-23.610,-53.350,129.980,-56.1,0.000,0.000,355.940,1402.0
2025-09-08T18:36:21.130684,-23.620,-53.350,129.980,-56.1,0.000,0.000,355.940,1402.0
2025-09-08T18:36:21.132684,-23.620,-53.340,129.970,-56.1,0.000,0.000,355.940,1402.0
2025-09-08T18:36:21.160687,-23.630,-53.340,129.970,-56.1,0.000,0.000,355.940,1402.0
2025-09-08T18:36:21.162686,-23.630,-53.340,129.970,-56.1,0.000,0.000,355.940,1402.0
2025-09-08T18:36:21.190684,-23.630,-53.340,129.970,-56.1,0.000,0.000,355.940,1402.0
2025-09-08T18:36:21.191687,-23.630,-53.340,129.980,-56.1,0.000,0.000,355.940,1402.0
2025-09-08T18:36:21.235685,-23.630,-53.340,129.970,-56.1,0.000,0.000,355.940,1402.0
2025-09-08T18:36:21.280685,-23.630,-53.340,129.970,-56.1,0.000,0.000,355.940,1402.0
2025-09-08T18:36:21.282685,-23.640,-53.340,129.970,-56.1,0.000,0.000,355.940,1402.0
2025-09-08T18:36:21.287686,-23.640,-53.340,129.970,-56.2,0.000,0.000,355.940,1402.0
2025-09-08T18:36:21.310683,-23.640,-53.340,129.970,-56.2,0.000,0.000,355.940,1402.0
2025-09-08T18:36:21.340687,-23.640,-53.340,129.970,-56.2,0.000,0.000,355.940,1402.0
2025-09-08T18:36:21.371684,-23.650,-53.340,129.980,-56.2,0.000,0.000,355.940,1402.0
2025-09-08T18:36:21.373686,-23.650,-53.340,129.980,-56.2,0.000,0.000,355.940,1402.0
2025-09-08T18:36:21.401686,-23.650,-53.330,129.970,-56.2,0.000,0.000,355.940,1402.0
2025-09-08T18:36:21.403686,-23.650,-53.330,129.970,-56.2,0.000,0.000,355.940,1402.0
2025-09-08T18:36:21.431685,-23.650,-53.330,129.970,-56.2,0.000,0.000,355.940,1402.0
2025-09-08T18:36:21.462684,-23.650,-53.330,129.970,-56.2,0.000,0.000,355.940,1402.0
2025-09-08T18:36:21.465693,-23.650,-53.330,129.970,-56.2,0.000,0.000,355.940,1402.0
2025-09-08T18:36:21.506685,-23.650,-53.330,129.970,-56.2,0.000,0.000,355.940,1402.0
2025-09-08T18:36:21.507683,-23.650,-53.330,129.970,-56.2,0.000,0.000,355.940,1402.0
2025-09-08T18:36:21.536683,-23.650,-53.330,129.970,-56.2,0.000,0.000,355.940,1402.0
2025-09-08T18:36:21.566718,-23.650,-53.330,129.970,-56.2,0.000,0.000,355.940,1402.0
2025-09-08T18:36:21.567685,-23.650,-53.330,129.970,-56.2,0.000,0.000,355.940,1402.0
2025-09-08T18:36:21.596690,-23.650,-53.330,129.970,-56.2,0.000,0.000,355.940,1402.0
2025-09-08T18:36:21.611686,-23.650,-53.330,129.970,-56.2,0.000,0.000,355.940,1402.0
2025-09-08T18:36:21.626686,-23.650,-53.330,129.970,-56.2,0.000,0.000,355.940,1402.0
2025-09-08T18:36:21.671686,-23.650,-53.330,129.970,-56.2,0.000,0.000,355.940,1402.0
2025-09-08T18:36:21.673687,-23.660,-53.330,129.970,-56.2,0.000,0.000,355.940,1402.0
2025-09-08T18:36:21.701686,-23.660,-53.330,129.970,-56.2,0.000,0.000,355.940,1402.0
2025-09-08T18:36:21.703695,-23.660,-53.330,129.970,-56.2,0.000,0.000,355.940,1402.0
2025-09-08T18:36:21.746686,-23.660,-53.330,129.970,-56.2,0.000,0.000,355.940,1402.0
2025-09-08T18:36:21.776720,-23.660,-53.330,129.970,-56.2,0.000,0.000,355.940,1402.0
2025-09-08T18:36:21.778737,-23.660,-53.330,129.970,-56.2,0.000,0.000,355.940,1402.0
2025-09-08T18:36:21.806724,-23.660,-53.320,129.970,-56.2,0.000,0.000,355.940,1402.0
2025-09-08T18:36:21.808687,-23.660,-53.320,129.970,-56.2,0.000,0.000,355.940,1402.0
2025-09-08T18:36:21.836688,-23.660,-53.320,129.970,-56.2,0.000,0.000,355.940,1402.0
2025-09-08T18:36:21.866686,-23.660,-53.310,129.960,-56.2,0.000,0.000,355.940,1402.0
2025-09-08T18:36:21.868718,-23.660,-53.310,129.960,-56.2,0.000,0.000,355.940,1402.0
2025-09-08T18:36:21.896685,-23.660,-53.310,129.960,-56.2,0.000,0.000,355.940,1402.0
2025-09-08T18:36:21.898690,-23.660,-53.310,129.960,-56.2,0.000,0.000,355.940,1402.0
2025-09-08T18:36:21.925682,-23.660,-53.310,129.960,-56.2,0.000,0.000,355.940,1402.0
2025-09-08T18:36:21.985683,-23.650,-53.320,129.970,-56.2,0.000,0.000,355.940,1402.0
2025-09-08T18:36:21.987684,-23.650,-53.320,129.970,-56.2,0.000,0.000,355.940,1402.0
2025-09-08T18:36:22.016683,-23.650,-53.320,129.970,-56.2,0.000,0.000,355.940,1402.0
2025-09-08T18:36:22.017683,-23.650,-53.320,129.970,-56.2,0.000,0.000,355.940,1402.0
2025-09-08T18:36:22.046684,-23.650,-53.320,129.970,-56.2,0.000,0.000,355.940,1402.0
2025-09-08T18:36:22.076684,-23.650,-53.330,129.970,-56.2,0.000,0.000,355.940,1402.0
2025-09-08T18:36:22.078686,-23.650,-53.330,129.970,-56.2,0.000,0.000,355.940,1402.0
2025-09-08T18:36:22.107685,-23.640,-53.320,129.970,-56.2,0.000,0.000,355.940,1402.0
2025-09-08T18:36:22.109684,-23.640,-53.320,129.970,-56.2,0.000,0.000,355.940,1402.0
2025-09-08T18:36:22.136731,-23.640,-53.310,129.960,-56.2,0.000,0.000,355.940,1402.0
2025-09-08T18:36:22.137687,-23.630,-53.310,129.960,-56.2,0.000,0.000,355.940,1402.0
2025-09-08T18:36:22.166685,-23.630,-53.310,129.960,-56.2,0.000,0.000,355.940,1402.0
2025-09-08T18:36:22.211686,-23.630,-53.310,129.960,-56.2,0.000,0.000,355.940,1402.0
2025-09-08T18:36:22.213685,-23.630,-53.300,129.960,-56.2,0.000,0.000,355.940,1402.0
2025-09-08T18:36:22.241688,-23.630,-53.300,129.960,-56.2,0.000,0.000,355.940,1402.0
2025-09-08T18:36:22.271684,-23.630,-53.300,129.950,-56.2,0.000,0.000,355.940,1402.0
2025-09-08T18:36:22.285683,-23.630,-53.300,129.950,-56.2,0.000,0.000,355.940,1402.0
2025-09-08T18:36:22.301691,-23.630,-53.300,129.950,-56.2,0.000,0.000,355.940,1402.0
2025-09-08T18:36:22.315686,-23.640,-53.300,129.960,-56.2,0.000,0.000,355.940,1402.0
2025-09-08T18:36:22.346686,-23.640,-53.300,129.960,-56.2,0.000,0.000,355.940,1402.0
2025-09-08T18:36:22.348685,-23.640,-53.300,129.960,-56.2,0.000,0.000,355.940,1402.0
2025-09-08T18:36:22.376685,-23.640,-53.300,129.970,-56.2,0.000,0.000,355.940,1402.0
2025-09-08T18:36:22.406728,-23.640,-53.300,129.970,-56.2,0.000,0.000,355.940,1402.0
2025-09-08T18:36:22.408685,-23.650,-53.290,129.960,-56.2,0.000,0.000,355.940,1402.0
2025-09-08T18:36:22.450682,-23.650,-53.290,129.960,-56.2,0.000,0.000,355.940,1402.0
2025-09-08T18:36:22.452685,-23.650,-53.290,129.960,-56.2,0.000,0.000,355.940,1402.0
2025-09-08T18:36:22.481686,-23.650,-53.300,129.960,-56.2,0.000,0.000,355.940,1402.0
2025-09-08T18:36:22.511691,-23.650,-53.300,129.960,-56.2,0.000,0.000,355.940,1402.0
2025-09-08T18:36:22.513689,-23.650,-53.290,129.960,-56.2,0.000,0.000,355.940,1402.0
2025-09-08T18:36:22.541744,-23.650,-53.300,129.960,-56.2,0.000,0.000,355.940,1402.0
2025-09-08T18:36:22.542685,-23.650,-53.290,129.960,-56.2,0.000,0.000,355.940,1402.0
2025-09-08T18:36:22.570683,-23.650,-53.290,129.960,-56.2,0.000,0.000,355.940,1402.0
2025-09-08T18:36:22.601688,-23.660,-53.300,129.960,-56.2,0.000,0.000,355.940,1402.0
2025-09-08T18:36:22.603695,-23.660,-53.300,129.960,-56.2,0.000,0.000,355.940,1402.0
2025-09-08T18:36:22.631685,-23.660,-53.300,129.960,-56.2,0.000,0.000,355.940,1402.0
2025-09-08T18:36:22.633685,-23.660,-53.310,129.970,-56.2,0.000,0.000,355.940,1402.0
2025-09-08T18:36:22.690719,-23.660,-53.320,129.970,-56.2,0.000,0.000,355.940,1402.0
2025-09-08T18:36:22.720682,-23.660,-53.330,129.970,-56.2,0.000,0.000,355.940,1402.0
2025-09-08T18:36:22.722683,-23.660,-53.340,129.970,-56.2,0.000,0.000,355.940,1402.0
2025-09-08T18:36:22.751684,-23.660,-53.340,129.970,-56.2,0.000,0.000,355.940,1402.0
2025-09-08T18:36:22.753684,-23.660,-53.350,129.980,-56.3,0.000,0.000,355.940,1402.0
2025-09-08T18:36:22.781685,-23.660,-53.350,129.980,-56.3,0.000,0.000,355.940,1402.0
2025-09-08T18:36:22.811684,-23.660,-53.350,129.980,-56.3,0.000,0.000,355.940,1402.0
