Timestamp,Roll_Angle,Pitch_Angle,Yaw_Angle,Altitude,Roll_Setpoint,Pitch_Setpoint,Yaw_Setpoint,Altitude_Setpoint
2025-09-04T16:22:46.743558,-3.340,-3.450,351.790,-86.0,0.200,-0.300,180.360,1000.0
2025-09-04T16:22:46.744565,-3.340,-3.460,351.790,-86.0,0.200,-0.300,180.360,1000.0
2025-09-04T16:22:46.852221,-3.340,-3.460,351.790,-86.0,0.200,-0.300,180.360,1000.0
2025-09-04T16:22:46.853221,-3.340,-3.460,351.790,-86.0,0.200,-0.300,180.360,1000.0
2025-09-04T16:22:46.855222,-3.340,-3.460,351.790,-86.0,0.200,-0.300,180.360,1000.0
2025-09-04T16:22:46.856222,-3.330,-3.450,351.790,-86.0,0.200,-0.300,180.360,1000.0
2025-09-04T16:22:46.857222,-3.330,-3.450,351.790,-86.0,0.200,-0.300,180.360,1000.0
2025-09-04T16:22:46.962329,-3.330,-3.450,351.790,-86.0,0.200,-0.300,180.360,1000.0
2025-09-04T16:22:46.964327,-3.330,-3.450,351.790,-86.0,0.200,-0.300,180.360,1000.0
2025-09-04T16:22:46.965328,-3.330,-3.450,351.790,-86.0,0.200,-0.300,180.360,1000.0
2025-09-04T16:22:46.966330,-3.320,-3.440,351.790,-86.0,0.200,-0.300,180.360,1000.0
2025-09-04T16:22:46.968330,-3.320,-3.440,351.790,-86.0,0.200,-0.300,180.360,1000.0
2025-09-04T16:22:47.086331,-3.320,-3.440,351.790,-86.0,0.200,-0.300,180.360,1000.0
2025-09-04T16:22:47.088335,-3.320,-3.440,351.790,-86.0,0.200,-0.300,180.360,1000.0
2025-09-04T16:22:47.089328,-3.330,-3.430,351.790,-86.0,0.200,-0.300,180.360,1000.0
2025-09-04T16:22:47.090329,-3.330,-3.430,351.790,-86.0,0.200,-0.300,180.360,1000.0
2025-09-04T16:22:47.091329,-3.330,-3.430,351.790,-86.0,0.200,-0.300,180.360,1000.0
2025-09-04T16:22:47.210330,-3.330,-3.430,351.790,-86.0,0.200,-0.300,180.360,1000.0
2025-09-04T16:22:47.211328,-3.330,-3.430,351.790,-86.0,0.200,-0.300,180.360,1000.0
2025-09-04T16:22:47.212327,-3.340,-3.420,351.790,-86.0,0.200,-0.300,180.360,1000.0
2025-09-04T16:22:47.213329,-3.340,-3.420,351.790,-86.0,0.200,-0.300,180.360,1000.0
2025-09-04T16:22:47.214327,-3.340,-3.420,351.790,-86.0,0.200,-0.300,180.360,1000.0
2025-09-04T16:22:47.333329,-3.340,-3.420,351.790,-86.0,0.200,-0.300,180.360,1000.0
2025-09-04T16:22:47.336330,-3.340,-3.420,351.790,-86.0,0.200,-0.300,180.360,1000.0
2025-09-04T16:22:47.340329,-3.340,-3.420,351.790,-86.0,0.200,-0.300,180.360,1000.0
2025-09-04T16:22:47.341327,-3.340,-3.420,351.790,-86.0,0.200,-0.300,180.360,1000.0
2025-09-04T16:22:47.343329,-3.340,-3.420,351.790,-86.0,0.200,-0.300,180.360,1000.0
2025-09-04T16:22:47.456332,-3.340,-3.420,351.790,-86.0,0.200,-0.300,180.360,1000.0
2025-09-04T16:22:47.457322,-3.340,-3.420,351.790,-86.0,0.200,-0.300,180.360,1000.0
2025-09-04T16:22:47.458327,-3.340,-3.420,351.790,-86.0,0.200,-0.300,180.360,1000.0
2025-09-04T16:22:47.459288,-3.340,-3.420,351.790,-86.0,0.200,-0.300,180.360,1000.0
2025-09-04T16:22:47.461291,-3.340,-3.420,351.790,-86.0,0.200,-0.300,180.360,1000.0
2025-09-04T16:22:47.579329,-3.340,-3.420,351.790,-86.0,0.200,-0.300,180.360,1000.0
2025-09-04T16:22:47.580331,-3.340,-3.420,351.790,-86.0,0.200,-0.300,180.360,1000.0
2025-09-04T16:22:47.582341,-3.340,-3.420,351.790,-86.0,0.200,-0.300,180.360,1000.0
2025-09-04T16:22:47.583357,-3.340,-3.420,351.790,-86.0,0.200,-0.300,180.360,1000.0
2025-09-04T16:22:47.584330,-3.330,-3.420,351.790,-86.0,0.200,-0.300,180.360,1000.0
2025-09-04T16:22:47.702903,-3.330,-3.420,351.790,-86.0,0.200,-0.300,180.360,1000.0
2025-09-04T16:22:47.704902,-3.330,-3.420,351.790,-86.0,0.200,-0.300,180.360,1000.0
2025-09-04T16:22:47.705902,-3.320,-3.420,351.790,-86.0,0.200,-0.300,180.360,1000.0
2025-09-04T16:22:47.706901,-3.320,-3.420,351.790,-86.0,0.200,-0.300,180.360,1000.0
2025-09-04T16:22:47.707901,-3.320,-3.420,351.790,-86.0,0.200,-0.300,180.360,1000.0
2025-09-04T16:22:47.826044,-3.320,-3.420,351.790,-86.0,0.200,-0.300,180.360,1000.0
2025-09-04T16:22:47.829039,-3.320,-3.420,351.790,-86.0,0.200,-0.300,180.360,1000.0
2025-09-04T16:22:47.831039,-3.320,-3.410,351.790,-86.0,0.200,-0.300,180.360,1000.0
2025-09-04T16:22:47.832039,-3.320,-3.410,351.790,-86.0,0.200,-0.300,180.360,1000.0
2025-09-04T16:22:47.833039,-3.320,-3.410,351.790,-86.0,0.200,-0.300,180.360,1000.0
2025-09-04T16:22:47.950349,-3.320,-3.410,351.790,-86.0,0.200,-0.300,180.360,1000.0
2025-09-04T16:22:47.952348,-3.320,-3.410,351.790,-86.0,0.200,-0.300,180.360,1000.0
2025-09-04T16:22:47.953350,-3.320,-3.410,351.790,-86.0,0.200,-0.300,180.360,1000.0
2025-09-04T16:22:47.955349,-3.320,-3.410,351.790,-86.0,0.200,-0.300,180.360,1000.0
2025-09-04T16:22:47.956348,-3.320,-3.410,351.790,-86.0,0.200,-0.300,180.360,1000.0
2025-09-04T16:22:48.074349,-3.310,-3.410,351.790,-86.0,0.200,-0.300,180.360,1000.0
2025-09-04T16:22:48.076347,-3.310,-3.410,351.790,-86.0,0.200,-0.300,180.360,1000.0
2025-09-04T16:22:48.077348,-3.310,-3.410,351.790,-86.0,0.200,-0.300,180.360,1000.0
2025-09-04T16:22:48.078347,-3.310,-3.410,351.790,-86.0,0.200,-0.300,180.360,1000.0
2025-09-04T16:22:48.079347,-3.310,-3.410,351.790,-86.0,0.200,-0.300,180.360,1000.0
2025-09-04T16:22:48.198350,-3.310,-3.410,351.790,-86.0,0.200,-0.300,180.360,1000.0
2025-09-04T16:22:48.200347,-3.310,-3.410,351.790,-86.0,0.200,-0.300,180.360,1000.0
2025-09-04T16:22:48.205349,-3.310,-3.410,351.790,-86.0,0.200,-0.300,180.360,1000.0
2025-09-04T16:22:48.207348,-3.310,-3.410,351.790,-85.9,0.200,-0.300,180.360,1000.0
2025-09-04T16:22:48.209348,-3.310,-3.410,351.790,-85.9,0.200,-0.300,180.360,1000.0
2025-09-04T16:22:48.321345,-3.310,-3.410,351.790,-85.9,0.200,-0.300,180.360,1000.0
2025-09-04T16:22:48.322347,-3.310,-3.410,351.790,-85.9,0.200,-0.300,180.360,1000.0
2025-09-04T16:22:48.324348,-3.310,-3.410,351.790,-85.9,0.200,-0.300,180.360,1000.0
2025-09-04T16:22:48.325348,-3.310,-3.410,351.790,-85.9,0.200,-0.300,180.360,1000.0
2025-09-04T16:22:48.326346,-3.310,-3.410,351.790,-85.9,0.200,-0.300,180.360,1000.0
2025-09-04T16:22:48.430347,-3.310,-3.410,351.790,-85.9,0.200,-0.300,180.360,1000.0
2025-09-04T16:22:48.433347,-3.310,-3.410,351.790,-86.0,0.200,-0.300,180.360,1000.0
2025-09-04T16:22:48.434347,-3.310,-3.410,351.790,-86.0,0.200,-0.300,180.360,1000.0
2025-09-04T16:22:48.436347,-3.310,-3.410,351.790,-86.0,0.200,-0.300,180.360,1000.0
2025-09-04T16:22:48.438348,-3.310,-3.410,351.790,-86.0,0.200,-0.300,180.360,1000.0
2025-09-04T16:22:48.554873,-3.310,-3.410,351.790,-85.9,0.200,-0.300,180.360,1000.0
2025-09-04T16:22:48.556873,-3.310,-3.410,351.790,-85.9,0.200,-0.300,180.360,1000.0
2025-09-04T16:22:48.557881,-3.310,-3.410,351.790,-85.9,0.200,-0.300,180.360,1000.0
2025-09-04T16:22:48.558872,-3.310,-3.410,351.790,-85.9,0.200,-0.300,180.360,1000.0
2025-09-04T16:22:48.560872,-3.310,-3.410,351.790,-85.9,0.200,-0.300,180.360,1000.0
2025-09-04T16:22:48.678955,-3.300,-3.410,351.790,-85.9,0.200,-0.300,180.360,1000.0
2025-09-04T16:22:48.680949,-3.300,-3.410,351.790,-85.9,0.200,-0.300,180.360,1000.0
2025-09-04T16:22:48.681947,-3.310,-3.410,351.790,-85.9,0.200,-0.300,180.360,1000.0
2025-09-04T16:22:48.683947,-3.310,-3.410,351.790,-85.9,0.200,-0.300,180.360,1000.0
2025-09-04T16:22:48.685946,-3.320,-3.410,351.790,-85.9,0.200,-0.300,180.360,1000.0
2025-09-04T16:22:48.803446,-3.320,-3.410,351.790,-85.9,0.200,-0.300,180.360,1000.0
2025-09-04T16:22:48.805440,-3.320,-3.410,351.790,-85.9,0.200,-0.300,180.360,1000.0
2025-09-04T16:22:48.806440,-3.320,-3.410,351.790,-85.9,0.200,-0.300,180.360,1000.0
2025-09-04T16:22:48.807440,-3.320,-3.410,351.790,-85.9,0.200,-0.300,180.360,1000.0
2025-09-04T16:22:48.808447,-3.320,-3.410,351.790,-86.0,0.200,-0.300,180.360,1000.0
2025-09-04T16:22:48.925699,-3.320,-3.410,351.790,-86.0,0.200,-0.300,180.360,1000.0
2025-09-04T16:22:48.927699,-3.320,-3.410,351.790,-86.0,0.200,-0.300,180.360,1000.0
2025-09-04T16:22:48.929698,-3.320,-3.410,351.790,-86.0,0.200,-0.300,180.360,1000.0
2025-09-04T16:22:48.930699,-3.320,-3.410,351.790,-86.0,0.200,-0.300,180.360,1000.0
2025-09-04T16:22:48.932698,-3.320,-3.410,351.790,-86.0,0.200,-0.300,180.360,1000.0
2025-09-04T16:22:49.036754,-3.320,-3.410,351.790,-86.0,0.200,-0.300,180.360,1000.0
2025-09-04T16:22:49.038787,-3.330,-3.410,351.790,-86.0,0.200,-0.300,180.360,1000.0
2025-09-04T16:22:49.039753,-3.330,-3.410,351.790,-85.9,0.200,-0.300,180.360,1000.0
2025-09-04T16:22:49.040753,-3.330,-3.410,351.790,-85.9,0.200,-0.300,180.360,1000.0
2025-09-04T16:22:49.041753,-3.330,-3.410,351.790,-85.9,0.200,-0.300,180.360,1000.0
2025-09-04T16:22:49.146752,-3.340,-3.410,351.790,-85.9,0.200,-0.300,180.360,1000.0
2025-09-04T16:22:49.148751,-3.340,-3.410,351.790,-85.9,0.200,-0.300,180.360,1000.0
2025-09-04T16:22:49.149752,-3.340,-3.410,351.790,-85.9,0.200,-0.300,180.360,1000.0
2025-09-04T16:22:49.150751,-3.340,-3.410,351.790,-85.9,0.200,-0.300,180.360,1000.0
2025-09-04T16:22:49.152971,-3.340,-3.420,351.790,-85.9,0.200,-0.300,180.360,1000.0
2025-09-04T16:22:49.271757,-3.340,-3.420,351.790,-85.9,0.200,-0.300,180.360,1000.0
2025-09-04T16:22:49.272754,-3.340,-3.420,351.790,-85.9,0.200,-0.300,180.360,1000.0
2025-09-04T16:22:49.274763,-3.340,-3.420,351.790,-85.9,0.200,-0.300,180.360,1000.0
2025-09-04T16:22:49.275753,-3.340,-3.420,351.790,-85.9,0.200,-0.300,180.360,1000.0
2025-09-04T16:22:49.276755,-3.340,-3.420,351.790,-85.9,0.200,-0.300,180.360,1000.0
2025-09-04T16:22:49.394405,-3.340,-3.420,351.790,-85.9,0.200,-0.300,180.360,1000.0
2025-09-04T16:22:49.395403,-3.340,-3.420,351.790,-85.9,0.200,-0.300,180.360,1000.0
2025-09-04T16:22:49.397404,-3.340,-3.420,351.790,-85.9,0.200,-0.300,180.360,1000.0
2025-09-04T16:22:49.398402,-3.330,-3.430,351.790,-85.9,0.200,-0.300,180.360,1000.0
2025-09-04T16:22:49.399395,-3.330,-3.430,351.790,-86.0,0.200,-0.300,180.360,1000.0
2025-09-04T16:22:49.504404,-3.330,-3.430,351.790,-86.0,0.200,-0.300,180.360,1000.0
2025-09-04T16:22:49.505403,-3.320,-3.440,351.790,-85.9,0.200,-0.300,180.360,1000.0
2025-09-04T16:22:49.506403,-3.320,-3.440,351.790,-85.9,0.200,-0.300,180.360,1000.0
2025-09-04T16:22:49.508402,-3.320,-3.440,351.790,-85.9,0.200,-0.300,180.360,1000.0
2025-09-04T16:22:49.509404,-3.320,-3.440,351.790,-85.9,0.200,-0.300,180.360,1000.0
2025-09-04T16:22:49.613759,-3.320,-3.440,351.790,-85.9,0.200,-0.300,180.360,1000.0
2025-09-04T16:22:49.614800,-3.320,-3.450,351.790,-85.9,0.200,-0.300,180.360,1000.0
2025-09-04T16:22:49.615808,-3.320,-3.450,351.790,-85.9,0.200,-0.300,180.360,1000.0
2025-09-04T16:22:49.616809,-3.320,-3.440,351.790,-85.9,0.200,-0.300,180.360,1000.0
2025-09-04T16:22:49.617799,-3.320,-3.440,351.790,-85.9,0.200,-0.300,180.360,1000.0
2025-09-04T16:22:49.737334,-3.320,-3.440,351.790,-85.9,0.200,-0.300,180.360,1000.0
2025-09-04T16:22:49.739331,-3.320,-3.440,351.790,-85.9,0.200,-0.300,180.360,1000.0
2025-09-04T16:22:49.741330,-3.320,-3.430,351.790,-85.9,0.200,-0.300,180.360,1000.0
2025-09-04T16:22:49.743332,-3.320,-3.430,351.790,-85.9,0.200,-0.300,180.360,1000.0
2025-09-04T16:22:49.744328,-3.320,-3.430,351.790,-85.9,0.200,-0.300,180.360,1000.0
2025-09-04T16:22:49.860127,-3.320,-3.430,351.790,-85.9,0.200,-0.300,180.360,1000.0
2025-09-04T16:22:49.861127,-3.310,-3.430,351.790,-85.9,0.200,-0.300,180.360,1000.0
2025-09-04T16:22:49.862125,-3.310,-3.430,351.790,-85.9,0.200,-0.300,180.360,1000.0
2025-09-04T16:22:49.864125,-3.310,-3.430,351.790,-85.9,0.200,-0.300,180.360,1000.0
2025-09-04T16:22:49.865125,-3.310,-3.430,351.790,-86.0,0.200,-0.300,180.360,1000.0
2025-09-04T16:22:49.983820,-3.310,-3.430,351.790,-86.0,0.200,-0.300,180.360,1000.0
2025-09-04T16:22:49.984827,-3.310,-3.430,351.790,-86.0,0.200,-0.300,180.360,1000.0
2025-09-04T16:22:49.986827,-3.310,-3.430,351.790,-86.0,0.200,-0.300,180.360,1000.0
2025-09-04T16:22:49.988835,-3.310,-3.430,351.790,-86.0,0.200,-0.300,180.360,1000.0
2025-09-04T16:22:49.989833,-3.310,-3.430,351.790,-86.0,0.200,-0.300,180.360,1000.0
2025-09-04T16:22:50.105825,-3.310,-3.430,351.790,-86.0,0.200,-0.300,180.360,1000.0
2025-09-04T16:22:50.106827,-3.310,-3.430,351.790,-86.0,0.200,-0.300,180.360,1000.0
2025-09-04T16:22:50.107831,-3.310,-3.430,351.790,-86.0,0.200,-0.300,180.360,1000.0
2025-09-04T16:22:50.108831,-3.310,-3.430,351.790,-86.0,0.200,-0.300,180.360,1000.0
2025-09-04T16:22:50.110829,-3.310,-3.430,351.790,-85.9,0.200,-0.300,180.360,1000.0
2025-09-04T16:22:50.229826,-3.310,-3.430,351.790,-85.9,0.200,-0.300,180.360,1000.0
2025-09-04T16:22:50.231826,-3.310,-3.430,351.790,-85.9,0.200,-0.300,180.360,1000.0
2025-09-04T16:22:50.233826,-3.310,-3.440,351.790,-85.9,0.200,-0.300,180.360,1000.0
2025-09-04T16:22:50.235830,-3.310,-3.430,351.790,-85.9,0.200,-0.300,180.360,1000.0
2025-09-04T16:22:50.237827,-3.300,-3.430,351.790,-85.9,0.200,-0.300,180.360,1000.0
2025-09-04T16:22:50.352827,-3.300,-3.430,351.790,-85.9,0.200,-0.300,180.360,1000.0
2025-09-04T16:22:50.353826,-3.300,-3.430,351.790,-85.9,0.200,-0.300,180.360,1000.0
2025-09-04T16:22:50.355829,-3.300,-3.430,351.790,-85.9,0.200,-0.300,180.360,1000.0
2025-09-04T16:22:50.356828,-3.300,-3.430,351.790,-85.9,0.200,-0.300,180.360,1000.0
2025-09-04T16:22:50.357830,-3.300,-3.430,351.790,-85.9,0.200,-0.300,180.360,1000.0
2025-09-04T16:22:50.462534,-3.300,-3.430,351.790,-85.9,0.200,-0.300,180.360,1000.0
2025-09-04T16:22:50.464535,-3.300,-3.430,351.790,-85.9,0.200,-0.300,180.360,1000.0
2025-09-04T16:22:50.465534,-3.300,-3.430,351.790,-85.9,0.200,-0.300,180.360,1000.0
2025-09-04T16:22:50.466534,-3.300,-3.430,351.790,-85.9,0.200,-0.300,180.360,1000.0
2025-09-04T16:22:50.467535,-3.300,-3.430,351.790,-85.9,0.200,-0.300,180.360,1000.0
2025-09-04T16:22:50.586978,-3.300,-3.430,351.790,-85.9,0.200,-0.300,180.360,1000.0
2025-09-04T16:22:50.589970,-3.300,-3.430,351.790,-85.9,0.200,-0.300,180.360,1000.0
2025-09-04T16:22:50.590971,-3.300,-3.420,351.790,-85.9,0.200,-0.300,180.360,1000.0
2025-09-04T16:22:50.592979,-3.300,-3.420,351.790,-85.9,0.200,-0.300,180.360,1000.0
2025-09-04T16:22:50.593969,-3.300,-3.420,351.790,-85.9,0.200,-0.300,180.360,1000.0
2025-09-04T16:22:50.712010,-3.300,-3.420,351.790,-86.0,0.200,-0.300,180.360,1000.0
2025-09-04T16:22:50.713010,-3.300,-3.420,351.790,-86.0,0.200,-0.300,180.360,1000.0
2025-09-04T16:22:50.714012,-3.300,-3.420,351.790,-86.0,0.200,-0.300,180.360,1000.0
2025-09-04T16:22:50.715012,-3.300,-3.420,351.790,-86.0,0.200,-0.300,180.360,1000.0
2025-09-04T16:22:50.716012,-3.300,-3.420,351.790,-86.0,0.200,-0.300,180.360,1000.0
2025-09-04T16:22:50.834881,-3.300,-3.420,351.790,-85.9,0.200,-0.300,180.360,1000.0
2025-09-04T16:22:50.837883,-3.310,-3.420,351.790,-85.9,0.200,-0.300,180.360,1000.0
2025-09-04T16:22:50.839886,-3.310,-3.420,351.790,-85.9,0.200,-0.300,180.360,1000.0
2025-09-04T16:22:50.841880,-3.320,-3.420,351.790,-85.9,0.200,-0.300,180.360,1000.0
2025-09-04T16:22:50.842881,-3.320,-3.420,351.790,-85.9,0.200,-0.300,180.360,1000.0
2025-09-04T16:22:50.959880,-3.320,-3.420,351.790,-85.9,0.200,-0.300,180.360,1000.0
2025-09-04T16:22:50.961880,-3.320,-3.420,351.790,-85.9,0.200,-0.300,180.360,1000.0
2025-09-04T16:22:50.962880,-3.320,-3.420,351.790,-85.9,0.200,-0.300,180.360,1000.0
2025-09-04T16:22:50.963882,-3.320,-3.420,351.790,-85.9,0.200,-0.300,180.360,1000.0
2025-09-04T16:22:50.964881,-3.320,-3.420,351.790,-85.9,0.200,-0.300,180.360,1000.0
2025-09-04T16:22:51.081886,-3.320,-3.420,351.790,-85.9,0.200,-0.300,180.360,1000.0
2025-09-04T16:22:51.083880,-3.330,-3.430,351.790,-85.9,0.200,-0.300,180.360,1000.0
2025-09-04T16:22:51.084881,-3.330,-3.430,351.790,-85.9,0.200,-0.300,180.360,1000.0
2025-09-04T16:22:51.086881,-3.330,-3.430,351.790,-85.9,0.200,-0.300,180.360,1000.0
2025-09-04T16:22:51.087883,-3.330,-3.440,351.790,-85.9,0.200,-0.300,180.360,1000.0
2025-09-04T16:22:51.206880,-3.330,-3.440,351.790,-85.9,0.200,-0.300,180.360,1000.0
2025-09-04T16:22:51.207880,-3.330,-3.440,351.790,-85.9,0.200,-0.300,180.360,1000.0
2025-09-04T16:22:51.208880,-3.330,-3.430,351.790,-85.9,0.200,-0.300,180.360,1000.0
2025-09-04T16:22:51.210880,-3.320,-3.430,351.790,-85.9,0.200,-0.300,180.360,1000.0
2025-09-04T16:22:51.211881,-3.320,-3.430,351.790,-85.9,0.200,-0.300,180.360,1000.0
2025-09-04T16:22:51.317880,-3.320,-3.430,351.790,-85.9,0.200,-0.300,180.360,1000.0
2025-09-04T16:22:51.318880,-3.320,-3.420,351.790,-85.9,0.200,-0.300,180.360,1000.0
2025-09-04T16:22:51.320884,-3.320,-3.430,351.790,-85.9,0.200,-0.300,180.360,1000.0
2025-09-04T16:22:51.321881,-3.320,-3.430,351.790,-85.9,0.200,-0.300,180.360,1000.0
2025-09-04T16:22:51.322880,-3.320,-3.430,351.790,-85.9,0.200,-0.300,180.360,1000.0
2025-09-04T16:22:51.428608,-3.320,-3.430,351.790,-85.9,0.200,-0.300,180.360,1000.0
2025-09-04T16:22:51.430609,-3.320,-3.430,351.790,-85.9,0.200,-0.300,180.360,1000.0
2025-09-04T16:22:51.432617,-3.320,-3.430,351.790,-85.9,0.200,-0.300,180.360,1000.0
2025-09-04T16:22:51.433609,-3.320,-3.420,351.790,-85.9,0.200,-0.300,180.360,1000.0
2025-09-04T16:22:51.434613,-3.320,-3.420,351.790,-85.9,0.200,-0.300,180.360,1000.0
2025-09-04T16:22:51.550585,-3.310,-3.420,351.790,-85.9,0.200,-0.300,180.360,1000.0
2025-09-04T16:22:51.552586,-3.310,-3.420,351.790,-85.9,0.200,-0.300,180.360,1000.0
2025-09-04T16:22:51.554594,-3.310,-3.420,351.790,-85.9,0.200,-0.300,180.360,1000.0
2025-09-04T16:22:51.555588,-3.310,-3.420,351.790,-85.9,0.200,-0.300,180.360,1000.0
2025-09-04T16:22:51.557590,-3.310,-3.420,351.790,-85.9,0.200,-0.300,180.360,1000.0
2025-09-04T16:22:51.675032,-3.310,-3.420,351.790,-85.9,0.200,-0.300,180.360,1000.0
2025-09-04T16:22:51.677038,-3.310,-3.420,351.790,-85.9,0.200,-0.300,180.360,1000.0
2025-09-04T16:22:51.678032,-3.310,-3.420,351.790,-85.9,0.200,-0.300,180.360,1000.0
2025-09-04T16:22:51.679031,-3.310,-3.420,351.790,-85.9,0.200,-0.300,180.360,1000.0
2025-09-04T16:22:51.680032,-3.310,-3.420,351.790,-85.9,0.200,-0.300,180.360,1000.0
2025-09-04T16:22:51.785085,-3.310,-3.420,351.790,-85.9,0.200,-0.300,180.360,1000.0
2025-09-04T16:22:51.786085,-3.310,-3.420,351.790,-85.9,0.200,-0.300,180.360,1000.0
2025-09-04T16:22:51.788087,-3.310,-3.420,351.790,-85.9,0.200,-0.300,180.360,1000.0
2025-09-04T16:22:51.789088,-3.310,-3.410,351.790,-85.9,0.200,-0.300,180.360,1000.0
2025-09-04T16:22:51.791089,-3.310,-3.410,351.790,-85.9,0.200,-0.300,180.360,1000.0
2025-09-04T16:22:51.895578,-3.310,-3.410,351.790,-85.9,0.200,-0.300,180.360,1000.0
2025-09-04T16:22:51.896573,-3.310,-3.410,351.790,-85.9,0.200,-0.300,180.360,1000.0
2025-09-04T16:22:51.897573,-3.310,-3.410,351.790,-85.9,0.200,-0.300,180.360,1000.0
2025-09-04T16:22:51.899576,-3.310,-3.410,351.790,-85.9,0.200,-0.300,180.360,1000.0
2025-09-04T16:22:51.900575,-3.310,-3.410,351.790,-85.9,0.200,-0.300,180.360,1000.0
2025-09-04T16:22:52.018237,-3.310,-3.410,351.790,-85.9,0.200,-0.300,180.360,1000.0
2025-09-04T16:22:52.020210,-3.310,-3.410,351.790,-85.9,0.200,-0.300,180.360,1000.0
2025-09-04T16:22:52.021206,-3.310,-3.410,351.790,-85.9,0.200,-0.300,180.360,1000.0
2025-09-04T16:22:52.023218,-3.310,-3.410,351.790,-85.9,0.200,-0.300,180.360,1000.0
2025-09-04T16:22:52.024217,-3.310,-3.410,351.790,-85.9,0.200,-0.300,180.360,1000.0
2025-09-04T16:22:52.141206,-3.310,-3.410,351.790,-85.9,0.200,-0.300,180.360,1000.0
2025-09-04T16:22:52.143206,-3.310,-3.410,351.790,-85.9,0.200,-0.300,180.360,1000.0
2025-09-04T16:22:52.144207,-3.310,-3.410,351.790,-85.9,0.200,-0.300,180.360,1000.0
2025-09-04T16:22:52.145206,-3.310,-3.410,351.790,-85.9,0.200,-0.300,180.360,1000.0
2025-09-04T16:22:52.146206,-3.310,-3.410,351.790,-85.9,0.200,-0.300,180.360,1000.0
2025-09-04T16:22:52.250205,-3.310,-3.410,351.790,-85.9,0.200,-0.300,180.360,1000.0
2025-09-04T16:22:52.251205,-3.310,-3.410,351.790,-86.0,0.200,-0.300,180.360,1000.0
2025-09-04T16:22:52.252205,-3.310,-3.410,351.790,-86.0,0.200,-0.300,180.360,1000.0
2025-09-04T16:22:52.254209,-3.310,-3.410,351.790,-86.0,0.200,-0.300,180.360,1000.0
2025-09-04T16:22:52.256209,-3.310,-3.410,351.790,-86.0,0.200,-0.300,180.360,1000.0
2025-09-04T16:22:52.373825,-3.310,-3.410,351.790,-86.0,0.200,-0.300,180.360,1000.0
2025-09-04T16:22:52.375823,-3.310,-3.410,351.790,-86.0,0.200,-0.300,180.360,1000.0
2025-09-04T16:22:52.376822,-3.310,-3.410,351.790,-86.0,0.200,-0.300,180.360,1000.0
2025-09-04T16:22:52.377822,-3.310,-3.410,351.790,-86.0,0.200,-0.300,180.360,1000.0
2025-09-04T16:22:52.378824,-3.320,-3.410,351.790,-86.0,0.200,-0.300,180.360,1000.0
2025-09-04T16:22:52.497332,-3.320,-3.410,351.790,-86.0,0.200,-0.300,180.360,1000.0
2025-09-04T16:22:52.499331,-3.320,-3.410,351.790,-86.0,0.200,-0.300,180.360,1000.0
2025-09-04T16:22:52.500330,-3.320,-3.410,351.790,-86.0,0.200,-0.300,180.360,1000.0
2025-09-04T16:22:52.501331,-3.320,-3.410,351.790,-85.9,0.200,-0.300,180.360,1000.0
2025-09-04T16:22:52.502331,-3.320,-3.410,351.790,-85.9,0.200,-0.300,180.360,1000.0
2025-09-04T16:22:52.622335,-3.320,-3.410,351.790,-85.9,0.200,-0.300,180.360,1000.0
2025-09-04T16:22:52.623333,-3.330,-3.410,351.790,-85.9,0.200,-0.300,180.360,1000.0
2025-09-04T16:22:52.625334,-3.330,-3.410,351.790,-85.9,0.200,-0.300,180.360,1000.0
2025-09-04T16:22:52.626334,-3.330,-3.410,351.790,-85.9,0.200,-0.300,180.360,1000.0
2025-09-04T16:22:52.627333,-3.330,-3.410,351.790,-85.9,0.200,-0.300,180.360,1000.0
2025-09-04T16:22:52.744499,-3.330,-3.410,351.790,-85.9,0.200,-0.300,180.360,1000.0
2025-09-04T16:22:52.745499,-3.340,-3.410,351.790,-85.9,0.200,-0.300,180.360,1000.0
2025-09-04T16:22:52.746498,-3.340,-3.410,351.790,-85.9,0.200,-0.300,180.360,1000.0
2025-09-04T16:22:52.748499,-3.340,-3.420,351.790,-85.9,0.200,-0.300,180.360,1000.0
2025-09-04T16:22:52.749497,-3.340,-3.420,351.790,-85.9,0.200,-0.300,180.360,1000.0
2025-09-04T16:22:52.853551,-3.340,-3.420,351.790,-85.9,0.200,-0.300,180.360,1000.0
2025-09-04T16:22:52.855592,-3.340,-3.420,351.790,-85.9,0.200,-0.300,180.360,1000.0
2025-09-04T16:22:52.856552,-3.340,-3.420,351.790,-85.9,0.200,-0.300,180.360,1000.0
2025-09-04T16:22:52.858562,-3.340,-3.430,351.790,-85.9,0.200,-0.300,180.360,1000.0
2025-09-04T16:22:52.859552,-3.340,-3.430,351.790,-85.9,0.200,-0.300,180.360,1000.0
2025-09-04T16:22:52.977310,-3.350,-3.430,351.790,-85.9,0.200,-0.300,180.360,1000.0
2025-09-04T16:22:52.978309,-3.350,-3.430,351.790,-85.9,0.200,-0.300,180.360,1000.0
2025-09-04T16:22:52.979310,-3.350,-3.440,351.790,-85.9,0.200,-0.300,180.360,1000.0
2025-09-04T16:22:52.980311,-3.350,-3.440,351.790,-85.9,0.200,-0.300,180.360,1000.0
2025-09-04T16:22:52.982309,-3.350,-3.440,351.790,-85.9,0.200,-0.300,180.360,1000.0
2025-09-04T16:22:53.086308,-3.350,-3.440,351.790,-85.9,0.200,-0.300,180.360,1000.0
2025-09-04T16:22:53.088310,-3.350,-3.430,351.790,-85.9,0.200,-0.300,180.360,1000.0
2025-09-04T16:22:53.090315,-3.350,-3.440,351.790,-85.9,0.200,-0.300,180.360,1000.0
2025-09-04T16:22:53.091312,-3.350,-3.440,351.790,-85.9,0.200,-0.300,180.360,1000.0
2025-09-04T16:22:53.093310,-3.340,-3.440,351.790,-85.9,0.200,-0.300,180.360,1000.0
2025-09-04T16:22:53.210311,-3.340,-3.440,351.790,-85.9,0.200,-0.300,180.360,1000.0
2025-09-04T16:22:53.212311,-3.340,-3.440,351.790,-85.9,0.200,-0.300,180.360,1000.0
2025-09-04T16:22:53.214311,-3.340,-3.440,351.790,-85.9,0.200,-0.300,180.360,1000.0
2025-09-04T16:22:53.215312,-3.340,-3.440,351.790,-86.0,0.200,-0.300,180.360,1000.0
2025-09-04T16:22:53.217311,-3.340,-3.440,351.790,-86.0,0.200,-0.300,180.360,1000.0
2025-09-04T16:22:53.332309,-3.340,-3.440,351.790,-86.0,0.200,-0.300,180.360,1000.0
2025-09-04T16:22:53.334308,-3.340,-3.440,351.790,-86.0,0.200,-0.300,180.360,1000.0
2025-09-04T16:22:53.335310,-3.340,-3.440,351.790,-86.0,0.200,-0.300,180.360,1000.0
2025-09-04T16:22:53.336309,-3.350,-3.440,351.790,-86.0,0.200,-0.300,180.360,1000.0
2025-09-04T16:22:53.337312,-3.350,-3.440,351.790,-86.0,0.200,-0.300,180.360,1000.0
2025-09-04T16:22:53.456350,-3.350,-3.440,351.790,-86.0,0.200,-0.300,180.360,1000.0
2025-09-04T16:22:53.458352,-3.350,-3.440,351.790,-86.0,0.200,-0.300,180.360,1000.0
2025-09-04T16:22:53.459350,-3.350,-3.450,351.790,-85.9,0.200,-0.300,180.360,1000.0
2025-09-04T16:22:53.460348,-3.350,-3.450,351.790,-85.9,0.200,-0.300,180.360,1000.0
2025-09-04T16:22:53.461349,-3.350,-3.450,351.790,-85.9,0.200,-0.300,180.360,1000.0
2025-09-04T16:22:53.579054,-3.350,-3.450,351.790,-85.9,0.200,-0.300,180.360,1000.0
2025-09-04T16:22:53.580054,-3.350,-3.450,351.790,-86.0,0.200,-0.300,180.360,1000.0
2025-09-04T16:22:53.581053,-3.350,-3.450,351.790,-86.0,0.200,-0.300,180.360,1000.0
2025-09-04T16:22:53.582053,-3.350,-3.450,351.790,-86.0,0.200,-0.300,180.360,1000.0
2025-09-04T16:22:53.583053,-3.350,-3.450,351.790,-86.0,0.200,-0.300,180.360,1000.0
2025-09-04T16:22:53.690268,-3.350,-3.450,351.790,-85.9,0.200,-0.300,180.360,1000.0
2025-09-04T16:22:53.691255,-3.350,-3.450,351.790,-85.9,0.200,-0.300,180.360,1000.0
2025-09-04T16:22:53.692256,-3.350,-3.450,351.790,-85.9,0.200,-0.300,180.360,1000.0
2025-09-04T16:22:53.694256,-3.350,-3.450,351.790,-85.9,0.200,-0.300,180.360,1000.0
2025-09-04T16:22:53.695255,-3.350,-3.450,351.790,-85.9,0.200,-0.300,180.360,1000.0
2025-09-04T16:22:53.813295,-3.350,-3.450,351.790,-85.9,0.200,-0.300,180.360,1000.0
2025-09-04T16:22:53.815296,-3.350,-3.450,351.790,-85.9,0.200,-0.300,180.360,1000.0
2025-09-04T16:22:53.816295,-3.350,-3.440,351.790,-85.9,0.200,-0.300,180.360,1000.0
2025-09-04T16:22:53.817295,-3.350,-3.440,351.790,-85.9,0.200,-0.300,180.360,1000.0
2025-09-04T16:22:53.818295,-3.350,-3.440,351.790,-85.9,0.200,-0.300,180.360,1000.0
2025-09-04T16:22:53.935372,-3.340,-3.440,351.790,-85.9,0.200,-0.300,180.360,1000.0
2025-09-04T16:22:53.936372,-3.340,-3.440,351.790,-85.9,0.200,-0.300,180.360,1000.0
2025-09-04T16:22:53.939190,-3.340,-3.440,351.790,-85.9,0.200,-0.300,180.360,1000.0
2025-09-04T16:22:53.940375,-3.330,-3.440,351.790,-85.9,0.200,-0.300,180.360,1000.0
2025-09-04T16:22:53.941377,-3.330,-3.430,351.790,-85.9,0.200,-0.300,180.360,1000.0
2025-09-04T16:22:54.059509,-3.330,-3.430,351.790,-85.9,0.200,-0.300,180.360,1000.0
2025-09-04T16:22:54.060509,-3.330,-3.430,351.790,-85.9,0.200,-0.300,180.360,1000.0
2025-09-04T16:22:54.062509,-3.320,-3.430,351.790,-85.9,0.200,-0.300,180.360,1000.0
2025-09-04T16:22:54.063510,-3.320,-3.420,351.790,-85.9,0.200,-0.300,180.360,1000.0
2025-09-04T16:22:54.064510,-3.320,-3.420,351.790,-85.9,0.200,-0.300,180.360,1000.0
2025-09-04T16:22:54.181522,-3.320,-3.420,351.790,-85.9,0.200,-0.300,180.360,1000.0
2025-09-04T16:22:54.183514,-3.320,-3.420,351.790,-85.9,0.200,-0.300,180.360,1000.0
2025-09-04T16:22:54.185512,-3.320,-3.430,351.790,-85.9,0.200,-0.300,180.360,1000.0
2025-09-04T16:22:54.186512,-3.320,-3.430,351.790,-85.9,0.200,-0.300,180.360,1000.0
2025-09-04T16:22:54.188520,-3.320,-3.430,351.790,-85.9,0.200,-0.300,180.360,1000.0
2025-09-04T16:22:54.307513,-3.320,-3.430,351.790,-85.9,0.200,-0.300,180.360,1000.0
2025-09-04T16:22:54.308509,-3.320,-3.430,351.790,-85.9,0.200,-0.300,180.360,1000.0
2025-09-04T16:22:54.310509,-3.320,-3.430,351.790,-85.9,0.200,-0.300,180.360,1000.0
2025-09-04T16:22:54.311510,-3.320,-3.430,351.790,-85.9,0.200,-0.300,180.360,1000.0
2025-09-04T16:22:54.312509,-3.310,-3.430,351.790,-85.9,0.200,-0.300,180.360,1000.0
2025-09-04T16:22:54.429680,-3.310,-3.430,351.790,-85.9,0.200,-0.300,180.360,1000.0
2025-09-04T16:22:54.431683,-3.310,-3.430,351.790,-85.9,0.200,-0.300,180.360,1000.0
2025-09-04T16:22:54.433680,-3.310,-3.430,351.790,-85.9,0.200,-0.300,180.360,1000.0
2025-09-04T16:22:54.435681,-3.310,-3.430,351.790,-85.9,0.200,-0.300,180.360,1000.0
2025-09-04T16:22:54.436689,-3.310,-3.430,351.790,-85.9,0.200,-0.300,180.360,1000.0
2025-09-04T16:22:54.556715,-3.310,-3.420,351.790,-85.9,0.200,-0.300,180.360,1000.0
2025-09-04T16:22:54.557717,-3.310,-3.430,351.790,-85.9,0.200,-0.300,180.360,1000.0
2025-09-04T16:22:54.558716,-3.310,-3.430,351.790,-85.9,0.200,-0.300,180.360,1000.0
2025-09-04T16:22:54.559715,-3.310,-3.430,351.790,-85.9,0.200,-0.300,180.360,1000.0
2025-09-04T16:22:54.560716,-3.310,-3.430,351.790,-85.9,0.200,-0.300,180.360,1000.0
2025-09-04T16:22:54.679912,-3.310,-3.430,351.790,-85.9,0.200,-0.300,180.360,1000.0
2025-09-04T16:22:54.680918,-3.310,-3.430,351.790,-85.9,0.200,-0.300,180.360,1000.0
2025-09-04T16:22:54.681917,-3.310,-3.440,351.790,-85.9,0.200,-0.300,180.360,1000.0
2025-09-04T16:22:54.682916,-3.320,-3.440,351.790,-85.9,0.200,-0.300,180.360,1000.0
2025-09-04T16:22:54.683916,-3.320,-3.440,351.790,-85.8,0.200,-0.300,180.360,1000.0
2025-09-04T16:22:54.802943,-3.320,-3.440,351.790,-85.8,0.200,-0.300,180.360,1000.0
2025-09-04T16:22:54.803950,-3.320,-3.440,351.790,-85.8,0.200,-0.300,180.360,1000.0
2025-09-04T16:22:54.805951,-3.330,-3.450,351.790,-85.8,0.200,-0.300,180.360,1000.0
2025-09-04T16:22:54.808162,-3.330,-3.450,351.790,-85.8,0.200,-0.300,180.360,1000.0
2025-09-04T16:22:54.808950,-3.330,-3.450,351.790,-85.8,0.200,-0.300,180.360,1000.0
2025-09-04T16:22:54.925091,-3.330,-3.450,351.790,-85.8,0.200,-0.300,180.360,1000.0
2025-09-04T16:22:54.927091,-3.330,-3.450,351.790,-85.8,0.200,-0.300,180.360,1000.0
2025-09-04T16:22:54.928091,-3.330,-3.450,351.790,-85.8,0.200,-0.300,180.360,1000.0
2025-09-04T16:22:54.930090,-3.330,-3.450,351.790,-85.8,0.200,-0.300,180.360,1000.0
2025-09-04T16:22:54.931091,-3.330,-3.450,351.790,-85.8,0.200,-0.300,180.360,1000.0
2025-09-04T16:22:55.048159,-3.340,-3.450,351.790,-85.8,0.200,-0.300,180.360,1000.0
2025-09-04T16:22:55.049158,-3.340,-3.450,351.790,-85.8,0.200,-0.300,180.360,1000.0
2025-09-04T16:22:55.050158,-3.340,-3.450,351.790,-85.8,0.200,-0.300,180.360,1000.0
2025-09-04T16:22:55.051158,-3.340,-3.450,351.790,-85.8,0.200,-0.300,180.360,1000.0
2025-09-04T16:22:55.052159,-3.340,-3.450,351.790,-85.8,0.200,-0.300,180.360,1000.0
2025-09-04T16:22:55.170158,-3.340,-3.450,351.790,-85.8,0.200,-0.300,180.360,1000.0
2025-09-04T16:22:55.172161,-3.340,-3.450,351.790,-85.9,0.200,-0.300,180.360,1000.0
2025-09-04T16:22:55.175163,-3.340,-3.450,351.790,-85.9,0.200,-0.300,180.360,1000.0
2025-09-04T16:22:55.177173,-3.340,-3.450,351.790,-85.9,0.200,-0.300,180.360,1000.0
2025-09-04T16:22:55.178161,-3.340,-3.450,351.790,-85.9,0.200,-0.300,180.360,1000.0
2025-09-04T16:22:55.294158,-3.340,-3.450,351.790,-85.9,0.200,-0.300,180.360,1000.0
2025-09-04T16:22:55.296159,-3.350,-3.450,351.790,-85.9,0.200,-0.300,180.360,1000.0
2025-09-04T16:22:55.297158,-3.350,-3.450,351.790,-85.9,0.200,-0.300,180.360,1000.0
2025-09-04T16:22:55.298158,-3.350,-3.450,351.790,-85.9,0.200,-0.300,180.360,1000.0
2025-09-04T16:22:55.299159,-3.350,-3.460,351.790,-85.9,0.200,-0.300,180.360,1000.0
2025-09-04T16:22:55.419605,-3.350,-3.460,351.790,-85.9,0.200,-0.300,180.360,1000.0
2025-09-04T16:22:55.421602,-3.350,-3.460,351.790,-85.9,0.200,-0.300,180.360,1000.0
2025-09-04T16:22:55.423605,-3.350,-3.460,351.790,-85.9,0.200,-0.300,180.360,1000.0
2025-09-04T16:22:55.424602,-3.350,-3.460,351.790,-85.9,0.200,-0.300,180.360,1000.0
2025-09-04T16:22:55.425605,-3.350,-3.460,351.790,-85.9,0.200,-0.300,180.360,1000.0
2025-09-04T16:22:55.541491,-3.350,-3.460,351.790,-85.9,0.200,-0.300,180.360,1000.0
2025-09-04T16:22:55.543490,-3.350,-3.460,351.790,-85.9,0.200,-0.300,180.360,1000.0
2025-09-04T16:22:55.544490,-3.350,-3.460,351.790,-85.9,0.200,-0.300,180.360,1000.0
2025-09-04T16:22:55.545490,-3.350,-3.460,351.790,-85.9,0.200,-0.300,180.360,1000.0
2025-09-04T16:22:55.546490,-3.350,-3.460,351.790,-85.9,0.200,-0.300,180.360,1000.0
2025-09-04T16:22:55.665457,-3.350,-3.460,351.790,-85.9,0.200,-0.300,180.360,1000.0
2025-09-04T16:22:55.667461,-3.350,-3.460,351.790,-85.9,0.200,-0.300,180.360,1000.0
2025-09-04T16:22:55.668461,-3.350,-3.460,351.790,-85.9,0.200,-0.300,180.360,1000.0
2025-09-04T16:22:55.669462,-3.350,-3.460,351.790,-85.9,0.200,-0.300,180.360,1000.0
2025-09-04T16:22:55.670462,-3.350,-3.460,351.790,-85.9,0.200,-0.300,180.360,1000.0
2025-09-04T16:22:55.774354,-3.350,-3.460,351.790,-85.9,0.200,-0.300,180.360,1000.0
2025-09-04T16:22:55.776356,-3.350,-3.460,351.790,-85.9,0.200,-0.300,180.360,1000.0
2025-09-04T16:22:55.777354,-3.350,-3.460,351.790,-85.9,0.200,-0.300,180.360,1000.0
2025-09-04T16:22:55.779352,-3.350,-3.460,351.790,-85.9,0.200,-0.300,180.360,1000.0
2025-09-04T16:22:55.780353,-3.350,-3.460,351.790,-85.9,0.200,-0.300,180.360,1000.0
2025-09-04T16:22:55.897352,-3.350,-3.460,351.790,-85.9,0.200,-0.300,180.360,1000.0
2025-09-04T16:22:55.898351,-3.350,-3.460,351.790,-85.9,0.200,-0.300,180.360,1000.0
2025-09-04T16:22:55.900353,-3.350,-3.460,351.790,-85.9,0.200,-0.300,180.360,1000.0
2025-09-04T16:22:55.901354,-3.350,-3.460,351.790,-85.9,0.200,-0.300,180.360,1000.0
2025-09-04T16:22:55.903352,-3.350,-3.460,351.790,-85.9,0.200,-0.300,180.360,1000.0
2025-09-04T16:22:56.020354,-3.350,-3.460,351.790,-85.9,0.200,-0.300,180.360,1000.0
2025-09-04T16:22:56.022354,-3.350,-3.460,351.790,-85.9,0.200,-0.300,180.360,1000.0
2025-09-04T16:22:56.024356,-3.350,-3.460,351.790,-85.9,0.200,-0.300,180.360,1000.0
2025-09-04T16:22:56.026356,-3.350,-3.460,351.790,-85.9,0.200,-0.300,180.360,1000.0
2025-09-04T16:22:56.028353,-3.350,-3.460,351.790,-85.9,0.200,-0.300,180.360,1000.0
2025-09-04T16:22:56.143354,-3.350,-3.460,351.790,-85.9,0.200,-0.300,180.360,1000.0
2025-09-04T16:22:56.145353,-3.350,-3.460,351.790,-85.9,0.200,-0.300,180.360,1000.0
2025-09-04T16:22:56.146351,-3.350,-3.460,351.790,-85.9,0.200,-0.300,180.360,1000.0
2025-09-04T16:22:56.147354,-3.350,-3.460,351.790,-85.9,0.200,-0.300,180.360,1000.0
2025-09-04T16:22:56.149353,-3.350,-3.460,351.790,-85.9,0.200,-0.300,180.360,1000.0
2025-09-04T16:22:56.264352,-3.350,-3.460,351.790,-85.9,0.200,-0.300,180.360,1000.0
2025-09-04T16:22:56.265352,-3.340,-3.460,351.790,-85.9,0.200,-0.300,180.360,1000.0
2025-09-04T16:22:56.266353,-3.340,-3.460,351.790,-85.9,0.200,-0.300,180.360,1000.0
2025-09-04T16:22:56.267352,-3.330,-3.460,351.790,-85.9,0.200,-0.300,180.360,1000.0
2025-09-04T16:22:56.268353,-3.330,-3.460,351.790,-85.9,0.200,-0.300,180.360,1000.0
2025-09-04T16:22:56.373353,-3.330,-3.460,351.790,-85.9,0.200,-0.300,180.360,1000.0
2025-09-04T16:22:56.375360,-3.330,-3.460,351.790,-85.9,0.200,-0.300,180.360,1000.0
2025-09-04T16:22:56.377352,-3.330,-3.460,351.790,-85.9,0.200,-0.300,180.360,1000.0
2025-09-04T16:22:56.378353,-3.330,-3.460,351.790,-85.9,0.200,-0.300,180.360,1000.0
2025-09-04T16:22:56.379352,-3.330,-3.460,351.790,-85.9,0.200,-0.300,180.360,1000.0
2025-09-04T16:22:56.497642,-3.330,-3.460,351.790,-85.9,0.200,-0.300,180.360,1000.0
2025-09-04T16:22:56.499642,-3.320,-3.460,351.790,-85.9,0.200,-0.300,180.360,1000.0
2025-09-04T16:22:56.500642,-3.320,-3.460,351.790,-85.9,0.200,-0.300,180.360,1000.0
2025-09-04T16:22:56.501643,-3.320,-3.460,351.790,-85.9,0.200,-0.300,180.360,1000.0
2025-09-04T16:22:56.502641,-3.320,-3.460,351.790,-85.9,0.200,-0.300,180.360,1000.0
2025-09-04T16:22:56.620425,-3.320,-3.460,351.790,-85.9,0.200,-0.300,180.360,1000.0
2025-09-04T16:22:56.621424,-3.320,-3.460,351.790,-85.9,0.200,-0.300,180.360,1000.0
2025-09-04T16:22:56.623427,-3.320,-3.460,351.790,-85.9,0.200,-0.300,180.360,1000.0
2025-09-04T16:22:56.625426,-3.310,-3.460,351.790,-85.9,0.200,-0.300,180.360,1000.0
2025-09-04T16:22:56.626425,-3.310,-3.460,351.790,-85.9,0.200,-0.300,180.360,1000.0
2025-09-04T16:22:56.743885,-3.320,-3.460,351.790,-85.9,0.200,-0.300,180.360,1000.0
2025-09-04T16:22:56.744885,-3.320,-3.460,351.790,-85.9,0.200,-0.300,180.360,1000.0
2025-09-04T16:22:56.745885,-3.320,-3.460,351.790,-85.9,0.200,-0.300,180.360,1000.0
2025-09-04T16:22:56.746885,-3.330,-3.460,351.790,-85.9,0.200,-0.300,180.360,1000.0
2025-09-04T16:22:56.747886,-3.330,-3.460,351.790,-85.9,0.200,-0.300,180.360,1000.0
2025-09-04T16:22:56.865839,-3.330,-3.460,351.790,-85.9,0.200,-0.300,180.360,1000.0
2025-09-04T16:22:56.867839,-3.330,-3.460,351.790,-85.9,0.200,-0.300,180.360,1000.0
2025-09-04T16:22:56.868838,-3.330,-3.460,351.790,-85.9,0.200,-0.300,180.360,1000.0
2025-09-04T16:22:56.869840,-3.330,-3.460,351.790,-85.9,0.200,-0.300,180.360,1000.0
2025-09-04T16:22:56.870839,-3.330,-3.460,351.790,-85.9,0.200,-0.300,180.360,1000.0
2025-09-04T16:22:56.991345,-3.330,-3.460,351.790,-85.9,0.200,-0.300,180.360,1000.0
2025-09-04T16:22:56.993346,-3.330,-3.460,351.790,-85.9,0.200,-0.300,180.360,1000.0
2025-09-04T16:22:56.994343,-3.330,-3.460,351.790,-85.9,0.200,-0.300,180.360,1000.0
2025-09-04T16:22:56.995344,-3.340,-3.460,351.790,-85.9,0.200,-0.300,180.360,1000.0
2025-09-04T16:22:56.997343,-3.340,-3.460,351.790,-85.9,0.200,-0.300,180.360,1000.0
2025-09-04T16:22:57.115344,-3.340,-3.460,351.790,-85.9,0.200,-0.300,180.360,1000.0
2025-09-04T16:22:57.116342,-3.340,-3.460,351.790,-85.9,0.200,-0.300,180.360,1000.0
2025-09-04T16:22:57.117344,-3.340,-3.460,351.790,-85.9,0.200,-0.300,180.360,1000.0
2025-09-04T16:22:57.118344,-3.340,-3.460,351.790,-85.9,0.200,-0.300,180.360,1000.0
2025-09-04T16:22:57.119343,-3.340,-3.460,351.790,-85.9,0.200,-0.300,180.360,1000.0
2025-09-04T16:22:57.226343,-3.340,-3.460,351.790,-85.9,0.200,-0.300,180.360,1000.0
2025-09-04T16:22:57.229345,-3.340,-3.460,351.790,-85.9,0.200,-0.300,180.360,1000.0
2025-09-04T16:22:57.231348,-3.340,-3.460,351.790,-85.9,0.200,-0.300,180.360,1000.0
2025-09-04T16:22:57.232344,-3.340,-3.460,351.790,-85.9,0.200,-0.300,180.360,1000.0
2025-09-04T16:22:57.233344,-3.340,-3.460,351.790,-85.9,0.200,-0.300,180.360,1000.0
2025-09-04T16:22:57.351823,-3.350,-3.460,351.790,-85.9,0.200,-0.300,180.360,1000.0
2025-09-04T16:22:57.352829,-3.350,-3.460,351.790,-85.9,0.200,-0.300,180.360,1000.0
2025-09-04T16:22:57.353827,-3.350,-3.460,351.790,-85.9,0.200,-0.300,180.360,1000.0
2025-09-04T16:22:57.354828,-3.350,-3.460,351.790,-85.9,0.200,-0.300,180.360,1000.0
2025-09-04T16:22:57.356829,-3.350,-3.460,351.790,-85.9,0.200,-0.300,180.360,1000.0
2025-09-04T16:22:57.475039,-3.350,-3.460,351.790,-85.8,0.200,-0.300,180.360,1000.0
2025-09-04T16:22:57.478038,-3.350,-3.460,351.790,-85.8,0.200,-0.300,180.360,1000.0
2025-09-04T16:22:57.479037,-3.350,-3.460,351.790,-85.9,0.200,-0.300,180.360,1000.0
2025-09-04T16:22:57.480036,-3.350,-3.460,351.790,-85.9,0.200,-0.300,180.360,1000.0
2025-09-04T16:22:57.481035,-3.350,-3.460,351.790,-85.9,0.200,-0.300,180.360,1000.0
2025-09-04T16:22:57.596725,-3.350,-3.460,351.790,-85.9,0.200,-0.300,180.360,1000.0
2025-09-04T16:22:57.597726,-3.350,-3.460,351.790,-85.9,0.200,-0.300,180.360,1000.0
2025-09-04T16:22:57.598725,-3.350,-3.460,351.790,-85.9,0.200,-0.300,180.360,1000.0
2025-09-04T16:22:57.599725,-3.350,-3.460,351.790,-85.9,0.200,-0.300,180.360,1000.0
2025-09-04T16:22:57.600725,-3.350,-3.460,351.790,-85.9,0.200,-0.300,180.360,1000.0
2025-09-04T16:22:57.706970,-3.350,-3.460,351.790,-85.9,0.200,-0.300,180.360,1000.0
2025-09-04T16:22:57.708967,-3.350,-3.460,351.790,-85.9,0.200,-0.300,180.360,1000.0
2025-09-04T16:22:57.710968,-3.350,-3.460,351.790,-85.9,0.200,-0.300,180.360,1000.0
2025-09-04T16:22:57.711966,-3.350,-3.460,351.790,-85.9,0.200,-0.300,180.360,1000.0
2025-09-04T16:22:57.712967,-3.350,-3.460,351.790,-85.9,0.200,-0.300,180.360,1000.0
2025-09-04T16:22:57.831536,-3.350,-3.460,351.790,-85.9,0.200,-0.300,180.360,1000.0
2025-09-04T16:22:57.833536,-3.350,-3.460,351.790,-85.9,0.200,-0.300,180.360,1000.0
2025-09-04T16:22:57.835535,-3.350,-3.460,351.790,-85.9,0.200,-0.300,180.360,1000.0
2025-09-04T16:22:57.836537,-3.350,-3.460,351.790,-85.9,0.200,-0.300,180.360,1000.0
2025-09-04T16:22:57.837536,-3.350,-3.460,351.790,-85.9,0.200,-0.300,180.360,1000.0
2025-09-04T16:22:57.955620,-3.350,-3.460,351.790,-85.9,0.200,-0.300,180.360,1000.0
2025-09-04T16:22:57.957620,-3.350,-3.460,351.790,-85.9,0.200,-0.300,180.360,1000.0
2025-09-04T16:22:57.959622,-3.350,-3.460,351.790,-85.9,0.200,-0.300,180.360,1000.0
2025-09-04T16:22:57.960619,-3.350,-3.460,351.790,-85.9,0.200,-0.300,180.360,1000.0
2025-09-04T16:22:57.961618,-3.350,-3.460,351.790,-85.9,0.200,-0.300,180.360,1000.0
2025-09-04T16:22:58.078619,-3.350,-3.460,351.790,-85.9,0.200,-0.300,180.360,1000.0
2025-09-04T16:22:58.080619,-3.350,-3.460,351.790,-85.9,0.200,-0.300,180.360,1000.0
2025-09-04T16:22:58.081620,-3.350,-3.460,351.790,-85.9,0.200,-0.300,180.360,1000.0
2025-09-04T16:22:58.082619,-3.350,-3.460,351.790,-85.9,0.200,-0.300,180.360,1000.0
2025-09-04T16:22:58.083619,-3.350,-3.460,351.790,-85.9,0.200,-0.300,180.360,1000.0
2025-09-04T16:22:58.201618,-3.350,-3.460,351.790,-85.9,0.200,-0.300,180.360,1000.0
2025-09-04T16:22:58.202617,-3.340,-3.460,351.790,-85.9,0.200,-0.300,180.360,1000.0
2025-09-04T16:22:58.203619,-3.340,-3.460,351.790,-85.9,0.200,-0.300,180.360,1000.0
2025-09-04T16:22:58.205620,-3.340,-3.460,351.790,-85.9,0.200,-0.300,180.360,1000.0
2025-09-04T16:22:58.206619,-3.340,-3.460,351.790,-85.9,0.200,-0.300,180.360,1000.0
2025-09-04T16:22:58.326624,-3.350,-3.460,351.790,-85.9,0.200,-0.300,180.360,1000.0
2025-09-04T16:22:58.327619,-3.350,-3.460,351.790,-85.9,0.200,-0.300,180.360,1000.0
2025-09-04T16:22:58.330618,-3.350,-3.450,351.790,-85.9,0.200,-0.300,180.360,1000.0
2025-09-04T16:22:58.333619,-3.350,-3.450,351.790,-86.0,0.200,-0.300,180.360,1000.0
2025-09-04T16:22:58.334618,-3.350,-3.450,351.790,-86.0,0.200,-0.300,180.360,1000.0
2025-09-04T16:22:58.449836,-3.350,-3.440,351.790,-86.0,0.200,-0.300,180.360,1000.0
2025-09-04T16:22:58.450835,-3.350,-3.440,351.790,-86.0,0.200,-0.300,180.360,1000.0
2025-09-04T16:22:58.451835,-3.350,-3.440,351.790,-86.0,0.200,-0.300,180.360,1000.0
2025-09-04T16:22:58.452834,-3.350,-3.440,351.790,-86.0,0.200,-0.300,180.360,1000.0
2025-09-04T16:22:58.454837,-3.350,-3.440,351.790,-86.0,0.200,-0.300,180.360,1000.0
2025-09-04T16:22:58.575056,-3.350,-3.440,351.790,-86.0,0.200,-0.300,180.360,1000.0
2025-09-04T16:22:58.577059,-3.350,-3.430,351.790,-85.9,0.200,-0.300,180.360,1000.0
2025-09-04T16:22:58.578059,-3.350,-3.430,351.790,-85.9,0.200,-0.300,180.360,1000.0
2025-09-04T16:22:58.580055,-3.350,-3.430,351.790,-85.9,0.200,-0.300,180.360,1000.0
2025-09-04T16:22:58.581055,-3.350,-3.430,351.790,-85.9,0.200,-0.300,180.360,1000.0
2025-09-04T16:22:58.697364,-3.350,-3.430,351.790,-85.9,0.200,-0.300,180.360,1000.0
2025-09-04T16:22:58.699395,-3.340,-3.420,351.790,-85.9,0.200,-0.300,180.360,1000.0
2025-09-04T16:22:58.700392,-3.340,-3.420,351.790,-85.9,0.200,-0.300,180.360,1000.0
2025-09-04T16:22:58.701392,-3.340,-3.420,351.790,-85.9,0.200,-0.300,180.360,1000.0
2025-09-04T16:22:58.702430,-3.340,-3.420,351.790,-85.9,0.200,-0.300,180.360,1000.0
2025-09-04T16:22:58.820997,-3.340,-3.420,351.790,-86.0,0.200,-0.300,180.360,1000.0
2025-09-04T16:22:58.822990,-3.340,-3.420,351.790,-86.0,0.200,-0.300,180.360,1000.0
2025-09-04T16:22:58.824992,-3.340,-3.420,351.790,-86.0,0.200,-0.300,180.360,1000.0
2025-09-04T16:22:58.825991,-3.340,-3.420,351.790,-86.0,0.200,-0.300,180.360,1000.0
2025-09-04T16:22:58.826991,-3.340,-3.420,351.790,-86.0,0.200,-0.300,180.360,1000.0
2025-09-04T16:22:58.944548,-3.340,-3.420,351.790,-86.0,0.200,-0.300,180.360,1000.0
2025-09-04T16:22:58.946547,-3.340,-3.420,351.790,-86.0,0.200,-0.300,180.360,1000.0
2025-09-04T16:22:58.947548,-3.340,-3.420,351.790,-86.0,0.200,-0.300,180.360,1000.0
2025-09-04T16:22:58.948547,-3.350,-3.430,351.790,-86.0,0.200,-0.300,180.360,1000.0
2025-09-04T16:22:58.949546,-3.350,-3.430,351.790,-85.9,0.200,-0.300,180.360,1000.0
2025-09-04T16:22:59.055599,-3.340,-3.430,351.790,-86.0,0.200,-0.300,180.360,1000.0
2025-09-04T16:22:59.056599,-3.340,-3.430,351.790,-86.0,0.200,-0.300,180.360,1000.0
2025-09-04T16:22:59.058602,-3.330,-3.440,351.790,-86.0,0.200,-0.300,180.360,1000.0
2025-09-04T16:22:59.059602,-3.330,-3.440,351.790,-86.0,0.200,-0.300,180.360,1000.0
2025-09-04T16:22:59.061602,-3.330,-3.440,351.790,-86.0,0.200,-0.300,180.360,1000.0
2025-09-04T16:22:59.178603,-3.320,-3.440,351.790,-86.0,0.200,-0.300,180.360,1000.0
2025-09-04T16:22:59.180599,-3.320,-3.440,351.790,-86.0,0.200,-0.300,180.360,1000.0
2025-09-04T16:22:59.181601,-3.330,-3.450,351.790,-86.0,0.200,-0.300,180.360,1000.0
2025-09-04T16:22:59.182601,-3.330,-3.450,351.790,-86.0,0.200,-0.300,180.360,1000.0
2025-09-04T16:22:59.183602,-3.330,-3.450,351.790,-86.0,0.200,-0.300,180.360,1000.0
2025-09-04T16:22:59.301601,-3.330,-3.450,351.790,-86.0,0.200,-0.300,180.360,1000.0
2025-09-04T16:22:59.303600,-3.330,-3.450,351.790,-86.0,0.200,-0.300,180.360,1000.0
2025-09-04T16:22:59.304601,-3.330,-3.450,351.790,-86.0,0.200,-0.300,180.360,1000.0
2025-09-04T16:22:59.305600,-3.330,-3.450,351.790,-86.0,0.200,-0.300,180.360,1000.0
2025-09-04T16:22:59.306600,-3.330,-3.450,351.790,-86.0,0.200,-0.300,180.360,1000.0
2025-09-04T16:22:59.425022,-3.330,-3.450,351.790,-86.0,0.200,-0.300,180.360,1000.0
2025-09-04T16:22:59.428022,-3.330,-3.450,351.790,-86.0,0.200,-0.300,180.360,1000.0
2025-09-04T16:22:59.431022,-3.330,-3.450,351.790,-86.0,0.200,-0.300,180.360,1000.0
2025-09-04T16:22:59.433024,-3.320,-3.450,351.790,-86.0,0.200,-0.300,180.360,1000.0
2025-09-04T16:22:59.436024,-3.320,-3.450,351.790,-86.0,0.200,-0.300,180.360,1000.0
2025-09-04T16:22:59.546151,-3.320,-3.450,351.790,-86.0,0.200,-0.300,180.360,1000.0
2025-09-04T16:22:59.547149,-3.320,-3.450,351.790,-86.0,0.200,-0.300,180.360,1000.0
2025-09-04T16:22:59.548163,-3.320,-3.450,351.790,-86.0,0.200,-0.300,180.360,1000.0
2025-09-04T16:22:59.550154,-3.320,-3.450,351.790,-86.0,0.200,-0.300,180.360,1000.0
2025-09-04T16:22:59.551152,-3.310,-3.450,351.790,-86.0,0.200,-0.300,180.360,1000.0
2025-09-04T16:22:59.668366,-3.310,-3.450,351.790,-86.0,0.200,-0.300,180.360,1000.0
2025-09-04T16:22:59.669366,-3.310,-3.450,351.790,-86.0,0.200,-0.300,180.360,1000.0
2025-09-04T16:22:59.671365,-3.310,-3.450,351.790,-86.0,0.200,-0.300,180.360,1000.0
2025-09-04T16:22:59.672365,-3.310,-3.450,351.790,-85.9,0.200,-0.300,180.360,1000.0
2025-09-04T16:22:59.673365,-3.310,-3.450,351.790,-86.0,0.200,-0.300,180.360,1000.0
2025-09-04T16:22:59.793379,-3.310,-3.450,351.790,-86.0,0.200,-0.300,180.360,1000.0
2025-09-04T16:22:59.795366,-3.310,-3.450,351.790,-86.0,0.200,-0.300,180.360,1000.0
2025-09-04T16:22:59.796367,-3.310,-3.450,351.790,-86.0,0.200,-0.300,180.360,1000.0
2025-09-04T16:22:59.797365,-3.310,-3.450,351.790,-86.0,0.200,-0.300,180.360,1000.0
2025-09-04T16:22:59.799365,-3.310,-3.450,351.790,-86.0,0.200,-0.300,180.360,1000.0
2025-09-04T16:22:59.904368,-3.310,-3.450,351.790,-86.0,0.200,-0.300,180.360,1000.0
2025-09-04T16:22:59.905366,-3.310,-3.450,351.790,-85.9,0.200,-0.300,180.360,1000.0
2025-09-04T16:22:59.907365,-3.310,-3.450,351.790,-85.9,0.200,-0.300,180.360,1000.0
2025-09-04T16:22:59.908367,-3.310,-3.450,351.790,-85.9,0.200,-0.300,180.360,1000.0
2025-09-04T16:22:59.910365,-3.310,-3.440,351.790,-85.9,0.200,-0.300,180.360,1000.0
2025-09-04T16:23:00.026406,-3.310,-3.440,351.790,-85.9,0.200,-0.300,180.360,1000.0
2025-09-04T16:23:00.029406,-3.310,-3.440,351.790,-85.9,0.200,-0.300,180.360,1000.0
2025-09-04T16:23:00.031405,-3.300,-3.450,351.790,-85.9,0.200,-0.300,180.360,1000.0
2025-09-04T16:23:00.032406,-3.300,-3.450,351.790,-85.9,0.200,-0.300,180.360,1000.0
2025-09-04T16:23:00.033404,-3.300,-3.450,351.790,-85.9,0.200,-0.300,180.360,1000.0
2025-09-04T16:23:00.147576,-3.300,-3.450,351.790,-85.9,0.200,-0.300,180.360,1000.0
2025-09-04T16:23:00.149570,-3.300,-3.450,351.790,-85.9,0.200,-0.300,180.360,1000.0
2025-09-04T16:23:00.150563,-3.300,-3.450,351.790,-85.9,0.200,-0.300,180.360,1000.0
2025-09-04T16:23:00.151563,-3.300,-3.450,351.790,-85.9,0.200,-0.300,180.360,1000.0
2025-09-04T16:23:00.152564,-3.300,-3.450,351.790,-85.9,0.200,-0.300,180.360,1000.0
2025-09-04T16:23:00.269598,-3.300,-3.450,351.790,-85.9,0.200,-0.300,180.360,1000.0
2025-09-04T16:23:00.271562,-3.300,-3.450,351.790,-85.9,0.200,-0.300,180.360,1000.0
2025-09-04T16:23:00.272562,-3.300,-3.450,351.790,-85.9,0.200,-0.300,180.360,1000.0
2025-09-04T16:23:00.273564,-3.300,-3.450,351.790,-85.9,0.200,-0.300,180.360,1000.0
2025-09-04T16:23:00.275563,-3.300,-3.450,351.790,-85.9,0.200,-0.300,180.360,1000.0
2025-09-04T16:23:00.393481,-3.300,-3.450,351.790,-85.9,0.200,-0.300,180.360,1000.0
2025-09-04T16:23:00.395485,-3.300,-3.450,351.800,-86.0,0.200,-0.300,180.360,1000.0
2025-09-04T16:23:00.397474,-3.300,-3.450,351.790,-86.0,0.200,-0.300,180.360,1000.0
2025-09-04T16:23:00.398472,-3.300,-3.450,351.790,-86.0,0.200,-0.300,180.360,1000.0
2025-09-04T16:23:00.399475,-3.300,-3.450,351.790,-86.0,0.200,-0.300,180.360,1000.0
2025-09-04T16:23:00.512473,-3.300,-3.450,351.790,-86.0,0.200,-0.300,180.360,1000.0
2025-09-04T16:23:00.513473,-3.310,-3.450,351.790,-86.0,0.200,-0.300,180.360,1000.0
2025-09-04T16:23:00.515474,-3.310,-3.450,351.790,-86.0,0.200,-0.300,180.360,1000.0
2025-09-04T16:23:00.516475,-3.310,-3.450,351.790,-86.0,0.200,-0.300,180.360,1000.0
2025-09-04T16:23:00.517474,-3.310,-3.450,351.790,-86.0,0.200,-0.300,180.360,1000.0
2025-09-04T16:23:00.635900,-3.310,-3.450,351.790,-86.0,0.200,-0.300,180.360,1000.0
2025-09-04T16:23:00.636898,-3.300,-3.450,351.790,-86.0,0.200,-0.300,180.360,1000.0
2025-09-04T16:23:00.637899,-3.310,-3.450,351.790,-85.9,0.200,-0.300,180.360,1000.0
2025-09-04T16:23:00.638899,-3.310,-3.450,351.790,-85.9,0.200,-0.300,180.360,1000.0
2025-09-04T16:23:00.639899,-3.310,-3.450,351.780,-85.9,0.200,-0.300,180.360,1000.0
2025-09-04T16:23:00.758390,-3.310,-3.450,351.780,-86.0,0.200,-0.300,180.360,1000.0
2025-09-04T16:23:00.760389,-3.310,-3.450,351.780,-86.0,0.200,-0.300,180.360,1000.0
2025-09-04T16:23:00.762390,-3.310,-3.460,351.780,-86.0,0.200,-0.300,180.360,1000.0
2025-09-04T16:23:00.763389,-3.310,-3.450,351.780,-86.0,0.200,-0.300,180.360,1000.0
2025-09-04T16:23:00.764388,-3.300,-3.460,351.780,-86.0,0.200,-0.300,180.360,1000.0
2025-09-04T16:23:00.881918,-3.310,-3.460,351.780,-86.0,0.200,-0.300,180.360,1000.0
2025-09-04T16:23:00.882918,-3.310,-3.460,351.780,-86.0,0.200,-0.300,180.360,1000.0
2025-09-04T16:23:00.884920,-3.300,-3.460,351.790,-86.0,0.200,-0.300,180.360,1000.0
2025-09-04T16:23:00.885920,-3.300,-3.460,351.780,-86.0,0.200,-0.300,180.360,1000.0
2025-09-04T16:23:00.887920,-3.300,-3.470,351.790,-86.0,0.200,-0.300,180.360,1000.0
2025-09-04T16:23:01.004927,-3.290,-3.470,351.790,-86.0,0.200,-0.300,180.360,1000.0
2025-09-04T16:23:01.006930,-3.290,-3.470,351.780,-86.0,0.200,-0.300,180.360,1000.0
2025-09-04T16:23:01.007923,-3.300,-3.470,351.790,-86.0,0.200,-0.300,180.360,1000.0
2025-09-04T16:23:01.009924,-3.300,-3.470,351.790,-86.0,0.200,-0.300,180.360,1000.0
2025-09-04T16:23:01.010920,-3.300,-3.470,351.790,-86.0,0.200,-0.300,180.360,1000.0
2025-09-04T16:23:01.127922,-3.300,-3.470,351.790,-86.0,0.200,-0.300,180.360,1000.0
2025-09-04T16:23:01.130919,-3.300,-3.470,351.790,-86.0,0.200,-0.300,180.360,1000.0
2025-09-04T16:23:01.132919,-3.300,-3.460,351.790,-86.0,0.200,-0.300,180.360,1000.0
2025-09-04T16:23:01.133921,-3.300,-3.470,351.780,-86.0,0.200,-0.300,180.360,1000.0
2025-09-04T16:23:01.135921,-3.300,-3.470,351.780,-86.0,0.200,-0.300,180.360,1000.0
2025-09-04T16:23:01.253420,-3.300,-3.470,351.770,-86.0,0.200,-0.300,180.360,1000.0
2025-09-04T16:23:01.255423,-3.310,-3.470,351.770,-86.0,0.200,-0.300,180.360,1000.0
2025-09-04T16:23:01.257421,-3.300,-3.470,351.770,-86.0,0.200,-0.300,180.360,1000.0
2025-09-04T16:23:01.260425,-3.300,-3.470,351.770,-86.0,0.200,-0.300,180.360,1000.0
2025-09-04T16:23:01.262424,-3.300,-3.460,351.770,-86.0,0.200,-0.300,180.360,1000.0
2025-09-04T16:23:01.376421,-3.300,-3.460,351.770,-86.0,0.200,-0.300,180.360,1000.0
2025-09-04T16:23:01.378422,-3.300,-3.450,351.770,-86.0,0.200,-0.300,180.360,1000.0
2025-09-04T16:23:01.379423,-3.300,-3.450,351.770,-86.0,0.200,-0.300,180.360,1000.0
2025-09-04T16:23:01.381421,-3.300,-3.450,351.760,-86.0,0.200,-0.300,180.360,1000.0
2025-09-04T16:23:01.382429,-3.300,-3.450,351.760,-86.0,0.200,-0.300,180.360,1000.0
2025-09-04T16:23:01.497226,-3.290,-3.440,351.760,-86.0,0.200,-0.300,180.360,1000.0
2025-09-04T16:23:01.498226,-3.290,-3.440,351.760,-86.0,0.200,-0.300,180.360,1000.0
2025-09-04T16:23:01.499227,-3.290,-3.440,351.760,-86.0,0.200,-0.300,180.360,1000.0
2025-09-04T16:23:01.500226,-3.290,-3.430,351.760,-86.0,0.200,-0.300,180.360,1000.0
2025-09-04T16:23:01.502228,-3.300,-3.430,351.760,-86.0,0.200,-0.300,180.360,1000.0
2025-09-04T16:23:01.621345,-3.300,-3.430,351.760,-86.0,0.200,-0.300,180.360,1000.0
2025-09-04T16:23:01.622346,-3.300,-3.430,351.760,-86.0,0.200,-0.300,180.360,1000.0
2025-09-04T16:23:01.623345,-3.300,-3.430,351.760,-86.0,0.200,-0.300,180.360,1000.0
2025-09-04T16:23:01.624348,-3.300,-3.430,351.750,-86.0,0.200,-0.300,180.360,1000.0
2025-09-04T16:23:01.626366,-3.300,-3.430,351.750,-86.0,0.200,-0.300,180.360,1000.0
2025-09-04T16:23:01.745258,-3.300,-3.430,351.750,-85.9,0.200,-0.300,180.360,1000.0
2025-09-04T16:23:01.746258,-3.300,-3.430,351.750,-85.9,0.200,-0.300,180.360,1000.0
2025-09-04T16:23:01.748258,-3.300,-3.430,351.750,-85.9,0.200,-0.300,180.360,1000.0
2025-09-04T16:23:01.749259,-3.300,-3.430,351.750,-85.9,0.200,-0.300,180.360,1000.0
2025-09-04T16:23:01.750257,-3.300,-3.420,351.750,-85.9,0.200,-0.300,180.360,1000.0
2025-09-04T16:23:01.868012,-3.300,-3.420,351.750,-85.9,0.200,-0.300,180.360,1000.0
2025-09-04T16:23:01.870010,-3.290,-3.420,351.740,-85.9,0.200,-0.300,180.360,1000.0
2025-09-04T16:23:01.871011,-3.290,-3.420,351.740,-85.9,0.200,-0.300,180.360,1000.0
2025-09-04T16:23:01.872010,-3.280,-3.420,351.750,-85.9,0.200,-0.300,180.360,1000.0
2025-09-04T16:23:01.873010,-3.280,-3.410,351.750,-85.9,0.200,-0.300,180.360,1000.0
2025-09-04T16:23:01.990995,-3.280,-3.410,351.750,-85.9,0.200,-0.300,180.360,1000.0
2025-09-04T16:23:01.991996,-3.280,-3.410,351.750,-85.9,0.200,-0.300,180.360,1000.0
2025-09-04T16:23:01.993994,-3.280,-3.410,351.750,-85.9,0.200,-0.300,180.360,1000.0
2025-09-04T16:23:01.994995,-3.280,-3.410,351.750,-85.9,0.200,-0.300,180.360,1000.0
2025-09-04T16:23:01.995994,-3.280,-3.410,351.750,-85.9,0.200,-0.300,180.360,1000.0
2025-09-04T16:23:02.099995,-3.280,-3.410,351.750,-85.9,0.200,-0.300,180.360,1000.0
2025-09-04T16:23:02.100996,-3.280,-3.410,351.750,-85.9,0.200,-0.300,180.360,1000.0
2025-09-04T16:23:02.101995,-3.280,-3.420,351.750,-85.9,0.200,-0.300,180.360,1000.0
2025-09-04T16:23:02.103006,-3.280,-3.420,351.750,-85.9,0.200,-0.300,180.360,1000.0
2025-09-04T16:23:02.103995,-3.280,-3.430,351.750,-85.9,0.200,-0.300,180.360,1000.0
2025-09-04T16:23:02.208996,-3.280,-3.430,351.750,-85.9,0.200,-0.300,180.360,1000.0
2025-09-04T16:23:02.209996,-3.280,-3.430,351.750,-85.9,0.200,-0.300,180.360,1000.0
2025-09-04T16:23:02.211998,-3.280,-3.430,351.750,-85.9,0.200,-0.300,180.360,1000.0
2025-09-04T16:23:02.212999,-3.280,-3.430,351.750,-85.9,0.200,-0.300,180.360,1000.0
2025-09-04T16:23:02.213999,-3.290,-3.430,351.750,-85.9,0.200,-0.300,180.360,1000.0
2025-09-04T16:23:02.332994,-3.290,-3.430,351.750,-85.9,0.200,-0.300,180.360,1000.0
2025-09-04T16:23:02.334996,-3.280,-3.430,351.750,-85.9,0.200,-0.300,180.360,1000.0
2025-09-04T16:23:02.335995,-3.280,-3.430,351.750,-85.9,0.200,-0.300,180.360,1000.0
2025-09-04T16:23:02.337002,-3.280,-3.430,351.750,-85.9,0.200,-0.300,180.360,1000.0
2025-09-04T16:23:02.337994,-3.280,-3.430,351.750,-85.9,0.200,-0.300,180.360,1000.0
2025-09-04T16:23:02.455076,-3.280,-3.430,351.750,-85.9,0.200,-0.300,180.360,1000.0
2025-09-04T16:23:02.457074,-3.280,-3.430,351.750,-85.9,0.200,-0.300,180.360,1000.0
2025-09-04T16:23:02.458075,-3.280,-3.430,351.750,-85.9,0.200,-0.300,180.360,1000.0
2025-09-04T16:23:02.460077,-3.280,-3.430,351.750,-85.9,0.200,-0.300,180.360,1000.0
2025-09-04T16:23:02.461084,-3.280,-3.430,351.750,-85.9,0.200,-0.300,180.360,1000.0
2025-09-04T16:23:02.580376,-3.280,-3.420,351.750,-85.9,0.200,-0.300,180.360,1000.0
2025-09-04T16:23:02.582375,-3.270,-3.420,351.750,-85.9,0.200,-0.300,180.360,1000.0
2025-09-04T16:23:02.583376,-3.270,-3.420,351.750,-85.9,0.200,-0.300,180.360,1000.0
2025-09-04T16:23:02.584374,-3.270,-3.420,351.750,-85.9,0.200,-0.300,180.360,1000.0
2025-09-04T16:23:02.585374,-3.270,-3.420,351.750,-85.9,0.200,-0.300,180.360,1000.0
2025-09-04T16:23:02.703116,-3.270,-3.420,351.750,-85.9,0.200,-0.300,180.360,1000.0
2025-09-04T16:23:02.705121,-3.270,-3.420,351.750,-85.9,0.200,-0.300,180.360,1000.0
2025-09-04T16:23:02.706120,-3.270,-3.420,351.750,-85.9,0.200,-0.300,180.360,1000.0
2025-09-04T16:23:02.707120,-3.270,-3.420,351.750,-85.9,0.200,-0.300,180.360,1000.0
2025-09-04T16:23:02.709123,-3.270,-3.420,351.750,-85.9,0.200,-0.300,180.360,1000.0
2025-09-04T16:23:02.827344,-3.270,-3.420,351.750,-85.9,0.200,-0.300,180.360,1000.0
2025-09-04T16:23:02.831343,-3.260,-3.410,351.750,-85.9,0.200,-0.300,180.360,1000.0
2025-09-04T16:23:02.835342,-3.260,-3.410,351.740,-85.9,0.200,-0.300,180.360,1000.0
2025-09-04T16:23:02.837344,-3.260,-3.410,351.750,-85.9,0.200,-0.300,180.360,1000.0
2025-09-04T16:23:02.839345,-3.260,-3.420,351.750,-85.9,0.200,-0.300,180.360,1000.0
2025-09-04T16:23:02.948861,-3.270,-3.410,351.750,-85.9,0.200,-0.300,180.360,1000.0
2025-09-04T16:23:02.950863,-3.260,-3.410,351.750,-85.9,0.200,-0.300,180.360,1000.0
2025-09-04T16:23:02.951864,-3.270,-3.410,351.750,-85.9,0.200,-0.300,180.360,1000.0
2025-09-04T16:23:02.952863,-3.260,-3.410,351.750,-85.9,0.200,-0.300,180.360,1000.0
2025-09-04T16:23:02.954864,-3.270,-3.410,351.750,-85.9,0.200,-0.300,180.360,1000.0
2025-09-04T16:23:03.072862,-3.270,-3.410,351.750,-85.9,0.200,-0.300,180.360,1000.0
2025-09-04T16:23:03.074865,-3.280,-3.410,351.750,-85.9,0.200,-0.300,180.360,1000.0
2025-09-04T16:23:03.077866,-3.280,-3.410,351.750,-85.9,0.200,-0.300,180.360,1000.0
2025-09-04T16:23:03.079862,-3.280,-3.410,351.750,-85.9,0.200,-0.300,180.360,1000.0
2025-09-04T16:23:03.081860,-3.280,-3.410,351.750,-85.9,0.200,-0.300,180.360,1000.0
2025-09-04T16:23:03.199861,-3.280,-3.410,351.760,-85.9,0.200,-0.300,180.360,1000.0
2025-09-04T16:23:03.201862,-3.280,-3.420,351.760,-85.9,0.200,-0.300,180.360,1000.0
2025-09-04T16:23:03.202861,-3.290,-3.420,351.760,-85.9,0.200,-0.300,180.360,1000.0
2025-09-04T16:23:03.204863,-3.290,-3.420,351.760,-85.9,0.200,-0.300,180.360,1000.0
2025-09-04T16:23:03.205862,-3.290,-3.410,351.760,-85.9,0.200,-0.300,180.360,1000.0
2025-09-04T16:23:03.322861,-3.290,-3.420,351.750,-85.9,0.200,-0.300,180.360,1000.0
2025-09-04T16:23:03.323861,-3.290,-3.410,351.750,-85.9,0.200,-0.300,180.360,1000.0
2025-09-04T16:23:03.325862,-3.290,-3.410,351.760,-85.9,0.200,-0.300,180.360,1000.0
2025-09-04T16:23:03.328866,-3.300,-3.410,351.760,-85.9,0.200,-0.300,180.360,1000.0
2025-09-04T16:23:03.329864,-3.300,-3.410,351.760,-85.9,0.200,-0.300,180.360,1000.0
2025-09-04T16:23:03.447861,-3.300,-3.410,351.750,-85.9,0.200,-0.300,180.360,1000.0
2025-09-04T16:23:03.448861,-3.300,-3.410,351.760,-86.0,0.200,-0.300,180.360,1000.0
2025-09-04T16:23:03.449861,-3.300,-3.400,351.750,-86.0,0.200,-0.300,180.360,1000.0
2025-09-04T16:23:03.451861,-3.300,-3.410,351.750,-86.0,0.200,-0.300,180.360,1000.0
2025-09-04T16:23:03.452862,-3.300,-3.420,351.750,-86.0,0.200,-0.300,180.360,1000.0
2025-09-04T16:23:03.556021,-3.300,-3.420,351.750,-86.0,0.200,-0.300,180.360,1000.0
2025-09-04T16:23:03.558021,-3.300,-3.430,351.750,-86.0,0.200,-0.300,180.360,1000.0
2025-09-04T16:23:03.559021,-3.300,-3.430,351.750,-85.9,0.200,-0.300,180.360,1000.0
2025-09-04T16:23:03.561022,-3.300,-3.430,351.750,-85.9,0.200,-0.300,180.360,1000.0
2025-09-04T16:23:03.562034,-3.310,-3.430,351.750,-85.9,0.200,-0.300,180.360,1000.0
2025-09-04T16:23:03.679732,-3.310,-3.440,351.750,-85.9,0.200,-0.300,180.360,1000.0
2025-09-04T16:23:03.681736,-3.320,-3.440,351.750,-85.9,0.200,-0.300,180.360,1000.0
2025-09-04T16:23:03.682722,-3.310,-3.440,351.750,-85.9,0.200,-0.300,180.360,1000.0
2025-09-04T16:23:03.684723,-3.310,-3.440,351.750,-86.0,0.200,-0.300,180.360,1000.0
2025-09-04T16:23:03.685723,-3.310,-3.450,351.750,-86.0,0.200,-0.300,180.360,1000.0
2025-09-04T16:23:03.789590,-3.310,-3.450,351.750,-86.0,0.200,-0.300,180.360,1000.0
2025-09-04T16:23:03.790590,-3.310,-3.450,351.750,-86.0,0.200,-0.300,180.360,1000.0
2025-09-04T16:23:03.791589,-3.310,-3.450,351.750,-86.0,0.200,-0.300,180.360,1000.0
2025-09-04T16:23:03.793590,-3.310,-3.450,351.760,-86.0,0.200,-0.300,180.360,1000.0
2025-09-04T16:23:03.794590,-3.310,-3.450,351.760,-86.0,0.200,-0.300,180.360,1000.0
2025-09-04T16:23:03.912427,-3.310,-3.450,351.760,-86.0,0.200,-0.300,180.360,1000.0
2025-09-04T16:23:03.913424,-3.310,-3.450,351.760,-86.0,0.200,-0.300,180.360,1000.0
2025-09-04T16:23:03.914425,-3.310,-3.450,351.760,-86.0,0.200,-0.300,180.360,1000.0
2025-09-04T16:23:03.915423,-3.310,-3.450,351.760,-86.0,0.200,-0.300,180.360,1000.0
2025-09-04T16:23:03.917424,-3.310,-3.450,351.760,-86.0,0.200,-0.300,180.360,1000.0
2025-09-04T16:23:04.022001,-3.310,-3.450,351.760,-86.0,0.200,-0.300,180.360,1000.0
2025-09-04T16:23:04.023000,-3.310,-3.450,351.760,-86.0,0.200,-0.300,180.360,1000.0
2025-09-04T16:23:04.023999,-3.310,-3.450,351.760,-86.0,0.200,-0.300,180.360,1000.0
2025-09-04T16:23:04.025999,-3.310,-3.450,351.760,-86.0,0.200,-0.300,180.360,1000.0
2025-09-04T16:23:04.027002,-3.310,-3.450,351.760,-86.0,0.200,-0.300,180.360,1000.0
2025-09-04T16:23:04.147051,-3.310,-3.450,351.760,-86.0,0.200,-0.300,180.360,1000.0
2025-09-04T16:23:04.148052,-3.310,-3.450,351.760,-86.0,0.200,-0.300,180.360,1000.0
2025-09-04T16:23:04.149051,-3.310,-3.450,351.760,-86.0,0.200,-0.300,180.360,1000.0
2025-09-04T16:23:04.150093,-3.310,-3.450,351.760,-86.0,0.200,-0.300,180.360,1000.0
